%  GPST                  latitude(deg) longitude(deg)  height(m)   Q  ns   sdn(m)   sde(m)   sdu(m)  sdne(m)  sdeu(m)  sdun(m) age(s)  ratio
2015/05/11 11:24:24.000   55.373791263   10.400828744    47.9283   2   4   4.0367   2.9841   6.9428  -3.2854   4.3126  -4.9857   1.00    1.1
2015/05/11 11:24:25.000   55.373785105   10.400855268    52.0530   2   4   2.9258   2.1600   4.9831  -2.3831   3.1093  -3.5975   1.00    1.3
2015/05/11 11:24:26.000   55.373829453   10.400841621    44.9066   2   4   2.4085   1.7774   4.0879  -1.9623   2.5547  -2.9567   1.00    1.7
2015/05/11 11:24:27.000   55.373843563   10.400831423    40.9578   2   4   2.0939   1.5450   3.5474  -1.7061   2.2187  -2.5682   1.00    1.0
2015/05/11 11:24:28.000   55.373834588   10.400840149    43.6977   2   4   1.8767   1.3846   3.1759  -1.5293   1.9873  -2.3005   1.00    1.2
2015/05/11 11:24:29.000   55.373845057   10.400823168    40.3782   5   3   7.9961   6.8221  28.1244  -7.3695  13.8141 -14.9297   1.00    0.0
2015/05/11 11:24:30.000   55.373772176   10.400925195    68.7103   2   4   2.0643   1.6252   5.3620  -1.7776   2.8367  -3.1457   1.00    1.7
2015/05/11 11:24:31.000   55.373774245   10.400916030    67.5767   1   4   1.4130   1.2088   5.0080  -1.3069   2.4603  -2.6599   2.00    4.2
2015/05/11 11:24:32.000   55.373822059   10.400839607    48.6424   1   4   1.0078   0.8621   3.5726  -0.9320   1.7548  -1.8971   1.00   44.2
2015/05/11 11:24:33.000   55.373827068   10.400827796    46.6821   1   4   0.8249   0.7055   2.9245  -0.7628   1.4362  -1.5528   1.00   19.0
2015/05/11 11:24:34.000   55.373822262   10.400823540    46.9449   2   4   1.3918   1.0560   2.9440  -1.1613   1.6689  -1.8881   1.00    2.0
2015/05/11 11:24:35.000   55.373831312   10.400801727    42.8323   1   4   0.6396   0.5469   2.2684  -0.5913   1.1136  -1.2040   1.00    4.2
2015/05/11 11:24:36.000   55.373834664   10.400783678    39.4631   1   4   0.5838   0.4992   2.0709  -0.5397   1.0164  -1.0990   1.00  999.9
2015/05/11 11:24:37.000   55.373834327   10.400778484    39.2696   2   4   1.1871   0.8913   2.3292  -0.9816   1.3608  -1.5514   1.00    1.5
2015/05/11 11:24:38.000   55.373832950   10.400773021    38.7268   2   4   1.7343   1.4074   5.1449  -1.5322   2.6228  -2.8751   1.00    1.6
2015/05/11 11:24:39.000   55.373823033   10.400782522    42.1664   2   4   1.4057   1.1134   3.7646  -1.2162   1.9713  -2.1802   1.00    2.6
2015/05/11 11:24:40.000   55.373875569   10.400712131    37.5707   1   4   3.1949   2.3114   3.5486  -2.7175   2.8639  -3.3670   1.00    7.9
2015/05/11 11:24:41.000   55.373872457   10.400713149    39.1205   2   4   2.5747   1.8995   3.9033  -2.1941   2.6187  -3.0229   1.00    1.1
2015/05/11 11:24:42.000   55.373858542   10.400730925    43.7391   2   4   2.1641   1.6005   3.3842  -1.8417   2.2336  -2.5744   1.00    1.6
2015/05/11 11:24:43.000   55.373840173   10.400754599    49.6120   1   4   1.6863   1.2205   1.8715  -1.4345   1.5112  -1.7763   1.00   20.5
2015/05/11 11:24:47.000   55.373819746   10.400779599    53.3799   1   4   1.5106   1.0939   1.6742  -1.2854   1.3531  -1.5901   1.00   36.8
2015/05/11 11:24:48.000   55.373748408   10.400869296    63.4876   2   4   3.2598   2.3745   4.0668  -2.7711   3.0437  -3.5547   1.00    1.7
2015/05/11 11:24:49.000   55.373742061   10.400877860    65.1834   2   4   2.4358   1.7803   3.2266  -2.0684   2.3284  -2.7108   1.00    1.0
2015/05/11 11:24:50.000   55.373724645   10.400901740    70.3576   2   4   2.5200   1.9445   5.6345  -2.1986   3.1621  -3.5385   1.00    1.4
2015/05/11 11:24:51.000   55.373739688   10.400878701    64.1494   2   4   2.0906   1.5919   4.2476  -1.8080   2.4794  -2.7976   1.00    1.2
2015/05/11 11:24:52.000   55.373731238   10.400887192    64.9593   2   4   1.8451   1.3970   3.5871  -1.5884   2.1344  -2.4180   1.00    1.5
2015/05/11 11:24:53.000   55.373724839   10.400893909    65.7640   1   4   0.6983   0.5973   2.5014  -0.6458   1.2221  -1.3212   1.00    3.3
2015/05/11 11:24:54.000   55.373727462   10.400890113    64.3043   2   4   1.5451   1.1637   2.8786  -1.3224   1.7452  -1.9854   1.00    2.3
2015/05/11 11:24:55.000   55.373728377   10.400889374    63.6304   2   4   1.4425   1.0848   2.6551  -1.2319   1.6182  -1.8432   1.00    1.8
2015/05/11 11:24:56.000   55.373719734   10.400901040    65.9852   2   4   1.3583   1.0202   2.4773  -1.1578   1.5157  -1.7282   1.00    1.9
2015/05/11 11:25:05.000   55.373727468   10.400886306    58.7431   2   4   3.6977   2.7832   6.5981  -3.1992   4.1066  -4.6757   1.00    1.2
2015/05/11 11:25:06.000   55.373728906   10.400885445    59.5227   2   4   2.7090   2.0360   4.7734  -2.3383   2.9881  -3.4067   1.00    1.1
2015/05/11 11:25:07.000   55.373751143   10.400854686    52.6010   1   4   1.8911   1.3735   2.0798  -1.6116   1.6900  -1.9830   1.00    3.4
2015/05/11 11:25:08.000   55.373749520   10.400861684    55.8915   1   4   1.6477   1.1969   1.8117  -1.4043   1.4724  -1.7276   1.00   10.7
2015/05/11 11:25:09.000   55.373750404   10.400864854    58.2605   1   4   1.4789   1.0744   1.6256  -1.2605   1.3214  -1.5503   1.00    6.2
2015/05/11 11:25:10.000   55.373746675   10.400871933    60.9582   2   4   3.2145   2.3541   4.1339  -2.7438   3.0405  -3.5364   1.00    1.1
2015/05/11 11:25:11.000   55.373718115   10.400910427    66.7642   2   4   2.4108   1.7731   3.3173  -2.0584   2.3458  -2.7180   1.00    1.1
2015/05/11 11:25:12.000   55.373705622   10.400927242    67.9824   2   4   2.0255   1.4940   2.9068  -1.7291   2.0077  -2.3210   1.00    1.2
2015/05/11 11:25:13.000   55.373704583   10.400929663    68.9064   2   4   1.7867   1.3205   2.6387  -1.5246   1.7942  -2.0710   1.00    1.9
2015/05/11 11:25:14.000   55.373688468   10.400951279    73.0751   2   4   1.6194   1.1987   2.4417  -1.3810   1.6418  -1.8930   1.00    1.1
2015/05/11 11:25:15.000   55.373680999   10.400961803    75.4696   2   4   1.4933   1.1066   2.2872  -1.2726   1.5250  -1.7570   1.00    1.0
2015/05/11 11:25:16.000   55.373684193   10.400958074    74.8140   2   4   1.3936   1.0337   2.1609  -1.1868   1.4312  -1.6481   1.00    1.9
2015/05/11 11:25:17.000   55.373687966   10.400951992    73.8967   2   4   1.3121   0.9739   2.0545  -1.1166   1.3536  -1.5581   1.00    1.4
2015/05/11 11:25:18.000   55.373692386   10.400945349    72.8681   2   4   1.2438   0.9237   1.9632  -1.0576   1.2878  -1.4818   1.00    1.0
2015/05/11 11:25:19.000   55.373698197   10.400936050    71.2211   2   4   1.1853   0.8807   1.8834  -1.0071   1.2310  -1.4161   1.00    1.9
2015/05/11 11:25:20.000   55.373704785   10.400925130    69.3826   1   4   0.0425   0.0314   0.0726  -0.0347   0.0453  -0.0524   1.00    3.1
2015/05/11 11:25:21.000   55.373708403   10.400918228    67.9820   2   4   1.0898   0.8104   1.7497  -0.9246   1.1370  -1.3076   1.00    2.4
2015/05/11 11:25:22.000   55.373716252   10.400907500    65.7786   2   4   1.0501   0.7810   1.6929  -0.8902   1.0975  -1.2620   1.00    1.0
2015/05/11 11:25:23.000   55.373721160   10.400901052    64.5747   2   4   1.0144   0.7547   1.6412  -0.8594   1.0619  -1.2209   1.00    1.1
2015/05/11 11:25:24.000   55.373753752   10.400858665    60.0788   2   4   3.1012   2.2629   3.5834  -2.6441   2.8166  -3.2926   1.00    1.0
2015/05/11 11:25:25.000   55.373750997   10.400861626    59.9558   2   4   3.0962   2.2593   3.5679  -2.6399   2.8093  -3.2844   2.00    1.0
2015/05/11 11:25:26.000   55.373757260   10.400853494    59.9692   1   4   3.0584   2.2274   3.3389  -2.6100   2.7270  -3.1955   1.00   12.5
2015/05/11 11:25:27.000   55.373737716   10.400878073    62.5942   2   4   2.2885   1.6727   2.7257  -1.9501   2.1002  -2.4515   1.00    1.3
2015/05/11 11:25:28.000   55.373703837   10.400910287    67.3796   1   4   1.8566   1.3526   2.0258  -1.5846   1.6552  -1.9392   1.00   48.9
2015/05/11 11:25:29.000   55.373666141   10.400936751    73.6957   2   4   2.2825   1.2947   3.2790  -1.6345   1.8697  -2.6887   1.00    1.6
2015/05/11 11:25:30.000   55.373623016   10.400967974    80.8191   2   4   2.7918   1.3221   4.2235  -1.8253   2.1712  -3.3993   1.00  175.6
2015/05/11 11:25:31.000   55.373635126   10.400965709    78.5789   2   4   2.1336   1.1260   3.1657  -1.4679   1.7196  -2.5593   1.00    1.0
2015/05/11 11:25:32.000   55.373629298   10.400985776    78.4867   2   4   3.2683   2.2518   3.9608  -2.6670   2.8488  -3.5515   1.00    1.4
2015/05/11 11:25:33.000   55.373649288   10.400977890    74.7929   1   4   1.2673   0.4115   2.0137  -0.7217   0.9098  -1.5974   1.00   19.3
2015/05/11 11:25:34.000   55.373681644   10.400956273    69.2983   1   4   1.1343   0.3684   1.8023  -0.6459   0.8143  -1.4297   1.00   26.8
2015/05/11 11:25:35.000   55.373691772   10.400946755    68.2336   2   4   1.8170   1.2200   2.3803  -1.4443   1.5882  -2.0319   1.00    1.7
2015/05/11 11:25:36.000   55.373774232   10.400896020    54.2879   2   4   2.7823   1.3131   4.1964  -1.8165   2.1539  -3.3847   1.00    1.1
2015/05/11 11:25:37.000   55.373776035   10.400890503    54.3440   2   4   2.1256   1.1172   3.1389  -1.4601   1.7025  -2.5463   1.00    1.3
2015/05/11 11:25:38.000   55.373744461   10.400900861    60.8437   1   4   0.0418   0.0310   0.0713  -0.0341   0.0444  -0.0514   1.00   35.6
2015/05/11 11:25:39.000   55.373744343   10.400897672    61.1041   2   4   1.6240   0.9355   2.3611  -1.1687   1.3510  -1.9186   1.00    2.3
2015/05/11 11:25:40.000   55.373801318   10.400819680    54.6521   1   4   3.0196   2.2038   3.2791  -2.5796   2.6881  -3.1465   1.00    3.1
2015/05/11 11:25:41.000   55.373807314   10.400813644    53.4943   2   4   2.3719   1.6485   2.8812  -1.9440   2.0813  -2.5743   1.00    1.2
2015/05/11 11:25:42.000   55.373810322   10.400811613    52.6763   1   4   1.8328   1.3380   1.9892  -1.5659   1.6313  -1.9092   1.00    5.6
2015/05/11 11:25:43.000   55.373812711   10.400807995    51.8305   1   4   1.5971   1.1661   1.7330  -1.3646   1.4214  -1.6635   2.00    5.0
2015/05/11 11:25:44.000   55.373808776   10.400808940    52.6993   1   4   1.4335   1.0468   1.5551  -1.2249   1.2757  -1.4928   1.00   10.1
2015/05/11 11:25:45.000   55.373806083   10.400803926    53.6804   1   4   1.3114   0.9578   1.4223  -1.1207   1.1670  -1.3655   1.00    4.6
2015/05/11 11:25:46.000   55.373802068   10.400805651    54.0490   2   4   1.3679   0.9309   1.8080  -1.0942   1.2118  -1.5304   1.00    1.8
2015/05/11 11:25:47.000   55.373798475   10.400807060    54.6053   1   4   1.1383   0.8316   1.2339  -0.9729   1.0128  -1.1848   1.00    8.0
2015/05/11 11:25:48.000   55.373848306   10.400738537    48.8473   2   4   3.0567   2.2080   3.4502  -2.5847   2.7187  -3.2234   1.00    1.0
2015/05/11 11:25:49.000   55.373845881   10.400737238    49.6852   2   4   2.2722   1.6303   2.6365  -1.9080   2.0230  -2.4179   1.00    1.0
2015/05/11 11:25:50.000   55.373834782   10.400746583    51.7728   2   4   1.8995   1.3557   2.2550  -1.5860   1.6938  -2.0368   1.00    1.1
2015/05/11 11:25:51.000   55.373826705   10.400756205    52.8945   2   4   1.6709   1.1876   2.0222  -1.3885   1.4927  -1.8035   1.00    1.1
2015/05/11 11:25:52.000   55.373817676   10.400764700    54.4442   2   4   1.5123   1.0713   1.8608  -1.2517   1.3537  -1.6415   1.00    1.2
2015/05/11 11:25:53.000   55.373808243   10.400775859    55.6314   2   4   1.3937   0.9847   1.7399  -1.1496   1.2503  -1.5203   1.00    1.2
2015/05/11 11:25:54.000   55.373802603   10.400783158    56.0426   2   4   1.3005   0.9170   1.6446  -1.0696   1.1694  -1.4249   1.00    1.3
2015/05/11 11:25:55.000   55.373799234   10.400788678    56.0819   2   4   1.2248   0.8622   1.5666  -1.0048   1.1038  -1.3473   1.00    1.2
2015/05/11 11:25:56.000   55.373793702   10.400797482    56.1773   2   4   1.1615   0.8167   1.5011  -0.9508   1.0492  -1.2822   1.00    1.1
2015/05/11 11:25:57.000   55.373789887   10.400803419    56.2025   2   4   1.1076   0.7780   1.4449  -0.9049   1.0028  -1.2267   1.00    1.0
2015/05/11 11:25:58.000   55.373784858   10.400809773    56.5518   2   4   1.0609   0.7446   1.3959  -0.8653   0.9627  -1.1784   1.00    1.5
2015/05/11 11:25:59.000   55.373784008   10.400811340    56.4214   2   4   1.0198   0.7155   1.3525  -0.8306   0.9276  -1.1359   1.00    1.5
2015/05/11 11:26:00.000   55.373817047   10.400760635    42.1694   2   4   1.6110   1.3005   4.8675  -1.4307   2.4436  -2.6807   1.00    1.1
2015/05/11 11:26:01.000   55.373810379   10.400769592    44.4342   1   4   0.9040   0.7731   3.3612  -0.8359   1.6118  -1.7428   1.00   17.5
2015/05/11 11:26:02.000   55.373812361   10.400769174    44.6185   2   4   1.1890   0.9246   2.9891  -1.0278   1.5838  -1.7635   1.00    1.2
2015/05/11 11:26:03.000   55.373802585   10.400784687    49.0730   1   4   0.6418   0.5488   2.3871  -0.5934   1.1442  -1.2373   1.00   87.1
2015/05/11 11:26:04.000   55.373797202   10.400792396    51.5220   2   4   1.0471   0.8023   2.4006  -0.8948   1.3138  -1.4746   1.00    1.4
2015/05/11 11:26:05.000   55.373791251   10.400799000    53.0733   1   4   0.5243   0.4481   1.9505  -0.4846   0.9346  -1.0106   1.00    3.4
2015/05/11 11:26:06.000   55.373793959   10.400792556    51.5002   2   4   0.9607   0.7305   2.0818  -0.8154   1.1641  -1.3132   1.00    1.8
2015/05/11 11:26:07.000   55.373797824   10.400784980    49.2491   2   4   0.9271   0.7031   1.9677  -0.7849   1.1094  -1.2539   1.00    1.8
2015/05/11 11:26:08.000   55.373777136   10.400813016    56.9069   2   4   1.4813   1.2149   4.7827  -1.3274   2.3586  -2.5756   1.00    1.2
2015/05/11 11:26:09.000   55.373770237   10.400818834    58.0949   2   4   1.1819   0.9482   3.4794  -1.0416   1.7557  -1.9304   1.00    1.3
2015/05/11 11:26:10.000   55.373784275   10.400795443    51.3096   2   4   1.0522   0.8324   2.8958  -0.9173   1.4889  -1.6458   1.00    1.2
2015/05/11 11:26:11.000   55.373781872   10.400793993    50.2855   2   4   0.9747   0.7635   2.5472  -0.8433   1.3303  -1.4768   1.00    1.1
2015/05/11 11:26:12.000   55.373795433   10.400774172    47.8129   5   3  18.3091  13.4252  19.6432 -15.6771  16.2173 -18.9354   1.00    0.0
2015/05/11 11:26:13.000   55.373804799   10.400760079    46.1358   5   3  18.3098  13.4282  19.6353 -15.6791  16.2192 -18.9365   2.00    0.0
2015/05/11 11:26:14.000   55.373775120   10.400798452    50.5960   1   4   2.9353   2.1532   3.1465  -2.5140   2.6028  -3.0389   1.00   15.3
2015/05/11 11:26:15.000   55.373776166   10.400792187    50.6209   2   4   3.0834   1.7526   4.4817  -2.1990   2.5324  -3.6379   1.00    2.6
2015/05/11 11:26:16.000   55.373777199   10.400786850    50.5185   2   4   2.8955   1.5349   4.3399  -1.9855   2.3429  -3.4783   2.00   79.4
2015/05/11 11:26:17.000   55.373783096   10.400780633    49.4210   2   4   2.7909   1.4046   4.2561  -1.8622   2.2321  -3.3888   3.00    2.1
2015/05/11 11:26:18.000   55.373783278   10.400777165    49.1256   2   4   2.1401   1.2016   3.2368  -1.5056   1.7944  -2.5665   1.00    1.3
2015/05/11 11:26:19.000   55.373806005   10.400764228    44.7678   2   4   1.8293   1.0856   2.7669  -1.3238   1.5798  -2.1816   1.00   23.3
2015/05/11 11:26:20.000   55.373801216   10.400765300    45.8330   2   4   1.6330   1.0033   2.4774  -1.2030   1.4404  -1.9423   1.00  622.4
2015/05/11 11:26:21.000   55.373813254   10.400757211    44.1107   2   4   2.6147   1.1610   4.0963  -1.6445   2.0286  -3.2341   1.00    1.2
2015/05/11 11:26:22.000   55.373793521   10.400778663    46.2532   2   4   3.2483   2.1958   4.0752  -2.6013   2.7943  -3.5685   1.00    1.1
2015/05/11 11:26:23.000   55.373798217   10.400771377    45.1721   2   4   2.4374   1.6331   3.1817  -1.9300   2.1086  -2.7162   1.00    1.1
2015/05/11 11:26:24.000   55.373815638   10.400759886    41.8339   2   4   2.0396   1.3658   2.7303  -1.6082   1.7803  -2.2924   1.00    1.2
2015/05/11 11:26:25.000   55.373836963   10.400747488    37.5477   2   4   1.7910   1.2020   2.4430  -1.4099   1.5779  -2.0255   1.00    1.1
2015/05/11 11:26:26.000   55.373833030   10.400750350    37.6007   2   4   1.6164   1.0884   2.2385  -1.2718   1.4368  -1.8369   1.00    1.2
2015/05/11 11:26:27.000   55.373841093   10.400747016    35.4988   2   4   1.4850   1.0036   2.0828  -1.1686   1.3309  -1.6944   1.00    1.1
2015/05/11 11:26:28.000   55.373907413   10.400713953    23.2574   1   4   0.0400   0.0298   0.0683  -0.0326   0.0424  -0.0491   1.00   94.0
2015/05/11 11:26:29.000   55.373906284   10.400718682    22.8905   2   4   1.9884   1.0008   3.0313  -1.3246   1.5876  -2.4145   1.00    1.1
2015/05/11 11:26:30.000   55.373828873   10.400805080    33.0821   2   4   3.1239   2.1667   3.7598  -2.5527   2.7075  -3.3727   1.00    1.0
2015/05/11 11:26:31.000   55.373839216   10.400789094    31.9477   2   4   2.3517   1.6067   2.9531  -1.8934   2.0373  -2.5792   1.00    1.1
2015/05/11 11:26:32.000   55.373890707   10.400721254    25.8346   2   4   3.0333   2.1564   3.5358  -2.5254   2.6625  -3.2292   1.00    1.3
2015/05/11 11:26:33.000   55.373883296   10.400729329    26.5314   2   4   2.2781   1.5979   2.7735  -1.8714   2.0003  -2.4629   1.00    1.3
2015/05/11 11:26:34.000   55.373880106   10.400729349    27.0805   1   4   1.7533   1.2901   1.8653  -1.5039   1.5511  -1.8083   1.00    9.5
2015/05/11 11:26:35.000   55.373876777   10.400727361    27.9958   1   4   1.5276   1.1242   1.6249  -1.3105   1.3514  -1.5753   1.00    8.6
2015/05/11 11:26:36.000   55.373873536   10.400727690    29.2095   1   4   1.3711   1.0092   1.4580  -1.1762   1.2128  -1.4136   1.00    3.2
2015/05/11 11:26:37.000   55.373902503   10.400687150    26.1762   2   4   2.9537   2.1417   3.3326  -2.4971   2.6151  -3.1025   1.00    2.2
2015/05/11 11:26:38.000   55.373899974   10.400686183    26.9247   2   4   2.2020   1.5842   2.5788  -1.8454   1.9551  -2.3413   1.00    1.9
2015/05/11 11:26:39.000   55.373898862   10.400684552    27.6492   1   4   1.7460   1.2857   1.8540  -1.4982   1.5438  -1.7990   1.00   10.1
2015/05/11 11:26:42.000   55.373894813   10.400688421    28.4807   2   4   1.6237   1.1572   2.0039  -1.3444   1.4512  -1.7569   1.00    1.5
2015/05/11 11:26:43.000   55.373895541   10.400689171    28.6130   1   4   1.3636   1.0048   1.4461  -1.1705   1.2052  -1.4040   1.00   54.9
2015/05/11 11:26:44.000   55.373952523   10.400616822    22.1693   2   4   2.9139   2.1282   3.2362  -2.4774   2.5837  -3.0417   1.00    1.1
2015/05/11 11:26:45.000   55.373953713   10.400615778    22.4536   2   4   2.1634   1.5722   2.4808  -1.8278   1.9254  -2.2808   1.00    1.1
2015/05/11 11:26:46.000   55.373955868   10.400611610    22.6072   2   4   1.8076   1.3086   2.1285  -1.5193   1.6148  -1.9219   1.00    1.5
2015/05/11 11:26:47.000   55.373938790   10.400629165    25.2408   2   4   1.5898   1.1474   1.9144  -1.3303   1.4255  -1.7027   1.00    1.1
2015/05/11 11:26:48.000   55.373927422   10.400640265    26.7308   2   4   1.4388   1.0359   1.7663  -1.1994   1.2948  -1.5508   1.00    1.6
2015/05/11 11:26:49.000   55.373918729   10.400645935    28.2639   2   4   1.3261   0.9529   1.6554  -1.1018   1.1975  -1.4373   1.00    1.3
2015/05/11 11:26:50.000   55.373907083   10.400656286    30.0446   2   4   1.2376   0.8880   1.5680  -1.0254   1.1214  -1.3482   1.00    1.2
2015/05/11 11:26:51.000   55.373906223   10.400656338    30.0767   2   4   1.1657   0.8355   1.4965  -0.9635   1.0598  -1.2756   1.00    1.3
2015/05/11 11:26:52.000   55.373908481   10.400654898    29.7562   2   4   1.1058   0.7918   1.4364  -0.9119   1.0084  -1.2149   1.00    1.5
2015/05/11 11:26:53.000   55.373908659   10.400654017    30.0621   2   4   1.0547   0.7548   1.3847  -0.8681   0.9648  -1.1630   1.00    1.0
2015/05/11 11:26:54.000   55.373908118   10.400653126    30.3080   2   4   1.0104   0.7228   1.3396  -0.8303   0.9270  -1.1180   1.00    1.0
2015/05/11 11:26:55.000   55.373907505   10.400652364    30.5403   2   4   0.9716   0.6948   1.2997  -0.7972   0.8939  -1.0783   2.00    2.5
2015/05/11 11:26:56.000   55.373901245   10.400657133    31.6331   2   4   0.9370   0.6700   1.2637  -0.7678   0.8645  -1.0430   1.00    2.3
2015/05/11 11:26:57.000   55.373896591   10.400660106    32.4485   2   4   0.9061   0.6478   1.2313  -0.7416   0.8381  -1.0113   1.00    1.4
2015/05/11 11:26:58.000   55.373893531   10.400663720    32.8683   2   4   0.8782   0.6279   1.2017  -0.7180   0.8143  -0.9825   1.00    1.2
2015/05/11 11:26:59.000   55.373889364   10.400667515    33.4695   2   4   0.8528   0.6098   1.1746  -0.6965   0.7927  -0.9563   1.00    2.1
2015/05/11 11:27:00.000   55.373884558   10.400671527    34.2569   2   4   0.8296   0.5933   1.1495  -0.6769   0.7729  -0.9322   1.00    1.1
2015/05/11 11:27:01.000   55.373880255   10.400675048    34.9740   2   4   0.8082   0.5781   1.1263  -0.6589   0.7546  -0.9100   2.00    2.3
2015/05/11 11:27:02.000   55.373875286   10.400679665    35.7937   2   4   0.7884   0.5641   1.1045  -0.6423   0.7377  -0.8893   1.00    1.6
2015/05/11 11:27:03.000   55.373872187   10.400682709    36.2876   2   4   0.7701   0.5511   1.0842  -0.6270   0.7220  -0.8701   1.00    1.2
2015/05/11 11:27:04.000   55.373869714   10.400685668    36.6795   2   4   0.7530   0.5390   1.0651  -0.6126   0.7074  -0.8522   1.00    1.6
2015/05/11 11:27:05.000   55.373868565   10.400687970    36.8027   2   4   0.7370   0.5278   1.0471  -0.5993   0.6936  -0.8354   1.00    1.1
2015/05/11 11:27:06.000   55.373867412   10.400689720    37.2149   2   4   0.7219   0.5172   1.0300  -0.5868   0.6808  -0.8196   1.00    1.6
2015/05/11 11:27:07.000   55.373865085   10.400692112    37.6604   2   4   0.7078   0.5073   1.0139  -0.5750   0.6686  -0.8047   1.00    1.3
2015/05/11 11:27:08.000   55.373866110   10.400692192    37.4665   2   4   0.6945   0.4979   0.9986  -0.5639   0.6571  -0.7905   1.00    2.0
2015/05/11 11:27:09.000   55.373899426   10.400644183    23.4152   2   4   1.3487   1.1111   4.5792  -1.2113   2.2089  -2.4099   1.00    1.8
2015/05/11 11:27:10.000   55.373911901   10.400628903    21.0766   2   4   3.0784   2.3160   4.7182  -2.6640   3.1432  -3.5915   1.00    1.1
2015/05/11 11:27:11.000   55.373902274   10.400643794    25.0059   2   4   2.3177   1.7499   3.7432  -2.0064   2.4305  -2.7709   1.00    1.2
2015/05/11 11:27:12.000   55.373912727   10.400632029    25.0318   2   4   2.9458   2.1997   3.9458  -2.5398   2.8300  -3.2557   1.00  218.8
2015/05/11 11:27:13.000   55.373886601   10.400673193    38.3735   2   4   2.5448   1.9623   5.3281  -2.2271   3.0482  -3.4201   1.00    2.3
2015/05/11 11:27:14.000   55.373896637   10.400660693    36.1657   2   4   2.0570   1.5757   3.9994  -1.7921   2.3703  -2.6732   1.00  136.4
2015/05/11 11:27:15.000   55.373888928   10.400673194    39.5772   2   4   1.7797   1.3598   3.3555  -1.5467   2.0190  -2.2821   1.00    2.9
2015/05/11 11:27:16.000   55.373889733   10.400672924    39.0316   2   4   1.5924   1.2148   2.9514  -1.3813   1.7907  -2.0268   1.00   22.6
2015/05/11 11:27:17.000   55.373884812   10.400680741    40.0237   2   4   1.4544   1.1085   2.6662  -1.2596   1.6262  -1.8424   1.00    9.3
2015/05/11 11:27:18.000   55.373847212   10.400730863    45.0456   2   4   2.8862   2.1509   3.6254  -2.4865   2.7021  -3.1165   1.00    1.1
2015/05/11 11:27:19.000   55.373856030   10.400722441    46.5083   2   4   2.1627   1.6175   2.9353  -1.8637   2.0893  -2.4018   1.00    1.1
2015/05/11 11:27:20.000   55.373846868   10.400736153    48.0304   1   4   0.4217   0.3596   1.6340  -0.3892   0.7661  -0.8294   1.00    7.2
2015/05/11 11:27:21.000   55.373841720   10.400743945    48.0502   2   4   1.6027   1.2036   2.3555  -1.3804   1.6033  -1.8370   1.00    1.2
2015/05/11 11:27:22.000   55.373845766   10.400737295    44.2756   1   4   0.0383   0.0286   0.0654  -0.0311   0.0405  -0.0467   1.00    9.5
2015/05/11 11:27:23.000   55.373856586   10.400719348    35.7983   2   4   1.5709   1.2225   3.6130  -1.3767   1.9800  -2.2091   1.00    1.4
2015/05/11 11:27:24.000   55.373832238   10.400753745    42.5980   2   4   1.4148   1.0936   3.0515  -1.2343   1.7187  -1.9260   1.00    1.1
2015/05/11 11:27:25.000   55.373813627   10.400779773    47.2023   2   4   1.3051   1.0050   2.7052  -1.1353   1.5510  -1.7429   1.00    1.1
2015/05/11 11:27:26.000   55.373803386   10.400793303    48.1067   2   4   1.2204   0.9374   2.4616  -1.0592   1.4290  -1.6090   1.00    1.2
2015/05/11 11:27:27.000   55.373807283   10.400788520    44.6372   2   4   1.1515   0.8829   2.2769  -0.9976   1.3341  -1.5044   1.00    1.1
2015/05/11 11:27:28.000   55.373729325   10.400891447    52.8243   2   4   2.8489   2.1245   3.4927  -2.4559   2.6428  -3.0488   1.00    1.1
2015/05/11 11:27:29.000   55.373707091   10.400921077    55.6218   2   4   2.1300   1.5936   2.8164  -1.8367   2.0355  -2.3408   1.00    1.0
2015/05/11 11:27:30.000   55.373720206   10.400904797    55.1790   2   4   2.8272   2.1065   3.3618  -2.4362   2.5934  -2.9954   1.00    2.0
2015/05/11 11:27:31.000   55.373712546   10.400915491    56.8703   2   4   2.8188   2.0997   3.3136  -2.4287   2.5752  -2.9756   2.00    1.7
2015/05/11 11:27:32.000   55.373712554   10.400916419    57.2591   1   4   2.0213   1.5008   2.1016  -1.7417   1.7759  -2.0609   1.00    5.3
2015/05/11 11:27:33.000   55.373711269   10.400917727    56.9050   1   4   1.6705   1.2405   1.7364  -1.4395   1.4675  -1.7029   1.00    3.4
2015/05/11 11:27:34.000   55.373713763   10.400914069    56.2943   2   4   1.5475   1.1598   2.1107  -1.3326   1.4971  -1.7199   1.00    2.8
2015/05/11 11:27:35.000   55.373714547   10.400913612    56.2497   2   4   1.4017   1.0519   1.9641  -1.2066   1.3716  -1.5740   1.00    1.7
2015/05/11 11:27:36.000   55.373717130   10.400910655    56.2872   2   4   2.7892   2.0766   3.1574  -2.4028   2.5151  -2.9096   1.00    1.2
2015/05/11 11:27:37.000   55.373712082   10.400917029    57.1526   2   4   2.0679   1.5424   2.4719  -1.7809   1.8999  -2.1936   1.00    1.3
2015/05/11 11:27:38.000   55.373724811   10.400900416    56.5243   2   4   1.7266   1.2899   2.1519  -1.4864   1.6107  -1.8568   1.00    1.0
2015/05/11 11:27:39.000   55.373733133   10.400889576    55.9277   2   4   1.5178   1.1353   1.9553  -1.3060   1.4338  -1.6509   1.00    1.2
2015/05/11 11:27:40.000   55.373738937   10.400882243    55.6098   2   4   1.3731   1.0282   1.8171  -1.1809   1.3108  -1.5078   1.00    1.1
2015/05/11 11:27:41.000   55.373748253   10.400871103    55.2203   1   4   0.0377   0.0282   0.0644  -0.0306   0.0398  -0.0460   1.00    3.2
2015/05/11 11:27:42.000   55.373757085   10.400860620    54.3507   2   4   1.1803   0.8855   1.6277  -1.0141   1.1457  -1.3160   1.00    1.3
2015/05/11 11:27:43.000   55.373764175   10.400852207    54.1886   2   4   1.1115   0.8344   1.5577  -0.9544   1.0862  -1.2469   1.00    1.2
2015/05/11 11:27:44.000   55.373772351   10.400842731    53.8098   1   4   0.0376   0.0282   0.0643  -0.0305   0.0397  -0.0459   1.00    3.3
2015/05/11 11:27:45.000   55.373775428   10.400840280    54.4012   2   4   1.0051   0.7555   1.4459  -0.8622   0.9931  -1.1391   1.00    1.1
2015/05/11 11:27:46.000   55.373772621   10.400844775    55.9011   2   4   0.9628   0.7241   1.3999  -0.8254   0.9556  -1.0957   1.00    1.2
2015/05/11 11:27:47.000   55.373768379   10.400851187    57.1147   2   4   0.9256   0.6964   1.3586  -0.7931   0.9224  -1.0573   1.00    1.3
2015/05/11 11:27:48.000   55.373765822   10.400854982    57.7018   2   4   0.8926   0.6719   1.3214  -0.7644   0.8928  -1.0231   1.00    1.2
2015/05/11 11:27:49.000   55.373761152   10.400861028    58.5478   2   4   0.8631   0.6499   1.2874  -0.7387   0.8660  -0.9923   1.00    2.5
2015/05/11 11:27:50.000   55.373755399   10.400868616    59.4891   2   4   0.8364   0.6300   1.2562  -0.7154   0.8417  -0.9642   1.00    1.0
2015/05/11 11:27:51.000   55.373722614   10.400888614    65.0646   2   4   2.4005   0.9011   3.7605  -1.4059   1.7387  -2.9851   1.00    1.1
2015/05/11 11:27:52.000   55.373658835   10.400925601    76.3405   1   4   1.6589   0.5022   2.6201  -0.9124   1.1467  -2.0848   1.00  799.7
2015/05/11 11:27:53.000   55.373632980   10.400941713    80.9952   2   4   1.4913   0.6779   2.3145  -0.9380   1.1435  -1.8289   1.00    1.6
2015/05/11 11:27:54.000   55.373633799   10.400943610    80.8923   1   4   1.1815   0.3578   1.8661  -0.6497   0.8165  -1.4848   1.00    4.3
2015/05/11 11:27:55.000   55.373636782   10.400943776    80.2555   1   4   1.0581   0.3204   1.6711  -0.5818   0.7312  -1.3296   1.00    5.4
2015/05/11 11:27:56.000   55.373636437   10.400946569    80.4099   2   4   1.1195   0.5819   1.7284  -0.7473   0.9050  -1.3562   1.00    1.3
2015/05/11 11:27:57.000   55.373640751   10.400944757    79.6294   2   4   1.0518   0.5624   1.6230  -0.7117   0.8612  -1.2707   1.00    1.1
2015/05/11 11:27:58.000   55.373638872   10.400946830    80.1101   2   4   0.9967   0.5458   1.5378  -0.6822   0.8254  -1.2014   1.00    2.3
2015/05/11 11:27:59.000   55.373640104   10.400946282    80.0635   2   4   0.9506   0.5312   1.4670  -0.6572   0.7952  -1.1436   1.00    1.8
2015/05/11 11:28:00.000   55.373641249   10.400945901    80.0751   2   4   0.9112   0.5181   1.4068  -0.6355   0.7692  -1.0944   2.00    2.7
2015/05/11 11:28:01.000   55.373735827   10.400895822    63.2401   2   4   2.3571   0.8315   3.7116  -1.3502   1.6841  -2.9439   1.00    1.0
2015/05/11 11:28:02.000   55.373678972   10.400925793    73.4374   2   4   1.7258   0.6714   2.7119  -1.0200   1.2662  -2.1449   1.00    1.1
2015/05/11 11:28:03.000   55.373676902   10.400926419    73.9543   2   4   1.4414   0.6026   2.2615  -0.8740   1.0813  -1.7838   1.00    1.6
2015/05/11 11:28:04.000   55.373683821   10.400922902    72.8951   2   4   1.2714   0.5620   1.9925  -0.7876   0.9720  -1.5677   1.00    1.1
2015/05/11 11:28:05.000   55.373691863   10.400918589    71.5238   2   4   1.1552   0.5341   1.8091  -0.7288   0.8979  -1.4200   1.00    1.1
2015/05/11 11:28:06.000   55.373694478   10.400916824    71.0497   2   4   1.0694   0.5130   1.6739  -0.6853   0.8433  -1.3108   1.00    1.4
2015/05/11 11:28:07.000   55.373697636   10.400914867    70.4230   2   4   1.0026   0.4961   1.5690  -0.6514   0.8008  -1.2259   1.00    1.5
2015/05/11 11:28:08.000   55.373701170   10.400912833    69.7724   2   4   0.9485   0.4820   1.4844  -0.6237   0.7664  -1.1574   1.00    2.5
2015/05/11 11:28:09.000   55.373698227   10.400914190    70.2797   2   4   0.9036   0.4699   1.4142  -0.6005   0.7377  -1.1005   1.00    1.5
2015/05/11 11:28:10.000   55.373696373   10.400914317    70.3211   2   4   0.8655   0.4593   1.3548  -0.5807   0.7132  -1.0522   1.00    1.3
2015/05/11 11:28:11.000   55.373693415   10.400915949    70.5761   2   4   0.8325   0.4497   1.3035  -0.5633   0.6919  -1.0105   1.00    1.8
2015/05/11 11:28:12.000   55.373692154   10.400916052    70.4094   1   4   0.0368   0.0276   0.0629  -0.0298   0.0388  -0.0448   1.00    6.0
2015/05/11 11:28:13.000   55.373686211   10.400919491    71.2020   2   4   0.7778   0.4331   1.2190  -0.5342   0.6563  -0.9418   1.00    1.2
2015/05/11 11:28:14.000   55.373694132   10.400915016    69.3640   2   4   0.7548   0.4258   1.1835  -0.5217   0.6411  -0.9129   1.00    1.3
2015/05/11 11:28:15.000   55.373698545   10.400913234    68.3279   2   4   0.7340   0.4190   1.1515  -0.5104   0.6273  -0.8868   1.00    1.6
2015/05/11 11:28:16.000   55.373704582   10.400909889    66.9510   2   4   0.7150   0.4126   1.1224  -0.4999   0.6146  -0.8631   1.00    1.0
2015/05/11 11:28:17.000   55.373710364   10.400905927    65.5835   2   4   0.6977   0.4066   1.0958  -0.4902   0.6029  -0.8414   1.00    1.8
2015/05/11 11:28:18.000   55.373716185   10.400902231    64.2908   2   4   0.6817   0.4009   1.0713  -0.4812   0.5920  -0.8214   1.00    1.1
2015/05/11 11:28:19.000   55.373721455   10.400898423    63.0761   2   4   0.6669   0.3955   1.0488  -0.4728   0.5819  -0.8030   2.00    1.2
2015/05/11 11:28:20.000   55.373721414   10.400897848    63.0087   2   4   0.6530   0.3903   1.0276  -0.4648   0.5723  -0.7858   1.00    1.7
2015/05/11 11:28:21.000   55.373721739   10.400896718    62.7783   2   4   0.6402   0.3855   1.0080  -0.4574   0.5634  -0.7699   1.00    1.3
2015/05/11 11:28:22.000   55.373723704   10.400894405    62.2784   2   4   0.6281   0.3808   0.9896  -0.4503   0.5549  -0.7549   1.00    1.5
2015/05/11 11:28:23.000   55.373726345   10.400891860    61.6552   2   4   0.6167   0.3763   0.9724  -0.4436   0.5469  -0.7409   1.00    1.2
2015/05/11 11:28:24.000   55.373727118   10.400890628    61.3632   2   4   0.6060   0.3720   0.9561  -0.4373   0.5393  -0.7277   1.00    1.7
2015/05/11 11:28:25.000   55.373723889   10.400891781    61.9640   2   4   0.5959   0.3678   0.9408  -0.4313   0.5321  -0.7152   1.00    1.3
2015/05/11 11:28:26.000   55.373722657   10.400891749    62.0622   1   4   0.0364   0.0274   0.0623  -0.0295   0.0383  -0.0443   1.00   12.5
2015/05/11 11:28:27.000   55.373623187   10.400941980    79.6778   1   4   2.2735   0.6756   3.5856  -1.2391   1.5561  -2.8551   1.00    3.4
2015/05/11 11:28:28.000   55.373694906   10.400904610    67.0934   1   4   1.6321   0.4850   2.5739  -0.8894   1.1169  -2.0495   1.00   10.9
2015/05/11 11:28:29.000   55.373694899   10.400902845    67.2324   1   4   1.3392   0.3980   2.1119  -0.7297   0.9164  -1.6816   1.00  102.6
2015/05/11 11:28:30.000   55.373715325   10.400890399    63.7717   1   4   1.1625   0.3456   1.8332  -0.6333   0.7954  -1.4597   1.00   16.4
2015/05/11 11:28:31.000   55.373718002   10.400887345    63.5687   2   4   1.0968   0.4464   1.7320  -0.6548   0.8177  -1.3620   1.00    1.4
2015/05/11 11:28:32.000   55.373715559   10.400887478    64.2312   2   4   1.0107   0.4262   1.5965  -0.6112   0.7628  -1.2528   1.00    1.3
2015/05/11 11:28:33.000   55.373718528   10.400884708    63.8324   2   4   0.9438   0.4106   1.4913  -0.5775   0.7204  -1.1679   1.00    1.5
2015/05/11 11:28:34.000   55.373723913   10.400880825    62.9549   2   4   0.8899   0.3980   1.4067  -0.5504   0.6864  -1.0996   1.00    1.8
2015/05/11 11:28:35.000   55.373720791   10.400881785    63.5603   2   4   0.8454   0.3875   1.3368  -0.5280   0.6583  -1.0430   1.00    1.3
2015/05/11 11:28:36.000   55.373650688   10.400917683    75.9728   2   4   2.2888   0.7381   3.6107  -1.2712   1.5945  -2.8675   1.00    1.0
2015/05/11 11:28:37.000   55.373659335   10.400912386    74.5616   2   4   1.6584   0.5704   2.6171  -0.9372   1.1745  -2.0735   1.00    1.4
2015/05/11 11:28:38.000   55.373672895   10.400904632    72.2567   2   4   1.3729   0.4982   2.1673  -0.7881   0.9869  -1.7132   1.00    1.4
2015/05/11 11:28:39.000   55.373664829   10.400908533    73.7760   2   4   1.2018   0.4564   1.8979  -0.6998   0.8757  -1.4970   1.00    1.0
2015/05/11 11:28:40.000   55.373670497   10.400905185    72.8150   2   4   1.0849   0.4286   1.7140  -0.6400   0.8006  -1.3491   1.00    1.4
2015/05/11 11:28:41.000   55.373674035   10.400903079    72.2581   2   4   0.9987   0.4084   1.5785  -0.5963   0.7455  -1.2400   1.00    1.2
2015/05/11 11:28:42.000   55.373677706   10.400900855    71.6158   2   4   0.9318   0.3929   1.4734  -0.5625   0.7030  -1.1552   1.00    2.7
2015/05/11 11:28:43.000   55.373677619   10.400901415    71.5849   1   4   0.0360   0.0270   0.0615  -0.0290   0.0378  -0.0436   1.00   29.4
2015/05/11 11:28:44.000   55.373681443   10.400898946    70.6685   2   4   0.8334   0.3700   1.3189  -0.5130   0.6409  -1.0304   1.00    1.5
2015/05/11 11:28:45.000   55.373696456   10.400890959    67.7236   2   4   0.7957   0.3612   1.2598  -0.4941   0.6173  -0.9826   1.00    2.5
2015/05/11 11:28:46.000   55.373652450   10.400955868    71.9222   2   4   2.6689   1.9669   2.8328  -2.2752   2.3050  -2.7273   1.00    1.0
2015/05/11 11:28:47.000   55.373647488   10.400963287    72.3264   2   4   1.9832   1.4443   2.1731  -1.6726   1.7052  -2.0492   1.00    1.2
2015/05/11 11:28:48.000   55.373672185   10.400934243    69.1863   1   4   2.6018   1.9559   2.6222  -2.2558   2.2646  -2.6119   1.00  182.9
2015/05/11 11:28:49.000   55.373683540   10.400922627    67.5897   2   4   2.6500   1.9626   2.7872  -2.2676   2.2936  -2.6979   2.00    1.8
2015/05/11 11:28:50.000   55.373714142   10.400882776    64.2034   2   4   1.9642   1.4408   2.1261  -1.6659   1.6948  -2.0192   1.00    3.0
2015/05/11 11:28:51.000   55.373726289   10.400868554    62.8995   2   4   1.6407   1.1940   1.8183  -1.3811   1.4126  -1.7004   1.00    1.1
2015/05/11 11:28:52.000   55.373812212   10.400821266    48.1955   2   4   2.5429   1.1900   3.7269  -1.6296   1.8595  -3.0470   1.00    7.8
2015/05/11 11:28:53.000   55.373837778   10.400807490    43.8063   2   4   1.9332   1.0095   2.7502  -1.3072   1.4536  -2.2725   1.00   18.8
2015/05/11 11:28:54.000   55.373813694   10.400842508    46.2183   2   4   2.8105   1.9650   3.2212  -2.2984   2.3476  -2.9653   1.00    1.1
2015/05/11 11:28:55.000   55.373814356   10.400843683    45.9567   2   4   2.1133   1.4433   2.5178  -1.6942   1.7438  -2.2651   2.00    1.1
2015/05/11 11:28:56.000   55.373803378   10.400846225    48.1713   2   4   1.7739   1.1961   2.1609  -1.4063   1.4557  -1.9185   1.00    1.1
2015/05/11 11:28:57.000   55.373786505   10.400851273    51.4446   2   4   1.5616   1.0449   1.9310  -1.2292   1.2784  -1.6988   1.00    1.0
2015/05/11 11:28:58.000   55.373789608   10.400845919    51.1328   2   4   1.4119   0.9402   1.7658  -1.1061   1.1550  -1.5427   1.00    1.0
2015/05/11 11:28:59.000   55.373790505   10.400841120    51.2682   2   4   1.2989   0.8623   1.6392  -1.0141   1.0629  -1.4239   1.00    1.1
2015/05/11 11:29:00.000   55.373757758   10.400853409    57.2633   2   4   2.4168   1.0040   3.6443  -1.4672   1.7261  -2.9463   1.00    1.0
2015/05/11 11:29:01.000   55.373781151   10.400837506    53.5271   2   4   1.8172   0.8545   2.6739  -1.1643   1.3337  -2.1792   1.00    1.0
2015/05/11 11:29:02.000   55.373795790   10.400826295    51.2357   2   4   1.5419   0.7772   2.2324  -1.0213   1.1529  -1.8287   1.00    1.1
2015/05/11 11:29:03.000   55.373848323   10.400781888    45.6960   2   4   3.2867   2.4814   5.6738  -2.6361   3.4535  -3.9793   1.00    0.0
2015/05/11 11:29:04.000   55.373842361   10.400785688    46.4737   2   4   2.3741   1.7917   4.0640  -1.9068   2.4845  -2.8637   1.00    0.0
2015/05/11 11:29:05.000   55.373839475   10.400786518    47.8639   2   4   2.8506   2.1502   3.9246  -2.3904   2.7221  -3.1366   1.00    0.0
2015/05/11 11:29:06.000   55.373837387   10.400792209    48.6979   2   4   2.1459   1.6189   3.1746  -1.7780   2.1065  -2.4277   1.00    0.0
2015/05/11 11:29:07.000   55.373836761   10.400794923    49.2914   2   4   1.8039   1.3610   2.7634  -1.4847   1.7962  -2.0703   2.00    0.0
2015/05/11 11:29:08.000   55.373837340   10.400796313    49.5881   2   4   1.5894   1.1993   2.4857  -1.3027   1.5964  -1.8402   3.00    0.0
2015/05/11 11:29:09.000   55.373797663   10.400838603    56.8751   2   4   2.6986   2.0361   3.2236  -2.3054   2.4570  -2.8300   1.00    0.0
2015/05/11 11:29:10.000   55.373777810   10.400858480    59.8807   2   4   2.6796   2.0220   3.1453  -2.2936   2.4268  -2.7950   1.00    0.0
2015/05/11 11:29:11.000   55.373756510   10.400879532    70.0811   2   4   3.1332   2.3679   5.5559  -2.4927   3.3299  -3.8366   1.00    1.2
2015/05/11 11:29:12.000   55.373796827   10.400847057    61.1468   1   4   1.8246   1.3768   1.8236  -1.5849   1.5844  -1.8239   1.00    4.9
2015/05/11 11:29:13.000   55.373843233   10.400798215    54.7670   2   4   2.8255   2.1333   3.8940  -2.3691   2.6981  -3.1081   1.00    2.1
2015/05/11 11:29:14.000   55.373826534   10.400815770    56.1924   1   4   1.8765   1.4167   1.8716  -1.6304   1.6282  -1.8739   1.00    4.4
2015/05/11 11:29:15.000   55.373827866   10.400816058    55.0770   2   4   1.7919   1.3531   2.7464  -1.4745   1.7838  -2.0556   1.00    2.6
2015/05/11 11:29:16.000   55.373794551   10.400847151    59.3491   2   4   2.6956   2.0359   3.2911  -2.2976   2.4701  -2.8441   1.00    1.0
2015/05/11 11:29:17.000   55.373772280   10.400865117    62.3103   2   4   2.0205   1.5262   2.6751  -1.7042   1.9016  -2.1901   1.00    1.7
2015/05/11 11:29:18.000   55.373759966   10.400871778    64.3045   2   4   1.7004   1.2845   2.3633  -1.4237   1.6284  -1.8758   1.00    1.5
2015/05/11 11:29:19.000   55.373748985   10.400879647    66.0669   2   4   1.5024   1.1350   2.1570  -1.2512   1.4564  -1.6779   1.00    1.1
2015/05/11 11:29:20.000   55.373741579   10.400885438    67.1728   2   4   1.3634   1.0301   2.0036  -1.1308   1.3337  -1.5367   1.00    1.0
2015/05/11 11:29:21.000   55.373730182   10.400892539    68.8788   1   4   0.0352   0.0265   0.0608  -0.0284   0.0370  -0.0428   1.00    4.7
2015/05/11 11:29:22.000   55.373720440   10.400900397    70.5184   2   4   1.1755   0.8882   1.7821  -0.9691   1.1642  -1.3416   1.00    1.7
2015/05/11 11:29:23.000   55.373710945   10.400907556    71.4027   2   4   1.1074   0.8368   1.6974  -0.9109   1.1017  -1.2696   1.00    1.7
2015/05/11 11:29:24.000   55.373704987   10.400912510    72.4481   2   4   1.0502   0.7937   1.6242  -0.8622   1.0486  -1.2085   1.00    2.0
2015/05/11 11:29:25.000   55.373699312   10.400918176    73.4643   1   4   0.0356   0.0268   0.0620  -0.0286   0.0376  -0.0434   2.00    3.0
2015/05/11 11:29:26.000   55.373701137   10.400914544    72.4404   2   4   0.9586   0.7245   1.5032  -0.7847   0.9626  -1.1094   1.00    1.0
2015/05/11 11:29:27.000   55.373702119   10.400912497    71.2981   2   4   0.9210   0.6962   1.4522  -0.7530   0.9270  -1.0684   1.00    1.0
2015/05/11 11:29:28.000   55.373704328   10.400910232    70.4055   1   4   0.0351   0.0264   0.0605  -0.0282   0.0368  -0.0426   1.00    3.2
2015/05/11 11:29:29.000   55.373707357   10.400907250    68.8004   2   4   0.8575   0.6483   1.3641  -0.6997   0.8662  -0.9984   1.00    2.0
2015/05/11 11:29:30.000   55.373707615   10.400906970    68.2003   2   4   0.8304   0.6278   1.3257  -0.6769   0.8400  -0.9682   1.00    2.2
2015/05/11 11:29:31.000   55.373707779   10.400908440    68.1495   2   4   0.8056   0.6091   1.2903  -0.6562   0.8161  -0.9406   1.00    2.5
2015/05/11 11:29:32.000   55.373689760   10.400935149    69.5367   2   4   2.5704   1.9464   2.7282  -2.2238   2.2626  -2.6010   1.00    1.6
2015/05/11 11:29:33.000   55.373682430   10.400945995    69.8784   2   4   1.8942   1.4344   2.1083  -1.6317   1.6883  -1.9412   1.00    1.0
2015/05/11 11:29:34.000   55.373636379   10.401008300    74.2317   1   4   2.5296   1.9163   2.5010  -2.2017   2.1891  -2.5152   1.00   80.5
2015/05/11 11:29:35.000   55.373667259   10.400969515    70.6597   1   4   1.8444   1.3974   1.8230  -1.6054   1.5959  -1.8335   1.00    4.2
2015/05/11 11:29:36.000   55.373682273   10.400951391    68.3385   1   4   1.5215   1.1530   1.5035  -1.3245   1.3165  -1.5123   1.00    5.5
2015/05/11 11:29:37.000   55.373690974   10.400943608    66.8822   2   4   1.3791   1.0448   1.6278  -1.1807   1.2496  -1.4369   1.00    3.0
2015/05/11 11:29:38.000   55.373693549   10.400940536    66.0293   2   4   1.2465   0.9444   1.5100  -1.0640   1.1383  -1.3091   1.00    1.4
2015/05/11 11:29:39.000   55.373698591   10.400933702    65.2273   1   4   1.0862   0.8235   1.0725  -0.9457   0.9395  -1.0790   1.00    5.4
2015/05/11 11:29:40.000   55.373693391   10.400939171    65.8675   2   4   2.5430   1.9282   2.6453  -2.2048   2.2266  -2.5578   1.00    1.0
2015/05/11 11:29:41.000   55.373705474   10.400921904    64.6996   2   4   1.8700   1.4180   2.0215  -1.6159   1.6533  -1.8996   1.00    1.1
2015/05/11 11:29:42.000   55.373723858   10.400898363    62.7717   2   4   1.5548   1.1790   1.7362  -1.3393   1.3865  -1.5933   1.00    1.0
2015/05/11 11:29:43.000   55.373729902   10.400890140    62.4480   1   4   0.0346   0.0261   0.0596  -0.0278   0.0363  -0.0419   1.00   21.4
2015/05/11 11:29:44.000   55.373731959   10.400888155    62.2037   2   4   1.2307   0.9334   1.4478  -1.0543   1.1137  -1.2801   1.00    1.3
2015/05/11 11:29:45.000   55.373736095   10.400882479    62.0495   2   4   1.1324   0.8588   1.3608  -0.9677   1.0312  -1.1854   1.00    1.2
2015/05/11 11:29:46.000   55.373736037   10.400882625    62.0913   2   4   1.0556   0.8007   1.2926  -0.9001   0.9668  -1.1115   1.00    1.2
2015/05/11 11:29:47.000   55.373735228   10.400884270    62.2645   2   4   0.9935   0.7536   1.2371  -0.8453   0.9146  -1.0516   1.00    1.2
2015/05/11 11:29:48.000   55.373733836   10.400886882    62.4429   2   4   0.9418   0.7144   1.1906  -0.7998   0.8712  -1.0018   1.00    1.4
2015/05/11 11:29:49.000   55.373735405   10.400885862    62.2846   2   4   0.8980   0.6812   1.1508  -0.7611   0.8343  -0.9594   1.00    2.3
2015/05/11 11:29:50.000   55.373736265   10.400884724    62.1322   2   4   0.8601   0.6525   1.1160  -0.7278   0.8023  -0.9228   1.00    1.1
2015/05/11 11:29:51.000   55.373737170   10.400884984    61.9706   2   4   0.8270   0.6274   1.0851  -0.6986   0.7743  -0.8906   1.00    1.8
2015/05/11 11:29:52.000   55.373734703   10.400888988    62.2386   2   4   0.7976   0.6052   1.0575  -0.6728   0.7495  -0.8621   1.00    1.1
2015/05/11 11:29:53.000   55.373731231   10.400894013    62.6858   2   4   0.7714   0.5853   1.0325  -0.6497   0.7272  -0.8365   1.00    1.2
2015/05/11 11:29:54.000   55.373728936   10.400898567    63.0171   1   4   0.0343   0.0259   0.0591  -0.0276   0.0360  -0.0416   1.00    3.2
2015/05/11 11:29:55.000   55.373727128   10.400901590    63.0994   2   4   0.7263   0.5512   0.9888  -0.6101   0.6887  -0.7923   1.00    1.2
2015/05/11 11:29:56.000   55.373723921   10.400907169    63.4714   2   4   0.7067   0.5363   0.9694  -0.5929   0.6718  -0.7730   1.00    1.2
2015/05/11 11:29:57.000   55.373720875   10.400912371    63.6682   2   4   0.6887   0.5227   0.9513  -0.5772   0.6563  -0.7552   1.00    1.3
2015/05/11 11:29:58.000   55.373717235   10.400917900    63.9290   2   4   0.6721   0.5101   0.9345  -0.5626   0.6420  -0.7387   1.00    2.6
2015/05/11 11:29:59.000   55.373715675   10.400921162    64.2598   2   4   0.6567   0.4984   0.9187  -0.5491   0.6286  -0.7233   1.00    2.4
2015/05/11 11:30:00.000   55.373735209   10.400909498    59.2573   5   3   6.8940   5.6807  28.6845  -6.1651  12.7526 -13.8654   1.00    0.0
2015/05/11 11:30:01.000   55.373777468   10.400863708    43.1789   2   4   1.7831   0.9558   4.3156  -1.1316   1.9620  -2.4472   1.00   11.8
2015/05/11 11:30:05.000   55.373652401   10.400945165    69.8680   2   4   2.2354   0.8709   3.9905  -1.2414   1.7882  -2.7701   1.00   35.3
2015/05/11 11:30:06.000   55.373612409   10.400970289    77.2281   2   4   1.6358   0.7155   2.9921  -0.9392   1.3787  -2.0105   1.00   25.1
2015/05/11 11:30:07.000   55.373630498   10.400963634    73.8110   2   4   1.3656   0.6431   2.5189  -0.8073   1.1858  -1.6706   1.00    4.9
2015/05/11 11:30:08.000   55.373601694   10.401015510    72.6516   2   4   2.9692   2.2790   5.3358  -2.5493   3.2401  -3.6777   1.00    1.4
2015/05/11 11:30:09.000   55.373606459   10.401015009    70.1044   2   4   2.1802   1.6696   3.8539  -1.8493   2.3518  -2.6773   1.00    2.0
2015/05/11 11:30:10.000   55.373609535   10.401017313    66.7814   2   4   2.6616   2.0272   3.6812  -2.2822   2.5551  -2.9226   1.00    1.2
2015/05/11 11:30:11.000   55.373624391   10.400998733    66.0381   2   4   2.0087   1.5311   3.0014  -1.7067   1.9901  -2.2763   1.00    2.7
2015/05/11 11:30:12.000   55.373631720   10.400990074    66.7375   2   4   1.6917   1.2897   2.6216  -1.4274   1.7015  -1.9470   1.00    1.2
2015/05/11 11:30:13.000   55.373642800   10.400977825    65.6728   2   4   1.4930   1.1381   2.3628  -1.2529   1.5144  -1.7338   1.00   36.4
2015/05/11 11:30:14.000   55.373676050   10.400961937    60.4381   2   4   2.4043   1.1513   3.7786  -1.5152   1.8675  -2.9403   1.00    1.7
2015/05/11 11:30:15.000   55.373691928   10.400951914    58.1842   1   4   1.0621   0.8103   1.0324  -0.9276   0.9144  -1.0469   1.00    4.7
2015/05/11 11:30:16.000   55.373702491   10.400934051    57.5337   2   4   2.6704   1.9257   3.2073  -2.2026   2.2966  -2.8205   1.00    1.2
2015/05/11 11:30:17.000   55.373675991   10.400955872    61.0627   2   4   2.0117   1.4352   2.5932  -1.6309   1.7541  -2.1785   1.00    1.3
2015/05/11 11:30:18.000   55.373667485   10.400964128    61.7977   2   4   1.6921   1.2043   2.2761  -1.3601   1.4962  -1.8602   1.00    1.4
2015/05/11 11:30:19.000   55.373666498   10.400962497    62.9117   2   4   1.4920   1.0628   2.0672  -1.1936   1.3360  -1.6574   1.00    1.0
2015/05/11 11:30:20.000   55.373669615   10.400960652    62.0578   2   4   1.3509   0.9642   1.9136  -1.0776   1.2230  -1.5123   1.00    1.1
2015/05/11 11:30:21.000   55.373670996   10.400958629    61.8815   2   4   1.2442   0.8903   1.7933  -0.9908   1.1373  -1.4013   1.00    1.7
2015/05/11 11:30:22.000   55.373682189   10.400949779    60.4461   1   4   0.0335   0.0254   0.0576  -0.0269   0.0350  -0.0405   1.00    4.0
2015/05/11 11:30:23.000   55.373690091   10.400941059    58.9266   1   4   0.0335   0.0254   0.0576  -0.0269   0.0350  -0.0404   1.00    5.5
2015/05/11 11:30:24.000   55.373689096   10.400939024    58.6164   2   4   1.0324   0.7446   1.5423  -0.8204   0.9649  -1.1773   1.00    1.8
2015/05/11 11:30:25.000   55.373686361   10.400937992    59.4241   2   4   0.9828   0.7105   1.4808  -0.7808   0.9238  -1.1240   1.00    1.2
2015/05/11 11:30:26.000   55.373687651   10.400933291    59.3051   2   4   0.9398   0.6809   1.4264  -0.7464   0.8878  -1.0774   1.00    1.1
2015/05/11 11:30:27.000   55.373694842   10.400926573    58.5041   2   4   0.9019   0.6548   1.3778  -0.7163   0.8559  -1.0363   1.00    1.4
2015/05/11 11:30:28.000   55.373703843   10.400920021    57.6419   2   4   0.8682   0.6316   1.3341  -0.6896   0.8274  -0.9996   1.00    2.1
2015/05/11 11:30:29.000   55.373712534   10.400912547    56.2289   2   4   0.8381   0.6107   1.2943  -0.6656   0.8016  -0.9665   1.00    1.9
2015/05/11 11:30:30.000   55.373754342   10.400835516    48.8601   2   4   3.1025   2.3592   5.3633  -2.4740   3.2378  -3.7300   1.00    0.0
2015/05/11 11:30:31.000   55.373740242   10.400850544    53.8858   2   4   2.2392   1.7024   3.8399  -1.7883   2.3281  -2.6825   1.00    0.0
2015/05/11 11:30:32.000   55.373748380   10.400846735    53.3082   2   4   1.8406   1.3994   3.1475  -1.4708   1.9111  -2.2022   1.00    0.0
2015/05/11 11:30:33.000   55.373755844   10.400845645    54.3321   2   4   1.5991   1.2158   2.7304  -1.2780   1.6590  -1.9118   1.00    0.0
2015/05/11 11:30:34.000   55.373750278   10.400861321    60.0617   2   4   1.6538   1.2917   4.3397  -1.3729   2.1671  -2.4278   1.00    0.0
2015/05/11 11:30:35.000   55.373750311   10.400868498    62.2609   2   4   1.4150   1.0930   3.2303  -1.1565   1.7017  -1.9237   1.00    0.0
2015/05/11 11:30:36.000   55.373735562   10.400887592    67.5902   2   4   2.9141   2.2617   5.2773  -2.5318   3.2111  -3.6234   1.00    0.0
2015/05/11 11:30:37.000   55.373705045   10.400901007    70.6554   1   4   0.9211   0.7735   4.0167  -0.8440   1.7624  -1.9232   1.00    5.0
2015/05/11 11:30:38.000   55.373696041   10.400898090    73.6264   2   4   2.7830   2.1225   4.1428  -2.3007   2.7208  -3.1277   1.00   63.2
2015/05/11 11:30:39.000   55.373693831   10.400900705    74.3994   2   4   2.0859   1.5895   3.2761  -1.7038   2.0845  -2.3986   1.00  114.0
2015/05/11 11:30:40.000   55.373694504   10.400893590    73.9271   2   4   1.7447   1.3290   2.8033  -1.4171   1.7605  -2.0266   1.00   32.8
2015/05/11 11:30:41.000   55.373708320   10.400874286    70.1601   2   4   1.5311   1.1661   2.4912  -1.2394   1.5533  -1.7885   1.00   27.9
2015/05/11 11:30:42.000   55.373757108   10.400811416    51.2704   2   4   1.6258   1.2737   4.3117  -1.3642   2.1479  -2.4021   1.00    1.5
2015/05/11 11:30:43.000   55.373752218   10.400817701    55.2368   2   4   1.3927   1.0790   3.2096  -1.1503   1.6876  -1.9038   1.00    1.4
2015/05/11 11:30:44.000   55.373775582   10.400784894    54.6433   1   4   0.0333   0.0252   0.0576  -0.0266   0.0348  -0.0403   1.00    5.3
2015/05/11 11:30:45.000   55.373793852   10.400768197    51.5103   2   4   1.9567   1.5050   2.9166  -1.6750   1.9414  -2.2105   1.00    1.2
2015/05/11 11:30:46.000   55.373807492   10.400758120    48.8643   2   4   1.6462   1.2657   2.5498  -1.3993   1.6589  -1.8902   1.00    1.2
2015/05/11 11:30:47.000   55.373820356   10.400746639    47.4769   2   4   1.4524   1.1162   2.2999  -1.2276   1.4764  -1.6835   1.00    1.0
2015/05/11 11:30:48.000   55.373819980   10.400745258    49.0871   2   4   1.3158   1.0107   2.1134  -1.1069   1.3447  -1.5345   1.00    2.1
2015/05/11 11:30:49.000   55.373818337   10.400745024    50.3988   2   4   1.2126   0.9310   1.9667  -1.0160   1.2435  -1.4199   2.00    1.7
2015/05/11 11:30:50.000   55.373820905   10.400743085    51.5606   2   4   1.1308   0.8678   1.8471  -0.9442   1.1623  -1.3280   1.00    1.1
2015/05/11 11:30:51.000   55.373820372   10.400743921    52.9420   1   4   0.0331   0.0251   0.0573  -0.0265   0.0346  -0.0400   1.00  126.4
2015/05/11 11:30:52.000   55.373817993   10.400746707    54.2712   2   4   1.0076   0.7727   1.6617  -0.8367   1.0386  -1.1878   1.00    1.1
2015/05/11 11:30:53.000   55.373802851   10.400757771    57.0876   1   4   2.1426   0.5892   3.3596  -1.1233   1.4066  -2.6829   1.00    3.4
2015/05/11 11:30:54.000   55.373783082   10.400771899    60.9118   2   4   1.6780   0.7897   2.6586  -1.0392   1.2960  -2.0585   1.00    1.2
2015/05/11 11:30:55.000   55.373795683   10.400769121    58.3185   2   4   1.4166   0.7288   2.2536  -0.9129   1.1394  -1.7277   1.00    1.6
2015/05/11 11:30:56.000   55.373811979   10.400738815    46.5559   2   4   1.4375   0.9816   4.1358  -1.0879   1.9028  -2.2017   1.00    2.7
2015/05/11 11:30:57.000   55.373756362   10.400765145    53.5905   5   3  15.9858   4.4002  25.0290  -8.3500  10.4666 -19.9712   1.00    0.0
2015/05/11 11:30:58.000   55.373761162   10.400756551    47.9973   2   4   2.2168   0.9809   4.3716  -1.2298   1.9667  -2.6945   1.00    5.2
2015/05/11 11:30:59.000   55.373767385   10.400758804    46.0101   2   4   1.6348   0.7949   3.1613  -0.9546   1.4712  -1.9733   1.00    2.8
2015/05/11 11:31:00.000   55.373780531   10.400757980    42.9751   2   4   1.3723   0.7128   2.6193  -0.8339   1.2522  -1.6517   1.00  999.9
2015/05/11 11:31:01.000   55.373785337   10.400762040    41.8262   2   4   1.2148   0.6625   2.2950  -0.7613   1.1213  -1.4594   2.00    1.7
2015/05/11 11:31:02.000   55.373798278   10.400759885    39.8963   2   4   1.1064   0.6264   2.0729  -0.7107   1.0312  -1.3276   1.00    8.6
2015/05/11 11:31:03.000   55.373790882   10.400766450    40.3248   2   4   1.0258   0.5984   1.9083  -0.6722   0.9639  -1.2297   1.00    2.3
2015/05/11 11:31:04.000   55.373777290   10.400782948    44.1034   1   4   0.9266   0.2541   1.4525  -0.4847   0.6068  -1.1600   1.00    4.7
2015/05/11 11:31:05.000   55.373775319   10.400787528    43.4555   2   4   1.0643   0.7206   2.9559  -0.7946   1.3673  -1.5904   1.00    1.2
2015/05/11 11:31:06.000   55.373750641   10.400805266    48.1437   2   4   2.1802   0.8011   3.7058  -1.1969   1.6352  -2.7000   1.00    1.8
2015/05/11 11:31:07.000   55.373780060   10.400801430    44.8601   2   4   1.5955   0.6692   2.7880  -0.9081   1.2702  -1.9594   1.00    1.1
2015/05/11 11:31:08.000   55.373788491   10.400803551    44.5628   2   4   1.3321   0.6086   2.3599  -0.7817   1.1014  -1.6269   1.00    1.1
2015/05/11 11:31:09.000   55.373807057   10.400798340    41.7765   2   4   1.1744   0.5705   2.0956  -0.7071   0.9974  -1.4287   1.00    1.1
2015/05/11 11:31:10.000   55.373804850   10.400803367    42.9382   2   4   1.0666   0.5430   1.9104  -0.6563   0.9242  -1.2937   1.00    1.4
2015/05/11 11:31:11.000   55.373794777   10.400814242    46.2665   2   4   0.9867   0.5215   1.7707  -0.6186   0.8687  -1.1941   1.00    1.8
2015/05/11 11:31:12.000   55.373779692   10.400823744    49.4288   1   4   0.0325   0.0247   0.0560  -0.0260   0.0338  -0.0391   1.00    7.6
2015/05/11 11:31:13.000   55.373760530   10.400837116    53.6433   2   4   0.8741   0.4887   1.5695  -0.5649   0.7879  -1.0542   1.00    1.2
2015/05/11 11:31:14.000   55.373750759   10.400844162    56.0781   2   4   0.8321   0.4755   1.4934  -0.5445   0.7569  -1.0023   1.00    2.3
2015/05/11 11:31:15.000   55.373748508   10.400845687    56.3592   2   4   0.7964   0.4638   1.4282  -0.5269   0.7302  -0.9582   1.00    2.4
2015/05/11 11:31:16.000   55.373747111   10.400845941    56.5997   1   4   0.0324   0.0246   0.0558  -0.0259   0.0337  -0.0389   1.00    8.2
2015/05/11 11:31:17.000   55.373748364   10.400844270    55.9682   1   4   0.0324   0.0246   0.0558  -0.0259   0.0337  -0.0389   1.00    5.6
2015/05/11 11:31:18.000   55.373750007   10.400842885    56.0510   2   4   0.7143   0.4346   1.2769  -0.4854   0.6669  -0.8572   1.00    1.3
2015/05/11 11:31:20.000   55.373752767   10.400841936    55.8986   2   4   0.6924   0.4262   1.2362  -0.4738   0.6493  -0.8302   1.00    1.5
2015/05/11 11:31:21.000   55.373751216   10.400842738    56.4063   2   4   0.6729   0.4185   1.1999  -0.4635   0.6337  -0.8063   1.00    1.2
2015/05/11 11:31:22.000   55.373750296   10.400842920    56.8749   2   4   0.6551   0.4113   1.1668  -0.4540   0.6193  -0.7845   1.00    2.0
2015/05/11 11:31:23.000   55.373750088   10.400841140    56.7657   2   4   0.6388   0.4045   1.1365  -0.4452   0.6060  -0.7646   1.00    1.6
2015/05/11 11:31:24.000   55.373750707   10.400840127    56.9277   2   4   0.6238   0.3981   1.1085  -0.4369   0.5936  -0.7462   1.00    1.1
2015/05/11 11:31:25.000   55.373751234   10.400839134    57.0797   2   4   0.6099   0.3921   1.0826  -0.4292   0.5821  -0.7292   2.00    1.0
2015/05/11 11:31:26.000   55.373753674   10.400834727    56.1812   1   4   0.0322   0.0245   0.0555  -0.0257   0.0334  -0.0387   1.00    4.0
2015/05/11 11:31:27.000   55.373752422   10.400834067    56.1399   2   4   0.5848   0.3808   1.0359  -0.4150   0.5610  -0.6986   1.00    2.7
2015/05/11 11:31:28.000   55.373751971   10.400833096    56.1367   2   4   0.5735   0.3755   1.0148  -0.4085   0.5514  -0.6848   1.00    2.5
2015/05/11 11:31:29.000   55.373749286   10.400832923    56.4575   2   4   0.5628   0.3705   0.9950  -0.4024   0.5423  -0.6719   1.00    1.2
2015/05/11 11:31:30.000   55.373748102   10.400833212    56.5078   1   4   0.0321   0.0244   0.0553  -0.0256   0.0333  -0.0385   1.00    5.1
2015/05/11 11:31:31.000   55.373748312   10.400831706    56.2303   2   4   0.5432   0.3611   0.9587  -0.3909   0.5254  -0.6481   1.00    1.0
2015/05/11 11:31:32.000   55.373747923   10.400832381    56.2625   2   4   0.5342   0.3567   0.9420  -0.3855   0.5176  -0.6371   1.00    1.1
2015/05/11 11:31:33.000   55.373746635   10.400832841    56.3623   1   4   0.0320   0.0244   0.0552  -0.0256   0.0333  -0.0384   1.00    6.2
2015/05/11 11:31:34.000   55.373746391   10.400834786    56.6774   2   4   0.5176   0.3483   0.9110  -0.3755   0.5030  -0.6169   1.00    1.3
2015/05/11 11:31:35.000   55.373747390   10.400836504    56.9046   1   4   0.0320   0.0244   0.0552  -0.0255   0.0332  -0.0384   1.00    5.4
2015/05/11 11:31:36.000   55.373747574   10.400837545    57.1794   2   4   0.5024   0.3405   0.8830  -0.3663   0.4896  -0.5985   1.00    2.0
2015/05/11 11:31:37.000   55.373749524   10.400836403    56.8142   2   4   0.4953   0.3368   0.8699  -0.3619   0.4833  -0.5899   1.00    1.9
2015/05/11 11:31:38.000   55.373754630   10.400831851    55.4022   2   4   0.4886   0.3332   0.8574  -0.3577   0.4772  -0.5817   1.00    1.1
2015/05/11 11:31:39.000   55.373757725   10.400828285    54.5786   2   4   0.4821   0.3298   0.8454  -0.3536   0.4714  -0.5738   1.00    1.3
2015/05/11 11:31:40.000   55.373761090   10.400824488    54.0121   1   4   0.0319   0.0243   0.0550  -0.0254   0.0331  -0.0382   1.00    3.9
2015/05/11 11:31:41.000   55.373761007   10.400824617    54.0005   1   4   0.0318   0.0243   0.0549  -0.0254   0.0331  -0.0382   1.00    4.1
2015/05/11 11:31:42.000   55.373810105   10.400757846    48.6128   2   4   2.3291   1.8010   2.2862  -2.0402   1.9987  -2.2765   1.00    1.0
2015/05/11 11:31:43.000   55.373833554   10.400727288    46.2164   2   4   1.7084   1.3198   1.7409  -1.4910   1.4772  -1.6853   1.00    1.1
2015/05/11 11:31:44.000   55.373836052   10.400723899    45.8590   2   4   2.3243   1.7982   2.2744  -2.0368   1.9932  -2.2695   1.00    1.4
