$GPGSA,A,1,,,,,,,,,,,,,,,*1E
$GPGSV,1,1,0,,,,,,,,,,,,,,,,*49
$GPGSA,A,1,,,,,,,,,,,,,,,*1E
$GPGSV,1,1,0,,,,,,,,,,,,,,,,*49
$GPGSA,A,1,,,,,,,,,,,,,,,*1E
$GPGSV,1,1,0,,,,,,,,,,,,,,,,*49
$GPGSA,A,1,,,,,,,,,,,,,,,*1E
$GPGSV,1,1,0,,,,,,,,,,,,,,,,*49
$GPGSA,A,1,,,,,,,,,,,,,,,*1E
$GPGSV,1,1,0,,,,,,,,,,,,,,,,*49
$GPGSA,A,1,,,,,,,,,,,,,,,*1E
$GPGSV,1,1,0,,,,,,,,,,,,,,,,*49
$GPGSA,A,1,,,,,,,,,,,,,,,*1E
$GPGSV,1,1,0,,,,,,,,,,,,,,,,*49
$GPGSA,A,1,,,,,,,,,,,,,,,*1E
$GPGSV,1,1,0,,,,,,,,,,,,,,,,*49
$GPGSA,A,1,,,,,,,,,,,,,,,*1E
$GPGSV,1,1,0,,,,,,,,,,,,,,,,*49
$GPGSA,A,1,,,,,,,,,,,,,,,*1E
$GPGSV,1,1,0,,,,,,,,,,,,,,,,*49
$GPGSA,A,1,,,,,,,,,,,,,,,*1E
$GPGSV,1,1,0,,,,,,,,,,,,,,,,*49
$GPGSA,A,1,,,,,,,,,,,,,,,*1E
$GPGSV,1,1,0,,,,,,,,,,,,,,,,*49
$GPRMC,112408.00,A,5522.4274758,N,01024.0497246,E,0.50,0.00,110515,0.0,E,D*38
$GPGGA,112408.00,5522.4274758,N,01024.0497246,E,5,04,1.0,8.763,M,39.165,M,1.0,*4C
$GLGSA,A,3,70,71,73,79,80,81,82,88,,,,,2.1,1.0,1.8,2*3B
$GLGSV,2,1,08,70,40,232,42,71,42,306,00,73,26,268,00,79,35,070,32,1*72
$GLGSV,2,2,08,80,74,310,41,81,34,061,35,82,16,128,38,88,19,017,00,1*70
$GPRMC,112409.00,A,5522.4271063,N,01024.0513161,E,0.33,0.00,110515,0.0,E,D*3D
$GPGGA,112409.00,5522.4271063,N,01024.0513161,E,5,04,1.0,12.888,M,39.165,M,1.0,*7D
$GLGSA,A,3,70,71,73,79,80,81,82,88,,,,,2.1,1.0,1.8,2*3B
$GLGSV,2,1,08,70,40,232,42,71,42,306,00,73,26,268,00,79,35,070,32,1*72
$GLGSV,2,2,08,80,74,310,41,81,34,061,36,82,16,128,38,88,19,017,00,1*73
$GPRMC,112410.00,A,5522.4297672,N,01024.0504973,E,0.53,0.00,110515,0.0,E,D*30
$GPGGA,112410.00,5522.4297672,N,01024.0504973,E,5,04,1.0,5.742,M,39.165,M,1.0,*49
$GLGSA,A,3,70,71,73,79,80,81,82,88,,,,,2.1,1.0,1.8,2*3B
$GLGSV,2,1,08,70,40,232,42,71,42,306,00,73,26,268,00,79,35,070,30,1*70
$GLGSV,2,2,08,80,74,310,41,81,34,061,36,82,16,128,38,88,19,017,00,1*73
$GPRMC,112411.00,A,5522.4306138,N,01024.0498854,E,0.64,0.00,110515,0.0,E,D*35
$GPGGA,112411.00,5522.4306138,N,01024.0498854,E,5,04,1.0,1.793,M,39.165,M,1.0,*40
$GLGSA,A,3,70,71,73,79,80,81,82,88,,,,,2.1,1.0,1.8,2*3B
$GLGSV,2,1,08,70,40,232,41,71,42,306,00,73,26,268,00,79,35,070,30,1*73
$GLGSV,2,2,08,80,74,310,42,81,34,061,36,82,16,128,38,88,19,017,00,1*70
$GPRMC,112412.00,A,5522.4300753,N,01024.0504090,E,0.19,0.00,110515,0.0,E,D*35
$GPGGA,112412.00,5522.4300753,N,01024.0504090,E,5,04,1.0,4.533,M,39.165,M,1.0,*47
$GLGSA,A,3,70,71,73,79,80,81,82,88,,,,,2.1,1.0,1.8,2*3B
$GLGSV,2,1,08,70,40,232,41,71,42,306,00,73,26,268,00,79,35,070,29,1*7B
$GLGSV,2,2,08,80,74,310,42,81,34,061,37,82,16,128,39,88,19,017,00,1*70
$GPRMC,112413.00,A,5522.4307034,N,01024.0493901,E,0.40,0.00,110515,0.0,E,A*32
$GPGGA,112413.00,5522.4307034,N,01024.0493901,E,1,03,1.0,1.213,M,39.165,M,1.0,*4A
$GLGSA,A,3,70,71,73,79,80,81,82,88,,,,,2.1,1.0,1.8,2*3B
$GLGSV,2,1,08,70,40,232,41,71,42,306,00,73,26,268,00,79,35,070,29,1*7B
$GLGSV,2,2,08,80,74,310,41,81,34,061,37,82,16,128,38,88,19,017,00,1*72
$GPRMC,112414.00,A,5522.4263306,N,01024.0555117,E,0.22,0.00,110515,0.0,E,D*31
$GPGGA,112414.00,5522.4263306,N,01024.0555117,E,5,04,1.0,29.545,M,39.165,M,1.0,*75
$GLGSA,A,3,70,71,73,79,80,81,82,88,,,,,2.1,1.0,1.8,2*3B
$GLGSV,2,1,08,70,40,232,41,71,42,306,00,73,26,268,30,79,35,070,28,1*79
$GLGSV,2,2,08,80,74,310,42,81,34,061,37,82,16,128,38,88,19,017,00,1*71
$GPRMC,112415.00,A,5522.4264547,N,01024.0549618,E,0.33,0.00,110515,0.0,E,D*31
$GPGGA,112415.00,5522.4264547,N,01024.0549618,E,4,04,1.0,28.412,M,39.165,M,2.0,*75
$GLGSA,A,3,70,71,73,79,80,81,82,88,,,,,2.1,1.0,1.8,2*3B
$GLGSV,2,1,08,70,40,232,41,71,42,306,00,73,26,268,31,79,35,070,28,1*78
$GLGSV,2,2,08,80,74,310,42,81,34,061,37,82,16,128,38,88,19,017,00,1*71
$GPRMC,112416.00,A,5522.4293236,N,01024.0503764,E,0.16,0.00,110515,0.0,E,D*38
$GPGGA,112416.00,5522.4293236,N,01024.0503764,E,4,04,1.0,9.477,M,39.165,M,1.0,*48
$GLGSA,A,3,70,71,73,79,80,81,82,88,,,,,2.1,1.0,1.8,2*3B
$GLGSV,2,1,08,70,40,232,41,71,42,306,00,73,26,268,31,79,35,070,28,1*78
$GLGSV,2,2,08,80,74,310,42,81,34,061,37,82,16,128,38,88,19,017,00,1*71
$GPRMC,112417.00,A,5522.4296241,N,01024.0496678,E,0.32,0.00,110515,0.0,E,D*3B
$GPGGA,112417.00,5522.4296241,N,01024.0496678,E,4,04,1.0,7.517,M,39.165,M,1.0,*44
$GLGSA,A,3,70,71,73,79,80,81,82,88,,,,,2.1,1.0,1.8,2*3B
$GLGSV,2,1,08,70,40,232,40,71,42,306,00,73,26,268,31,79,35,070,29,1*78
$GLGSV,2,2,08,80,74,310,41,81,34,061,36,82,16,128,39,88,19,017,00,1*72
$GPRMC,112418.00,A,5522.4293357,N,01024.0494124,E,0.28,0.00,110515,0.0,E,D*30
$GPGGA,112418.00,5522.4293357,N,01024.0494124,E,5,04,1.0,7.780,M,39.165,M,1.0,*49
$GLGSA,A,3,70,71,73,79,80,81,82,88,,,,,2.1,1.0,1.8,2*3B
$GLGSV,2,1,08,70,40,232,40,71,42,306,00,73,26,268,30,79,35,070,29,1*79
$GLGSV,2,2,08,80,74,310,41,81,34,061,36,82,16,128,39,88,19,017,00,1*72
$GPRMC,112419.00,A,5522.4298787,N,01024.0481036,E,0.17,0.00,110515,0.0,E,D*39
$GPGGA,112419.00,5522.4298787,N,01024.0481036,E,4,04,1.0,3.667,M,39.165,M,1.0,*41
$GLGSA,A,3,70,71,73,79,80,81,82,88,,,,,2.1,1.0,1.8,2*3B
$GLGSV,2,1,08,70,40,232,40,71,42,306,00,73,26,268,30,79,35,070,30,1*71
$GLGSV,2,2,08,80,74,311,41,81,34,061,36,82,16,128,39,88,19,017,00,1*73
$GPRMC,112420.00,A,5522.4300798,N,01024.0470207,E,0.21,0.00,110515,0.0,E,D*36
$GPGGA,112420.00,5522.4300798,N,01024.0470207,E,4,04,1.0,0.298,M,39.165,M,1.0,*4C
$GLGSA,A,3,70,71,73,79,80,81,82,88,,,,,2.1,1.0,1.8,2*3B
$GLGSV,2,1,08,70,40,232,40,71,42,306,00,73,26,268,31,79,35,070,29,1*78
$GLGSV,2,2,08,80,74,311,41,81,34,061,36,82,16,128,39,88,19,017,00,1*73
$GPRMC,112421.00,A,5522.4300596,N,01024.0467091,E,0.19,0.00,110515,0.0,E,D*3B
$GPGGA,112421.00,5522.4300596,N,01024.0467091,E,5,04,1.0,0.105,M,39.165,M,1.0,*4C
$GLGSA,A,3,70,71,73,79,80,81,82,88,,,,,2.1,1.0,1.8,2*3B
$GLGSV,2,1,08,70,40,232,41,71,42,306,00,73,26,268,31,79,35,070,28,1*78
$GLGSV,2,2,08,80,74,311,41,81,34,061,36,82,16,128,39,88,19,017,00,1*73
$GPRMC,112422.00,A,5522.4299770,N,01024.0463813,E,0.04,0.00,110515,0.0,E,D*39
$GPGGA,112422.00,5522.4299770,N,01024.0463813,E,5,04,1.0,-0.438,M,39.165,M,1.0,*64
$GLGSA,A,3,70,71,73,79,80,81,82,88,,,,,2.1,1.0,1.8,2*3B
$GLGSV,2,1,08,70,40,232,41,71,42,306,00,73,26,268,31,79,35,070,28,1*78
$GLGSV,2,2,08,80,74,311,41,81,34,060,36,82,16,128,39,88,19,017,00,1*72
$GPRMC,112423.00,A,5522.4293820,N,01024.0469513,E,0.28,0.00,110515,0.0,E,D*31
$GPGGA,112423.00,5522.4293820,N,01024.0469513,E,5,04,1.0,3.001,M,39.165,M,1.0,*42
$GLGSA,A,3,70,71,73,79,80,81,82,88,,,,,2.1,1.0,1.8,2*3B
$GLGSV,2,1,08,70,40,232,42,71,42,306,00,73,26,268,31,79,35,070,28,1*7B
$GLGSV,2,2,08,80,74,311,41,81,34,060,36,82,16,128,39,88,19,017,00,1*72
$GPRMC,112424.00,A,5522.4325341,N,01024.0427279,E,0.09,0.00,110515,0.0,E,D*34
$GPGGA,112424.00,5522.4325341,N,01024.0427279,E,4,04,1.0,-1.594,M,39.165,M,1.0,*63
$GLGSA,A,3,70,71,73,79,80,81,82,88,,,,,2.1,1.0,1.8,2*3B
$GLGSV,2,1,08,70,40,232,42,71,42,306,00,73,26,268,31,79,35,070,28,1*7B
$GLGSV,2,2,08,80,74,311,41,81,34,060,37,82,16,128,39,88,19,017,00,1*73
$GPRMC,112425.00,A,5522.4323474,N,01024.0427890,E,0.16,0.00,110515,0.0,E,D*31
$GPGGA,112425.00,5522.4323474,N,01024.0427890,E,5,04,1.0,-0.045,M,39.165,M,1.0,*61
$GLGSA,A,3,70,71,73,79,80,81,82,88,,,,,2.1,1.0,1.8,2*3B
$GLGSV,2,1,08,70,40,232,42,71,42,306,00,73,26,268,31,79,35,070,28,1*7B
$GLGSV,2,2,08,80,74,311,41,81,34,060,37,82,16,128,39,88,19,017,00,1*73
$GPRMC,112426.00,A,5522.4315125,N,01024.0438555,E,0.25,0.00,110515,0.0,E,D*3C
$GPGGA,112426.00,5522.4315125,N,01024.0438555,E,5,04,1.0,4.574,M,39.165,M,1.0,*42
$GLGSA,A,3,70,71,73,79,80,81,82,88,,,,,2.1,1.0,1.8,2*3B
$GLGSV,2,1,08,70,40,232,42,71,42,306,00,73,26,268,31,79,35,070,28,1*7B
$GLGSV,2,2,08,80,74,311,41,81,34,060,38,82,16,128,39,88,19,017,00,1*7C
$GPRMC,112427.00,A,5522.4304104,N,01024.0452760,E,0.46,0.00,110515,0.0,E,D*33
$GPGGA,112427.00,5522.4304104,N,01024.0452760,E,4,04,1.0,10.447,M,39.165,M,1.0,*7D
$GLGSA,A,3,70,71,73,79,80,81,82,88,,,,,2.1,1.0,1.8,2*3B
$GLGSV,2,1,08,70,40,232,42,71,42,306,00,73,26,268,00,79,35,070,26,1*77
$GLGSV,2,2,08,80,74,311,41,81,34,060,38,82,16,128,39,88,19,017,00,1*7C
$GPGSA,A,1,,,,,,,,,,,,,,,*1E
$GPGSV,1,1,0,,,,,,,,,,,,,,,,*49
$GPGSA,A,1,,,,,,,,,,,,,,,*1E
$GPGSV,1,1,0,,,,,,,,,,,,,,,,*49
$GPGSA,A,1,,,,,,,,,,,,,,,*1E
$GPGSV,1,1,0,,,,,,,,,,,,,,,,*49
$GPRMC,112431.00,A,5522.4291847,N,01024.0467759,E,0.21,0.00,110515,0.0,E,D*3A
$GPGGA,112431.00,5522.4291847,N,01024.0467759,E,4,04,1.0,14.215,M,39.165,M,1.0,*70
$GLGSA,A,3,70,71,73,79,80,81,82,88,,,,,2.1,1.0,1.8,2*3B
$GLGSV,2,1,08,70,39,232,41,71,42,306,00,73,26,268,00,79,35,070,28,1*74
$GLGSV,2,2,08,80,74,311,41,81,34,060,37,82,16,128,39,88,19,017,00,1*73
$GPRMC,112432.00,A,5522.4249045,N,01024.0521577,E,0.14,0.00,110515,0.0,E,D*3D
$GPGGA,112432.00,5522.4249045,N,01024.0521577,E,5,04,1.0,24.323,M,39.165,M,1.0,*77
$GLGSA,A,3,70,71,73,79,80,81,82,88,,,,,2.1,1.0,1.8,2*3B
$GLGSV,2,1,08,70,39,232,41,71,42,306,00,73,26,268,00,79,35,070,29,1*75
$GLGSV,2,2,08,80,74,311,41,81,34,060,37,82,16,128,39,88,19,016,00,1*72
$GPRMC,112433.00,A,5522.4245237,N,01024.0526716,E,0.21,0.00,110515,0.0,E,D*33
$GPGGA,112433.00,5522.4245237,N,01024.0526716,E,5,04,1.0,26.018,M,39.165,M,1.0,*76
$GLGSA,A,3,70,71,73,79,80,81,82,88,,,,,2.1,1.0,1.8,2*3B
$GLGSV,2,1,08,70,39,232,41,71,42,306,00,73,26,268,00,79,35,070,29,1*75
$GLGSV,2,2,08,80,74,311,41,81,34,060,38,82,16,128,39,88,19,016,00,1*7D
$GPRMC,112434.00,A,5522.4234787,N,01024.0541044,E,0.37,0.00,110515,0.0,E,D*3A
$GPGGA,112434.00,5522.4234787,N,01024.0541044,E,5,04,1.0,31.193,M,39.165,M,1.0,*7C
$GLGSA,A,3,70,71,73,79,80,81,82,88,,,,,2.1,1.0,1.8,2*3B
$GLGSV,2,1,08,70,39,232,41,71,42,306,00,73,26,268,00,79,35,070,30,1*7D
$GLGSV,2,2,08,80,74,311,41,81,34,060,37,82,16,128,39,88,19,016,00,1*72
$GPRMC,112435.00,A,5522.4243813,N,01024.0527220,E,0.06,0.00,110515,0.0,E,D*3B
$GPGGA,112435.00,5522.4243813,N,01024.0527220,E,5,04,1.0,24.984,M,39.165,M,1.0,*75
$GLGSA,A,3,70,71,73,79,80,81,82,88,,,,,2.1,1.0,1.8,2*3B
$GLGSV,2,1,08,70,39,232,41,71,42,306,00,73,26,268,00,79,35,070,30,1*7D
$GLGSV,2,2,08,80,74,311,41,81,34,060,37,82,16,128,39,88,19,016,00,1*72
$GPRMC,112436.00,A,5522.4238743,N,01024.0532315,E,0.12,0.00,110515,0.0,E,D*38
$GPGGA,112436.00,5522.4238743,N,01024.0532315,E,5,04,1.0,25.794,M,39.165,M,1.0,*7D
$GLGSA,A,3,70,71,73,79,80,81,82,88,,,,,2.1,1.0,1.8,2*3B
$GLGSV,2,1,08,70,39,232,41,71,42,306,00,73,26,268,31,79,35,070,30,1*7F
$GLGSV,2,2,08,80,74,311,41,81,34,060,36,82,16,128,39,88,19,016,00,1*73
$GPRMC,112437.00,A,5522.4234903,N,01024.0536345,E,0.20,0.00,110515,0.0,E,D*3F
$GPGGA,112437.00,5522.4234903,N,01024.0536345,E,4,04,1.0,26.599,M,39.165,M,1.0,*76
$GLGSA,A,3,70,71,73,79,80,81,82,88,,,,,2.1,1.0,1.8,2*3B
$GLGSV,2,1,08,70,39,232,41,71,42,306,00,73,26,268,31,79,35,070,29,1*77
$GLGSV,2,2,08,80,74,311,41,81,34,060,37,82,16,128,40,88,19,016,00,1*7C
$GPRMC,112438.00,A,5522.4236477,N,01024.0534068,E,0.34,0.00,110515,0.0,E,D*37
$GPGGA,112438.00,5522.4236477,N,01024.0534068,E,5,04,1.0,25.139,M,39.165,M,1.0,*77
$GLGSA,A,3,70,71,73,79,80,81,82,88,,,,,2.1,1.0,1.8,2*3B
$GLGSV,2,1,08,70,39,232,41,71,42,306,00,73,26,268,31,79,35,070,30,1*7F
$GLGSV,2,2,08,80,74,311,41,81,34,060,37,82,16,128,40,88,19,016,00,1*7C
$GPRMC,112439.00,A,5522.4237026,N,01024.0533624,E,0.17,0.00,110515,0.0,E,D*3F
$GPGGA,112439.00,5522.4237026,N,01024.0533624,E,5,04,1.0,24.465,M,39.165,M,1.0,*73
$GLGSA,A,3,70,71,73,79,80,81,82,88,,,,,2.1,1.0,1.8,2*3B
$GLGSV,2,1,08,70,39,232,41,71,42,306,00,73,26,268,31,79,35,070,29,1*77
$GLGSV,2,2,08,80,74,311,41,81,34,060,36,82,16,128,40,88,19,016,00,1*7D
$GPRMC,112440.00,A,5522.4231841,N,01024.0540624,E,0.16,0.00,110515,0.0,E,D*3B
$GPGGA,112440.00,5522.4231841,N,01024.0540624,E,5,04,1.0,26.820,M,39.165,M,1.0,*79
$GLGSA,A,3,70,71,73,79,80,81,82,88,,,,,2.1,1.0,1.8,2*3B
$GLGSV,2,1,08,70,39,232,41,71,42,306,00,73,26,268,31,79,35,070,28,1*76
$GLGSV,2,2,08,80,74,311,41,81,34,060,36,82,16,128,39,88,19,016,00,1*73
$GPGSA,A,1,,,,,,,,,,,,,,,*1E
$GPGSV,1,1,0,,,,,,,,,,,,,,,,*49
$GPGSA,A,1,,,,,,,,,,,,,,,*1E
$GPGSV,1,1,0,,,,,,,,,,,,,,,,*49
$GPGSA,A,1,,,,,,,,,,,,,,,*1E
$GPGSV,1,1,0,,,,,,,,,,,,,,,,*49
$GPGSA,A,1,,,,,,,,,,,,,,,*1E
$GPGSV,1,1,0,,,,,,,,,,,,,,,,*49
$GPGSA,A,1,,,,,,,,,,,,,,,*1E
$GPGSV,1,1,0,,,,,,,,,,,,,,,,*49
$GPGSA,A,1,,,,,,,,,,,,,,,*1E
$GPGSV,1,1,0,,,,,,,,,,,,,,,,*49
$GPGSA,A,1,,,,,,,,,,,,,,,*1E
$GPGSV,1,1,0,,,,,,,,,,,,,,,,*49
$GPGSA,A,1,,,,,,,,,,,,,,,*1E
$GPGSV,1,1,0,,,,,,,,,,,,,,,,*49
$GPRMC,112449.00,A,5522.4236481,N,01024.0531783,E,0.31,0.00,110515,0.0,E,D*3A
$GPGGA,112449.00,5522.4236481,N,01024.0531783,E,5,04,1.0,19.578,M,39.165,M,1.0,*71
$GLGSA,A,3,70,71,73,79,80,81,82,88,,,,,2.1,1.0,1.8,2*3B
$GLGSV,2,1,08,70,39,232,41,71,42,305,00,73,26,268,32,79,35,070,29,1*77
$GLGSV,2,2,08,80,74,311,41,81,34,060,36,82,16,128,40,88,18,016,00,1*7C
$GPRMC,112450.00,A,5522.4237344,N,01024.0531267,E,0.20,0.00,110515,0.0,E,D*32
$GPGGA,112450.00,5522.4237344,N,01024.0531267,E,5,04,1.0,20.358,M,39.165,M,1.0,*77
$GLGSA,A,3,70,71,73,79,80,81,82,88,,,,,2.1,1.0,1.8,2*3B
$GLGSV,2,1,08,70,39,232,42,71,42,305,00,73,26,268,31,79,35,070,30,1*7F
$GLGSV,2,2,08,80,74,311,41,81,34,060,37,82,16,128,39,88,18,016,00,1*73
$GPRMC,112451.00,A,5522.4250686,N,01024.0512811,E,0.22,0.00,110515,0.0,E,D*31
$GPGGA,112451.00,5522.4250686,N,01024.0512811,E,4,04,1.0,13.436,M,39.165,M,1.0,*78
$GLGSA,A,3,70,71,73,79,80,81,82,88,,,,,2.1,1.0,1.8,2*3B
$GLGSV,2,1,08,70,39,232,42,71,42,305,00,73,26,268,32,79,35,070,29,1*74
$GLGSV,2,2,08,80,74,311,41,81,34,060,37,82,16,128,39,88,18,016,00,1*73
$GPRMC,112452.00,A,5522.4249712,N,01024.0517010,E,0.51,0.00,110515,0.0,E,D*3E
$GPGGA,112452.00,5522.4249712,N,01024.0517010,E,4,04,1.0,16.726,M,39.165,M,1.0,*74
$GLGSA,A,3,70,71,73,79,80,81,82,88,,,,,2.1,1.0,1.8,2*3B
$GLGSV,2,1,08,70,39,232,42,71,42,305,00,73,26,268,32,79,35,070,29,1*74
$GLGSV,2,2,08,80,74,311,41,81,34,060,37,82,16,128,39,88,18,016,00,1*73
$GPRMC,112453.00,A,5522.4250242,N,01024.0518912,E,0.15,0.00,110515,0.0,E,D*33
$GPGGA,112453.00,5522.4250242,N,01024.0518912,E,4,04,1.0,19.095,M,39.165,M,1.0,*79
$GLGSA,A,3,70,71,73,79,80,81,82,88,,,,,2.1,1.0,1.8,2*3B
$GLGSV,2,1,08,70,39,232,42,71,42,305,00,73,26,268,32,79,35,070,29,1*74
$GLGSV,2,2,08,80,74,312,41,81,34,060,37,82,16,128,39,88,18,016,00,1*70
$GPRMC,112454.00,A,5522.4248005,N,01024.0523160,E,0.16,0.00,110515,0.0,E,D*3A
$GPGGA,112454.00,5522.4248005,N,01024.0523160,E,5,04,1.0,21.793,M,39.165,M,1.0,*78
$GLGSA,A,3,70,71,73,79,80,81,82,88,,,,,2.1,1.0,1.8,2*3B
$GLGSV,2,1,08,70,39,232,42,71,42,305,00,73,26,268,32,79,35,070,29,1*74
$GLGSV,2,2,08,80,74,312,41,81,34,060,38,82,16,128,39,88,18,016,00,1*7F
$GPRMC,112455.00,A,5522.4230869,N,01024.0546256,E,0.35,0.00,110515,0.0,E,D*32
$GPGGA,112455.00,5522.4230869,N,01024.0546256,E,5,04,1.0,27.599,M,39.165,M,1.0,*7F
$GLGSA,A,3,70,71,73,79,80,81,82,88,,,,,2.1,1.0,1.8,2*3B
$GLGSV,2,1,08,70,39,232,42,71,42,305,00,73,26,268,32,79,35,070,30,1*7C
$GLGSV,2,2,08,80,74,312,41,81,34,060,38,82,16,128,39,88,18,016,00,1*7F
$GPRMC,112456.00,A,5522.4223373,N,01024.0556345,E,0.33,0.00,110515,0.0,E,D*37
$GPGGA,112456.00,5522.4223373,N,01024.0556345,E,5,04,1.0,28.818,M,39.165,M,1.0,*77
$GLGSA,A,3,70,71,73,79,80,81,82,88,,,,,2.1,1.0,1.8,2*3B
$GLGSV,2,1,08,70,39,232,42,71,42,305,00,73,26,268,32,79,35,070,30,1*7C
$GLGSV,2,2,08,80,74,312,41,81,34,060,37,82,16,128,39,88,18,016,00,1*70
$GPRMC,112457.00,A,5522.4222750,N,01024.0557798,E,0.41,0.00,110515,0.0,E,D*32
$GPGGA,112457.00,5522.4222750,N,01024.0557798,E,5,04,1.0,29.742,M,39.165,M,1.0,*76
$GLGSA,A,3,70,71,73,79,80,81,82,88,,,,,2.1,1.0,1.8,2*3B
$GLGSV,2,1,08,70,39,232,41,71,42,305,00,73,26,268,32,79,35,070,32,1*7D
$GLGSV,2,2,08,80,74,312,40,81,34,060,37,82,16,128,39,88,18,016,00,1*71
$GPRMC,112458.00,A,5522.4213081,N,01024.0570768,E,0.50,0.00,110515,0.0,E,D*3E
$GPGGA,112458.00,5522.4213081,N,01024.0570768,E,5,04,1.0,33.910,M,39.165,M,1.0,*78
$GLGSA,A,3,70,71,73,79,80,81,82,88,,,,,2.1,1.0,1.8,2*3B
$GLGSV,2,1,08,70,39,232,41,71,42,305,00,73,26,268,00,79,35,070,31,1*7F
$GLGSV,2,2,08,80,74,312,41,81,34,060,37,82,16,128,39,88,18,016,00,1*70
$GPRMC,112459.00,A,5522.4208599,N,01024.0577082,E,0.06,0.00,110515,0.0,E,D*3E
$GPGGA,112459.00,5522.4208599,N,01024.0577082,E,5,04,1.0,36.305,M,39.165,M,1.0,*70
$GLGSA,A,3,70,71,73,79,80,81,82,88,,,,,2.1,1.0,1.8,2*3B
$GLGSV,2,1,08,70,39,232,41,71,42,305,00,73,26,268,00,79,35,070,30,1*7E
$GLGSV,2,2,08,80,74,312,41,81,34,060,37,82,16,128,39,88,18,016,00,1*70
$GPRMC,112500.00,A,5522.4210516,N,01024.0574845,E,0.16,0.00,110515,0.0,E,D*3C
$GPGGA,112500.00,5522.4210516,N,01024.0574845,E,5,04,1.0,35.649,M,39.165,M,1.0,*7D
$GLGSA,A,3,70,71,73,79,80,81,82,88,,,,,2.1,1.0,1.8,2*3B
$GLGSV,2,1,08,70,39,232,41,71,42,305,00,73,26,268,00,79,35,070,31,1*7F
$GLGSV,2,2,08,80,74,312,41,81,34,060,37,82,16,128,39,88,18,016,00,1*70
$GPRMC,112501.00,A,5522.4212780,N,01024.0571195,E,0.26,0.00,110515,0.0,E,D*30
$GPGGA,112501.00,5522.4212780,N,01024.0571195,E,5,04,1.0,34.732,M,39.165,M,1.0,*7E
$GLGSA,A,3,70,71,73,79,80,81,82,88,,,,,2.1,1.0,1.8,2*3B
$GLGSV,2,1,08,70,39,232,41,71,42,305,00,73,26,268,00,79,35,070,31,1*7F
$GLGSV,2,2,08,80,74,312,42,81,34,060,36,82,16,128,39,88,18,016,00,1*72
$GPRMC,112502.00,A,5522.4215431,N,01024.0567209,E,0.22,0.00,110515,0.0,E,D*38
$GPGGA,112502.00,5522.4215431,N,01024.0567209,E,5,04,1.0,33.703,M,39.165,M,1.0,*77
$GLGSA,A,3,70,71,73,79,80,81,82,88,,,,,2.1,1.0,1.8,2*3B
$GLGSV,2,1,08,70,39,232,41,71,42,305,00,73,26,268,00,79,35,070,31,1*7F
$GLGSV,2,2,08,80,74,312,42,81,34,060,36,82,16,128,39,88,18,016,00,1*72
$GPRMC,112503.00,A,5522.4218918,N,01024.0561630,E,0.23,0.00,110515,0.0,E,D*3B
$GPGGA,112503.00,5522.4218918,N,01024.0561630,E,5,04,1.0,32.056,M,39.165,M,1.0,*73
$GLGSA,A,3,70,71,73,79,80,81,82,88,,,,,2.1,1.0,1.8,2*3B
$GLGSV,2,1,08,70,39,232,41,71,42,305,00,73,26,268,00,79,35,070,32,1*7C
$GLGSV,2,2,08,80,74,312,42,81,34,060,36,82,16,128,38,88,18,016,00,1*73
$GPRMC,112504.00,A,5522.4222871,N,01024.0555078,E,0.38,0.00,110515,0.0,E,D*3C
$GPGGA,112504.00,5522.4222871,N,01024.0555078,E,4,04,1.0,30.218,M,39.165,M,1.0,*75
$GLGSA,A,3,70,71,73,79,80,81,82,88,,,,,2.1,1.0,1.8,2*3B
$GLGSV,2,1,08,70,39,232,41,71,42,305,00,73,26,268,00,79,35,070,32,1*7C
$GLGSV,2,2,08,80,74,312,42,81,34,060,36,82,16,128,39,88,18,016,00,1*72
$GPRMC,112505.00,A,5522.4225042,N,01024.0550937,E,0.21,0.00,110515,0.0,E,D*3D
$GPGGA,112505.00,5522.4225042,N,01024.0550937,E,5,04,1.0,28.817,M,39.165,M,1.0,*71
$GLGSA,A,3,70,71,73,79,80,81,82,88,,,,,2.1,1.0,1.8,2*3B
$GLGSV,2,1,08,70,39,232,43,71,42,305,00,73,26,268,00,79,35,070,32,1*7E
$GLGSV,2,2,08,80,74,312,42,81,34,060,37,82,16,128,38,88,18,016,00,1*72
$GPRMC,112506.00,A,5522.4229751,N,01024.0544500,E,0.17,0.00,110515,0.0,E,D*3F
$GPGGA,112506.00,5522.4229751,N,01024.0544500,E,5,04,1.0,26.614,M,39.165,M,1.0,*75
$GLGSA,A,3,70,71,73,79,80,81,82,88,,,,,2.1,1.0,1.8,2*3B
$GLGSV,2,1,08,70,39,232,42,71,42,305,00,73,26,268,00,79,35,070,32,1*7F
$GLGSV,2,2,08,80,74,312,42,81,34,060,36,82,16,128,38,88,18,016,00,1*73
$GPRMC,112507.00,A,5522.4232696,N,01024.0540631,E,0.41,0.00,110515,0.0,E,D*38
$GPGGA,112507.00,5522.4232696,N,01024.0540631,E,5,04,1.0,25.410,M,39.165,M,1.0,*74
$GLGSA,A,3,70,71,73,79,80,81,82,88,,,,,2.1,1.0,1.8,2*3B
$GLGSV,2,1,08,70,39,232,42,71,42,305,00,73,26,268,00,79,35,070,33,1*7E
$GLGSV,2,2,08,80,74,312,42,81,34,060,37,82,16,128,37,88,18,016,00,1*7D
$GPRMC,112508.00,A,5522.4252251,N,01024.0515199,E,0.20,0.00,110515,0.0,E,D*3C
$GPGGA,112508.00,5522.4252251,N,01024.0515199,E,5,04,1.0,20.914,M,39.165,M,1.0,*7B
$GLGSA,A,3,70,71,73,79,80,81,82,88,,,,,2.1,1.0,1.8,2*3B
$GLGSV,2,1,08,70,39,232,42,71,42,305,00,73,26,268,00,79,35,070,32,1*7F
$GLGSV,2,2,08,80,74,312,42,81,34,060,37,82,16,128,38,88,18,016,00,1*72
$GPRMC,112509.00,A,5522.4250598,N,01024.0516975,E,0.29,0.00,110515,0.0,E,D*3D
$GPGGA,112509.00,5522.4250598,N,01024.0516975,E,5,04,1.0,20.791,M,39.165,M,2.0,*73
$GLGSA,A,3,70,71,73,79,80,81,82,88,,,,,2.1,1.0,1.8,2*3B
$GLGSV,2,1,08,70,39,232,42,71,42,305,00,73,26,268,00,79,35,070,31,1*7C
$GLGSV,2,2,08,80,74,312,41,81,34,060,37,82,16,128,38,88,18,016,00,1*71
$GPRMC,112510.00,A,5522.4254356,N,01024.0512096,E,0.38,0.00,110515,0.0,E,D*35
$GPGGA,112510.00,5522.4254356,N,01024.0512096,E,4,04,1.0,20.804,M,39.165,M,1.0,*7A
$GLGSA,A,3,70,71,73,79,80,81,82,88,,,,,2.1,1.0,1.8,2*3B
$GLGSV,2,1,08,70,39,232,42,71,42,305,00,73,26,268,00,79,35,070,31,1*7C
$GLGSV,2,2,08,80,74,312,41,81,34,060,38,82,16,128,39,88,18,016,00,1*7F
$GPRMC,112511.00,A,5522.4242630,N,01024.0526844,E,0.07,0.00,110515,0.0,E,D*3A
$GPGGA,112511.00,5522.4242630,N,01024.0526844,E,5,04,1.0,23.429,M,39.165,M,1.0,*78
$GLGSA,A,3,70,71,73,79,80,81,82,88,,,,,2.1,1.0,1.8,2*3B
$GLGSV,2,1,08,70,39,232,42,71,42,305,00,73,26,268,00,79,35,070,29,1*75
$GLGSV,2,2,08,80,74,312,41,81,34,060,37,82,16,128,39,88,18,016,00,1*70
$GPRMC,112512.00,A,5522.4222302,N,01024.0546172,E,0.31,0.00,110515,0.0,E,D*34
$GPGGA,112512.00,5522.4222302,N,01024.0546172,E,4,04,1.0,28.215,M,39.165,M,1.0,*70
$GLGSA,A,3,70,71,73,79,80,81,82,88,,,,,2.1,1.0,1.8,2*3B
$GLGSV,2,1,08,70,39,232,43,71,42,305,00,73,26,268,00,79,35,070,30,1*7C
$GLGSV,2,2,08,80,74,312,41,81,34,060,37,82,16,128,39,88,18,016,00,1*70
$GPRMC,112513.00,A,5522.4199685,N,01024.0562050,E,0.14,0.00,110515,0.0,E,D*3C
$GPGGA,112513.00,5522.4199685,N,01024.0562050,E,5,04,1.0,34.531,M,39.165,M,1.0,*72
$GLGSA,A,3,70,71,73,79,80,81,82,88,,,,,2.1,1.0,1.8,2*3B
$GLGSV,2,1,08,70,39,232,42,71,42,305,00,73,26,268,00,79,35,070,31,1*7C
$GLGSV,2,2,08,80,74,312,41,81,34,060,37,82,16,128,39,88,18,016,00,1*70
$GPRMC,112514.00,A,5522.4173809,N,01024.0580785,E,0.61,0.00,110515,0.0,E,D*34
$GPGGA,112514.00,5522.4173809,N,01024.0580785,E,5,04,1.0,41.654,M,39.165,M,1.0,*7A
$GLGSA,A,3,70,71,73,79,80,81,82,88,,,,,2.1,1.0,1.8,2*3B
$GLGSV,2,1,08,70,39,232,43,71,42,305,00,73,26,268,00,79,35,070,32,1*7E
$GLGSV,2,2,08,80,74,312,41,81,34,060,37,82,16,128,40,88,18,016,00,1*7E
$GPRMC,112515.00,A,5522.4181076,N,01024.0579426,E,0.33,0.00,110515,0.0,E,D*33
$GPGGA,112515.00,5522.4181076,N,01024.0579426,E,5,04,1.0,39.414,M,39.165,M,1.0,*73
$GLGSA,A,3,70,71,73,79,80,81,82,88,,,,,2.1,1.0,1.8,2*3B
$GLGSV,2,1,08,70,39,232,43,71,42,305,00,73,26,268,00,79,35,070,31,1*7D
$GLGSV,2,2,08,80,74,312,41,81,34,060,37,82,16,128,39,88,18,016,00,1*70
$GPRMC,112516.00,A,5522.4177579,N,01024.0591465,E,0.17,0.00,110515,0.0,E,D*34
$GPGGA,112516.00,5522.4177579,N,01024.0591465,E,5,04,1.0,39.322,M,39.165,M,1.0,*70
$GLGSA,A,3,70,71,73,79,80,81,82,88,,,,,2.1,1.0,1.8,2*3B
$GLGSV,2,1,08,70,39,232,43,71,42,305,00,73,26,269,00,79,35,070,31,1*7C
$GLGSV,2,2,08,80,74,312,41,81,34,060,36,82,16,128,39,88,18,016,00,1*71
$GPRMC,112517.00,A,5522.4189573,N,01024.0586734,E,0.21,0.00,110515,0.0,E,D*3A
$GPGGA,112517.00,5522.4189573,N,01024.0586734,E,4,04,1.0,35.628,M,39.165,M,1.0,*79
$GLGSA,A,3,70,71,73,79,80,81,82,88,,,,,2.1,1.0,1.8,2*3B
$GLGSV,2,1,08,70,39,232,43,71,42,305,00,73,26,269,00,79,35,070,31,1*7C
$GLGSV,2,2,08,80,74,312,41,81,34,060,36,82,16,128,39,88,18,016,00,1*71
$GPRMC,112518.00,A,5522.4208986,N,01024.0573764,E,0.21,0.00,110515,0.0,E,D*36
$GPGGA,112518.00,5522.4208986,N,01024.0573764,E,4,04,1.0,30.133,M,39.165,M,1.0,*7D
$GLGSA,A,3,70,71,73,79,80,81,82,88,,,,,2.1,1.0,1.8,2*3B
$GLGSV,2,1,08,70,39,232,42,71,42,305,00,73,26,269,00,79,35,070,30,1*7C
$GLGSV,2,2,08,80,74,312,41,81,34,060,36,82,16,128,40,88,18,016,00,1*7F
$GPRMC,112519.00,A,5522.4215063,N,01024.0568053,E,0.40,0.00,110515,0.0,E,D*37
$GPGGA,112519.00,5522.4215063,N,01024.0568053,E,5,04,1.0,29.069,M,39.165,M,1.0,*7C
$GLGSA,A,3,70,71,73,79,80,81,82,88,,,,,2.1,1.0,1.8,2*3B
$GLGSV,2,1,08,70,39,232,42,71,42,305,00,73,26,269,00,79,35,070,30,1*7C
$GLGSV,2,2,08,80,74,312,41,81,34,060,36,82,16,128,39,88,18,016,00,1*71
$GPRMC,112520.00,A,5522.4264539,N,01024.0537612,E,0.11,0.00,110515,0.0,E,D*3C
$GPGGA,112520.00,5522.4264539,N,01024.0537612,E,5,04,1.0,15.123,M,39.165,M,1.0,*73
$GLGSA,A,3,70,71,73,79,80,81,82,88,,,,,2.1,1.0,1.9,2*3A
$GLGSV,2,1,08,70,39,232,42,71,42,305,00,73,26,269,00,79,35,070,30,1*7C
$GLGSV,2,2,08,80,74,312,41,81,34,060,36,82,16,128,39,88,18,016,00,1*71
$GPRMC,112521.00,A,5522.4265621,N,01024.0534302,E,0.05,0.00,110515,0.0,E,D*34
$GPGGA,112521.00,5522.4265621,N,01024.0534302,E,5,04,1.0,15.179,M,39.165,M,1.0,*71
$GLGSA,A,3,70,71,73,79,80,81,82,88,,,,,2.1,1.0,1.9,2*3A
$GLGSV,2,1,08,70,39,232,42,71,42,305,00,73,26,269,00,79,35,070,31,1*7D
$GLGSV,2,2,08,80,74,312,40,81,34,060,36,82,16,128,39,88,18,016,00,1*70
$GPRMC,112522.00,A,5522.4246677,N,01024.0540517,E,0.51,0.00,110515,0.0,E,D*35
$GPGGA,112522.00,5522.4246677,N,01024.0540517,E,4,04,1.0,21.679,M,39.165,M,1.0,*70
$GLGSA,A,3,70,71,73,79,80,81,82,88,,,,,2.1,1.0,1.9,2*3A
$GLGSV,2,1,08,70,39,232,41,71,42,305,00,73,26,269,00,79,34,070,32,1*7C
$GLGSV,2,2,08,80,74,312,41,81,34,060,36,82,16,128,39,88,18,016,00,1*71
$GPRMC,112523.00,A,5522.4246606,N,01024.0538603,E,0.06,0.00,110515,0.0,E,D*39
$GPGGA,112523.00,5522.4246606,N,01024.0538603,E,5,04,1.0,21.939,M,39.165,M,1.0,*74
$GLGSA,A,3,70,71,73,79,80,81,82,88,,,,,2.1,1.0,1.9,2*3A
$GLGSV,2,1,08,70,39,232,41,71,42,305,00,73,26,269,00,79,34,070,31,1*7F
$GLGSV,2,2,08,80,74,312,41,81,34,060,36,82,16,128,38,88,18,016,00,1*70
$GPRMC,112524.00,A,5522.4280791,N,01024.0491808,E,0.16,0.00,110515,0.0,E,D*3D
$GPGGA,112524.00,5522.4280791,N,01024.0491808,E,4,04,1.0,15.487,M,39.165,M,1.0,*7F
$GLGSA,A,3,70,71,73,79,80,81,82,88,,,,,2.1,1.0,1.9,2*3A
$GLGSV,2,1,08,70,39,232,41,71,42,305,00,73,26,269,00,79,34,070,32,1*7C
$GLGSV,2,2,08,80,74,312,41,81,34,060,37,82,16,128,38,88,18,016,00,1*71
$GPRMC,112525.00,A,5522.4284388,N,01024.0488186,E,0.04,0.00,110515,0.0,E,D*30
$GPGGA,112525.00,5522.4284388,N,01024.0488186,E,5,04,1.0,14.329,M,39.165,M,1.0,*72
$GLGSA,A,3,70,71,73,79,80,81,82,88,,,,,2.1,1.0,1.9,2*3A
$GLGSV,2,1,08,70,39,232,41,71,42,305,00,73,26,269,00,79,34,070,34,1*7A
$GLGSV,2,2,08,80,74,312,41,81,34,060,37,82,16,128,39,88,18,016,00,1*70
$GPRMC,112526.00,A,5522.4286193,N,01024.0486968,E,0.36,0.00,110515,0.0,E,D*3E
$GPGGA,112526.00,5522.4286193,N,01024.0486968,E,4,04,1.0,13.511,M,39.165,M,1.0,*76
$GLGSA,A,3,70,71,73,79,80,81,82,88,,,,,2.1,1.0,1.9,2*3A
$GLGSV,2,1,08,70,39,232,41,71,42,305,00,73,26,269,00,79,34,070,30,1*7E
$GLGSV,2,2,08,80,74,313,41,81,34,060,37,82,16,128,38,88,18,016,00,1*70
$GPRMC,112527.00,A,5522.4287627,N,01024.0484797,E,0.13,0.00,110515,0.0,E,D*3D
$GPGGA,112527.00,5522.4287627,N,01024.0484797,E,4,04,1.0,12.665,M,39.165,M,2.0,*70
$GLGSA,A,3,70,71,73,79,80,81,82,88,,,,,2.1,1.0,1.9,2*3A
$GLGSV,2,1,08,70,39,232,41,71,42,305,00,73,26,269,00,79,34,070,33,1*7D
$GLGSV,2,2,08,80,74,313,41,81,34,060,38,82,16,128,38,88,18,016,00,1*7F
$GPRMC,112528.00,A,5522.4285266,N,01024.0485364,E,0.15,0.00,110515,0.0,E,D*3E
$GPGGA,112528.00,5522.4285266,N,01024.0485364,E,4,04,1.0,13.534,M,39.165,M,1.0,*70
$GLGSA,A,3,70,71,73,79,80,81,82,88,,,,,2.1,1.0,1.9,2*3A
$GLGSV,2,1,08,70,39,232,41,71,42,305,00,73,26,269,00,79,34,070,33,1*7D
$GLGSV,2,2,08,80,74,313,41,81,34,060,38,82,16,128,38,88,18,016,00,1*7F
$GPRMC,112529.00,A,5522.4283650,N,01024.0482356,E,0.03,0.00,110515,0.0,E,D*39
$GPGGA,112529.00,5522.4283650,N,01024.0482356,E,4,04,1.0,14.515,M,39.165,M,1.0,*74
$GLGSA,A,3,70,71,73,79,80,81,82,88,,,,,2.1,1.0,1.9,2*3A
$GLGSV,2,1,08,70,39,232,41,71,42,305,00,73,26,269,00,79,34,070,34,1*7A
$GLGSV,2,2,08,80,74,313,41,81,34,060,37,82,16,128,38,88,18,016,00,1*70
$GPRMC,112530.00,A,5522.4281241,N,01024.0483390,E,0.27,0.00,110515,0.0,E,D*3A
$GPGGA,112530.00,5522.4281241,N,01024.0483390,E,5,04,1.0,14.884,M,39.165,M,1.0,*75
$GLGSA,A,3,70,71,73,79,80,81,82,88,,,,,2.1,1.0,1.9,2*3A
$GLGSV,2,1,08,70,39,232,41,71,42,305,00,73,26,269,00,79,34,070,35,1*7B
$GLGSV,2,2,08,80,74,313,41,81,34,060,37,82,16,128,38,88,18,016,00,1*70
$GPRMC,112531.00,A,5522.4279085,N,01024.0484236,E,0.15,0.00,110515,0.0,E,D*3D
$GPGGA,112531.00,5522.4279085,N,01024.0484236,E,4,04,1.0,15.440,M,39.165,M,1.0,*77
$GLGSA,A,3,70,71,73,79,80,81,82,88,,,,,2.1,1.0,1.9,2*3A
$GLGSV,2,1,08,70,39,232,41,71,42,305,00,73,26,269,00,79,34,070,36,1*78
$GLGSV,2,2,08,80,74,313,41,81,34,060,37,82,16,128,38,88,18,016,00,1*70
$GPRMC,112532.00,A,5522.4308984,N,01024.0443122,E,0.22,0.00,110515,0.0,E,D*38
$GPGGA,112532.00,5522.4308984,N,01024.0443122,E,5,04,1.0,9.682,M,39.165,M,1.0,*46
$GLGSA,A,3,70,71,73,79,80,81,82,88,,,,,2.1,1.0,1.9,2*3A
$GLGSV,2,1,08,70,39,232,41,71,42,305,00,73,26,269,00,79,34,070,35,1*7B
$GLGSV,2,2,08,80,74,313,41,81,34,060,37,82,16,128,38,88,18,016,00,1*70
$GPRMC,112533.00,A,5522.4307529,N,01024.0442343,E,0.51,0.00,110515,0.0,E,D*3D
$GPGGA,112533.00,5522.4307529,N,01024.0442343,E,5,04,1.0,10.520,M,39.165,M,1.0,*74
$GLGSA,A,3,70,71,73,79,80,81,82,88,,,,,2.1,1.0,1.9,2*3A
$GLGSV,2,1,08,70,39,232,42,71,42,305,00,73,26,269,00,79,34,070,36,1*7B
$GLGSV,2,2,08,80,74,313,41,81,34,060,36,82,17,128,38,88,18,016,00,1*70
$GPRMC,112534.00,A,5522.4300869,N,01024.0447950,E,0.08,0.00,110515,0.0,E,D*35
$GPGGA,112534.00,5522.4300869,N,01024.0447950,E,5,04,1.0,12.608,M,39.165,M,1.0,*7B
$GLGSA,A,3,70,71,73,79,80,81,82,88,,,,,2.1,1.0,1.9,2*3A
$GLGSV,2,1,08,70,39,232,42,71,42,305,00,73,26,269,00,79,34,070,35,1*78
$GLGSV,2,2,08,80,75,313,41,81,34,060,36,82,17,128,38,88,18,016,00,1*71
$GPRMC,112535.00,A,5522.4296023,N,01024.0453723,E,0.12,0.00,110515,0.0,E,D*38
$GPGGA,112535.00,5522.4296023,N,01024.0453723,E,5,04,1.0,13.729,M,39.165,M,1.0,*7E
$GLGSA,A,3,70,71,73,79,80,81,82,88,,,,,2.1,1.0,1.9,2*3A
$GLGSV,2,1,08,70,39,232,42,71,42,305,00,73,26,269,00,79,34,070,34,1*79
$GLGSV,2,2,08,80,75,313,41,81,34,060,36,82,17,128,38,88,18,016,00,1*71
$GPRMC,112536.00,A,5522.4290606,N,01024.0458820,E,0.42,0.00,110515,0.0,E,D*3E
$GPGGA,112536.00,5522.4290606,N,01024.0458820,E,5,04,1.0,15.279,M,39.165,M,1.0,*7B
$GLGSA,A,3,70,71,73,79,80,81,82,88,,,,,2.1,1.0,1.9,2*3A
$GLGSV,2,1,08,70,39,232,42,71,42,305,00,73,26,269,00,79,34,070,35,1*78
$GLGSV,2,2,08,80,75,313,41,81,34,060,36,82,17,128,38,88,18,016,00,1*71
$GPRMC,112537.00,A,5522.4284946,N,01024.0465515,E,0.31,0.00,110515,0.0,E,D*30
$GPGGA,112537.00,5522.4284946,N,01024.0465515,E,5,04,1.0,16.466,M,39.165,M,1.0,*7A
$GLGSA,A,3,70,71,73,79,80,81,82,88,,,,,2.1,1.0,1.9,2*3A
$GLGSV,2,1,08,70,39,232,42,71,42,305,00,73,26,269,00,79,34,070,35,1*78
$GLGSV,2,2,08,80,75,313,41,81,34,060,36,82,17,128,39,88,18,016,00,1*70
$GPRMC,112538.00,A,5522.4281562,N,01024.0469895,E,0.35,0.00,110515,0.0,E,D*3D
$GPGGA,112538.00,5522.4281562,N,01024.0469895,E,5,04,1.0,16.877,M,39.165,M,1.0,*7F
$GLGSA,A,3,70,71,73,79,80,81,82,88,,,,,2.1,1.0,1.9,2*3A
$GLGSV,2,1,08,70,39,232,42,71,42,305,00,73,26,269,00,79,34,070,34,1*79
$GLGSV,2,2,08,80,75,313,41,81,34,060,36,82,17,128,38,88,18,016,00,1*71
$GPRMC,112539.00,A,5522.4279540,N,01024.0473207,E,1.84,0.00,110515,0.0,E,D*3A
$GPGGA,112539.00,5522.4279540,N,01024.0473207,E,5,04,1.0,16.917,M,39.165,M,1.0,*74
$GLGSA,A,3,70,71,73,79,80,81,82,88,,,,,2.1,1.0,1.9,2*3A
$GLGSV,2,1,08,70,39,232,41,71,42,305,00,73,26,269,00,79,34,070,34,1*7A
$GLGSV,2,2,08,80,75,313,42,81,34,060,36,82,17,128,39,88,18,016,00,1*73
$GPRMC,112540.00,A,5522.4276221,N,01024.0478489,E,0.25,0.00,110515,0.0,E,D*3A
$GPGGA,112540.00,5522.4276221,N,01024.0478489,E,5,04,1.0,17.012,M,39.165,M,1.0,*73
$GLGSA,A,3,70,71,73,79,80,81,82,88,,,,,2.1,1.0,1.9,2*3A
$GLGSV,2,1,08,70,39,232,42,71,42,305,00,73,26,269,33,79,34,070,34,1*79
$GLGSV,2,2,08,80,75,313,42,81,34,060,37,82,17,128,39,88,18,016,00,1*72
$GPRMC,112541.00,A,5522.4273932,N,01024.0482051,E,0.59,0.00,110515,0.0,E,D*38
$GPGGA,112541.00,5522.4273932,N,01024.0482051,E,5,04,1.0,17.037,M,39.165,M,1.0,*7D
$GLGSA,A,3,70,71,73,79,80,81,82,88,,,,,2.1,1.0,1.9,2*3A
$GLGSV,2,1,08,70,39,232,42,71,42,305,00,73,26,269,34,79,34,070,34,1*7E
$GLGSV,2,2,08,80,75,313,42,81,34,060,37,82,17,128,38,88,18,016,00,1*73
$GPRMC,112542.00,A,5522.4270915,N,01024.0485864,E,0.37,0.00,110515,0.0,E,D*3C
$GPGGA,112542.00,5522.4270915,N,01024.0485864,E,5,04,1.0,17.387,M,39.165,M,1.0,*79
$GLGSA,A,3,70,71,73,79,80,81,82,88,,,,,2.1,1.0,1.9,2*3A
$GLGSV,2,1,08,70,39,232,42,71,42,305,00,73,26,269,34,79,34,070,34,1*7E
$GLGSV,2,2,08,80,75,313,42,81,35,060,37,82,17,128,38,88,18,016,00,1*72
$GPRMC,112543.00,A,5522.4270405,N,01024.0486804,E,1.98,357.87,110515,0.0,E,D*3E
$GPGGA,112543.00,5522.4270405,N,01024.0486804,E,5,04,1.0,17.256,M,39.165,M,1.0,*7C
$GLGSA,A,3,70,71,73,79,80,81,82,88,,,,,2.1,1.0,1.9,2*3A
$GLGSV,2,1,08,70,39,232,42,71,42,305,00,73,26,269,33,79,34,070,34,1*79
$GLGSV,2,2,08,80,75,313,41,81,35,060,37,82,17,128,38,88,18,016,00,1*71
$GPRMC,112544.00,A,5522.4290228,N,01024.0456381,E,2.60,171.15,110515,0.0,E,D*3C
$GPGGA,112544.00,5522.4290228,N,01024.0456381,E,5,04,1.0,3.004,M,39.165,M,1.0,*47
$GLGSA,A,3,70,71,73,79,80,81,82,88,,,,,2.1,1.0,1.9,2*3A
$GLGSV,2,1,08,70,39,232,41,71,42,305,00,73,26,269,34,79,34,070,33,1*7A
$GLGSV,2,2,08,80,75,313,41,81,35,060,38,82,17,128,37,88,18,016,00,1*71
$GPRMC,112545.00,A,5522.4286227,N,01024.0461755,E,2.37,343.42,110515,0.0,E,D*3F
$GPGGA,112545.00,5522.4286227,N,01024.0461755,E,4,04,1.0,5.269,M,39.165,M,1.0,*49
$GLGSA,A,3,70,71,73,79,80,81,82,88,,,,,2.1,1.0,1.9,2*3A
$GLGSV,2,1,08,70,39,232,42,71,42,305,00,73,26,269,33,79,34,070,32,1*7F
$GLGSV,2,2,08,80,75,313,40,81,35,060,38,82,17,128,37,88,18,016,00,1*70
$GPRMC,112546.00,A,5522.4287417,N,01024.0461504,E,1.73,343.42,110515,0.0,E,D*3D
$GPGGA,112546.00,5522.4287417,N,01024.0461504,E,5,04,1.0,5.453,M,39.165,M,1.0,*46
$GLGSA,A,3,70,71,73,79,80,81,82,88,,,,,2.1,1.0,1.9,2*3A
$GLGSV,2,1,08,70,39,232,42,71,42,305,00,73,26,269,33,79,34,070,32,1*7F
$GLGSV,2,2,08,80,75,313,40,81,35,060,38,82,17,128,37,88,18,016,00,1*70
$GPRMC,112547.00,A,5522.4281551,N,01024.0470812,E,0.34,343.42,110515,0.0,E,D*31
$GPGGA,112547.00,5522.4281551,N,01024.0470812,E,4,04,1.0,9.908,M,39.165,M,1.0,*46
$GLGSA,A,3,70,71,73,79,80,81,82,88,,,,,2.1,1.0,1.9,2*3A
$GLGSV,2,1,08,70,39,232,41,71,42,305,00,73,26,269,33,79,34,070,32,1*7C
$GLGSV,2,2,08,80,75,313,40,81,35,060,38,82,17,128,37,88,18,016,00,1*70
$GPRMC,112548.00,A,5522.4278321,N,01024.0475438,E,0.16,343.42,110515,0.0,E,D*38
$GPGGA,112548.00,5522.4278321,N,01024.0475438,E,5,04,1.0,12.357,M,39.165,M,1.0,*74
$GLGSA,A,3,70,71,73,79,80,81,82,88,,,,,2.1,1.0,1.9,2*3A
$GLGSV,2,1,08,70,39,232,41,71,42,305,00,73,26,269,33,79,34,070,32,1*7C
$GLGSV,2,2,08,80,75,313,40,81,35,060,39,82,17,128,36,88,18,016,00,1*70
$GPRMC,112549.00,A,5522.4274751,N,01024.0479400,E,0.96,343.42,110515,0.0,E,D*39
$GPGGA,112549.00,5522.4274751,N,01024.0479400,E,4,04,1.0,13.908,M,39.165,M,1.0,*7D
$GLGSA,A,3,70,71,73,79,80,81,82,88,,,,,2.1,1.0,1.9,2*3A
$GLGSV,2,1,08,70,39,232,41,71,42,305,00,73,26,269,33,79,34,070,33,1*7D
$GLGSV,2,2,08,80,75,313,40,81,35,060,38,82,17,128,37,88,18,016,00,1*70
$GPRMC,112550.00,A,5522.4276375,N,01024.0475533,E,1.05,343.42,110515,0.0,E,D*37
$GPGGA,112550.00,5522.4276375,N,01024.0475533,E,5,04,1.0,12.335,M,39.165,M,1.0,*7C
$GLGSA,A,3,70,71,73,79,80,81,82,88,,,,,2.1,1.0,1.9,2*3A
$GLGSV,2,1,08,70,39,232,41,71,42,305,00,73,26,269,32,79,34,070,33,1*7C
$GLGSV,2,2,08,80,75,313,41,81,35,060,39,82,17,128,37,88,18,016,00,1*70
$GPRMC,112551.00,A,5522.4278695,N,01024.0470988,E,0.96,343.42,110515,0.0,E,D*31
$GPGGA,112551.00,5522.4278695,N,01024.0470988,E,5,04,1.0,10.084,M,39.165,M,1.0,*7A
$GLGSA,A,3,70,71,73,79,80,81,82,88,,,,,2.1,1.0,1.9,2*3A
$GLGSV,2,1,08,70,39,232,41,71,42,305,00,73,26,269,32,79,34,070,33,1*7C
$GLGSV,2,2,08,80,75,313,41,81,35,060,39,82,17,128,37,88,18,016,00,1*70
$GPRMC,112552.00,A,5522.4266282,N,01024.0487810,E,0.15,343.42,110515,0.0,E,D*3C
$GPGGA,112552.00,5522.4266282,N,01024.0487810,E,5,04,1.0,17.742,M,39.165,M,1.0,*76
$GLGSA,A,3,70,71,73,79,80,81,82,88,,,,,2.1,1.0,1.9,2*3A
$GLGSV,2,1,08,70,39,232,42,71,42,305,00,73,26,269,32,79,34,070,33,1*7F
$GLGSV,2,2,08,80,75,313,41,81,35,060,38,82,17,128,38,88,18,016,00,1*7E
$GPRMC,112553.00,A,5522.4262142,N,01024.0491300,E,1.31,343.42,110515,0.0,E,D*3C
$GPGGA,112553.00,5522.4262142,N,01024.0491300,E,5,04,1.0,18.930,M,39.165,M,1.0,*75
$GLGSA,A,3,70,71,73,79,80,81,82,88,,,,,2.1,1.0,1.9,2*3A
$GLGSV,2,1,08,70,39,232,42,71,42,305,00,73,26,269,33,79,34,070,33,1*7E
$GLGSV,2,2,08,80,75,313,42,81,35,060,38,82,17,128,38,88,18,016,00,1*7D
$GPRMC,112554.00,A,5522.4270565,N,01024.0477266,E,1.21,343.42,110515,0.0,E,D*31
$GPGGA,112554.00,5522.4270565,N,01024.0477266,E,5,04,1.0,12.145,M,39.165,M,1.0,*79
$GLGSA,A,3,70,71,73,79,80,81,82,88,,,,,2.1,1.0,1.9,2*3A
$GLGSV,2,1,08,70,39,232,42,71,42,305,00,73,26,269,32,79,34,070,33,1*7F
$GLGSV,2,2,08,80,75,313,42,81,35,060,38,82,17,128,37,88,18,016,00,1*72
$GPRMC,112555.00,A,5522.4269123,N,01024.0476396,E,2.39,171.65,110515,0.0,E,D*3D
$GPGGA,112555.00,5522.4269123,N,01024.0476396,E,5,04,1.0,11.120,M,39.165,M,1.0,*79
$GLGSA,A,3,70,71,73,79,80,81,82,88,,,,,2.1,1.0,1.9,2*3A
$GLGSV,2,1,08,70,39,232,42,71,42,305,00,73,26,269,32,79,34,070,34,1*78
$GLGSV,2,2,08,80,75,313,41,81,35,060,38,82,17,128,38,88,18,016,00,1*7E
$GPRMC,112556.00,A,5522.4277260,N,01024.0464503,E,3.40,171.44,110515,0.0,E,A*35
$GPGGA,112556.00,5522.4277260,N,01024.0464503,E,1,03,1.0,8.648,M,39.165,M,1.0,*4A
$GLGSA,A,3,70,71,73,79,80,81,82,88,,,,,2.1,1.0,1.9,2*3A
$GLGSV,2,1,08,70,39,231,42,71,42,305,00,73,26,269,31,79,34,070,34,1*78
$GLGSV,2,2,08,80,75,313,41,81,35,060,38,82,17,128,38,88,18,016,00,1*7E
$GPRMC,112557.00,A,5522.4282879,N,01024.0456048,E,1.94,171.44,110515,0.0,E,A*3C
$GPGGA,112557.00,5522.4282879,N,01024.0456048,E,1,03,1.0,6.971,M,39.165,M,2.0,*40
$GLGSA,A,3,70,71,73,79,80,81,82,88,,,,,2.1,1.0,1.9,2*3A
$GLGSV,2,1,08,70,39,231,42,71,42,305,00,73,26,269,32,79,34,070,35,1*7A
$GLGSV,2,2,08,80,75,313,41,81,35,059,38,82,17,128,37,88,18,016,00,1*7B
$GPRMC,112558.00,A,5522.4265072,N,01024.0479071,E,0.15,171.44,110515,0.0,E,D*33
$GPGGA,112558.00,5522.4265072,N,01024.0479071,E,4,04,1.0,11.431,M,39.165,M,1.0,*7C
$GLGSA,A,3,70,71,73,79,80,81,82,88,,,,,2.1,1.0,1.9,2*3A
$GLGSV,2,1,08,70,39,231,42,71,42,305,00,73,26,269,32,79,34,070,35,1*7A
$GLGSV,2,2,08,80,75,313,41,81,35,059,37,82,17,128,38,88,18,016,00,1*7B
$GPRMC,112559.00,A,5522.4265700,N,01024.0475312,E,0.06,171.44,110515,0.0,E,D*38
$GPGGA,112559.00,5522.4265700,N,01024.0475312,E,5,04,1.0,11.456,M,39.165,M,1.0,*75
$GLGSA,A,3,70,71,73,79,80,81,82,88,,,,,2.1,1.0,1.9,2*3A
$GLGSV,2,1,08,70,39,231,42,71,42,305,00,73,26,269,33,79,34,070,34,1*7A
$GLGSV,2,2,08,80,75,314,41,81,35,059,38,82,17,128,38,88,18,016,00,1*73
$GPRMC,112600.00,A,5522.4266319,N,01024.0472110,E,0.21,171.44,110515,0.0,E,D*3A
$GPGGA,112600.00,5522.4266319,N,01024.0472110,E,5,04,1.0,11.353,M,39.165,M,2.0,*73
$GLGSA,A,3,70,71,73,79,80,81,82,88,,,,,2.1,1.0,1.9,2*3A
$GLGSV,2,1,08,70,39,231,41,71,42,305,00,73,26,269,32,79,34,070,34,1*78
$GLGSV,2,2,08,80,75,314,41,81,35,059,38,82,17,128,38,88,18,016,00,1*73
$GPRMC,112601.00,A,5522.4269858,N,01024.0468380,E,0.20,171.44,110515,0.0,E,D*3B
$GPGGA,112601.00,5522.4269858,N,01024.0468380,E,5,04,1.0,10.256,M,39.165,M,3.0,*77
$GLGSA,A,3,70,71,73,79,80,81,82,88,,,,,2.1,1.0,1.9,2*3A
$GLGSV,2,1,08,70,39,231,41,71,42,305,00,73,26,269,32,79,34,070,34,1*78
$GLGSV,2,2,08,80,75,314,41,81,35,059,38,82,17,128,38,88,18,016,00,1*73
$GPRMC,112602.00,A,5522.4269967,N,01024.0466299,E,0.18,171.44,110515,0.0,E,D*39
$GPGGA,112602.00,5522.4269967,N,01024.0466299,E,5,04,1.0,9.961,M,39.165,M,1.0,*4B
$GLGSA,A,3,70,71,73,79,80,81,82,88,,,,,2.1,1.0,1.9,2*3A
$GLGSV,2,1,08,70,39,231,41,71,42,305,00,73,26,269,31,79,34,070,35,1*7A
$GLGSV,2,2,08,80,75,314,41,81,35,059,38,82,17,128,39,88,18,016,00,1*72
$GPRMC,112603.00,A,5522.4283603,N,01024.0458537,E,0.14,171.44,110515,0.0,E,D*33
$GPGGA,112603.00,5522.4283603,N,01024.0458537,E,5,04,1.0,5.603,M,39.165,M,1.0,*4A
$GLGSA,A,3,70,71,73,79,80,81,82,88,,,,,2.1,1.0,1.9,2*3A
$GLGSV,2,1,08,70,39,231,41,71,42,305,00,73,26,269,32,79,34,070,35,1*79
$GLGSV,2,2,08,80,75,314,41,81,35,059,38,82,17,128,39,88,18,016,00,1*72
$GPRMC,112604.00,A,5522.4280730,N,01024.0459180,E,0.22,171.44,110515,0.0,E,D*3A
$GPGGA,112604.00,5522.4280730,N,01024.0459180,E,5,04,1.0,6.668,M,39.165,M,1.0,*48
$GLGSA,A,3,70,71,73,79,80,81,82,88,,,,,2.1,1.0,1.9,2*3A
$GLGSV,2,1,08,70,39,231,41,71,42,305,00,73,26,269,32,79,34,070,35,1*79
$GLGSV,2,2,08,80,75,314,41,81,35,059,38,82,17,128,39,88,18,016,00,1*72
$GPRMC,112605.00,A,5522.4287952,N,01024.0454326,E,0.12,171.44,110515,0.0,E,D*36
$GPGGA,112605.00,5522.4287952,N,01024.0454326,E,5,04,1.0,4.946,M,39.165,M,1.0,*46
$GLGSA,A,3,70,71,73,79,80,81,82,88,,,,,2.1,1.0,1.9,2*3A
$GLGSV,2,1,08,70,39,231,41,71,42,305,00,73,26,269,32,79,34,070,35,1*79
$GLGSV,2,2,08,80,75,314,41,81,35,059,38,82,17,128,39,88,18,016,00,1*72
$GPRMC,112606.00,A,5522.4276113,N,01024.0467198,E,0.15,171.44,110515,0.0,E,D*36
$GPGGA,112606.00,5522.4276113,N,01024.0467198,E,5,04,1.0,7.088,M,39.165,M,1.0,*49
$GLGSA,A,3,70,71,73,79,80,81,82,88,,,,,2.1,1.0,1.9,2*3A
$GLGSV,2,1,08,70,39,231,41,71,42,305,00,73,26,269,33,79,34,070,34,1*79
$GLGSV,2,2,08,80,75,314,41,81,35,059,38,82,17,128,38,88,18,016,00,1*73
$GPRMC,112607.00,A,5522.4278930,N,01024.0462826,E,0.09,171.44,110515,0.0,E,D*34
$GPGGA,112607.00,5522.4278930,N,01024.0462826,E,5,04,1.0,6.007,M,39.165,M,1.0,*40
$GLGSA,A,3,70,71,73,79,80,81,82,88,,,,,2.1,1.0,1.9,2*3A
$GLGSV,2,1,08,70,39,231,41,71,42,305,00,73,26,269,33,79,34,070,34,1*79
$GLGSV,2,2,08,80,75,314,41,81,35,059,38,82,17,128,39,88,18,016,00,1*72
$GPRMC,112608.00,A,5522.4289383,N,01024.0455931,E,0.18,171.44,110515,0.0,E,D*34
$GPGGA,112608.00,5522.4289383,N,01024.0455931,E,5,04,1.0,2.669,M,39.165,M,1.0,*4A
$GLGSA,A,3,70,71,73,79,80,81,82,88,,,,,2.1,1.0,1.9,2*3A
$GLGSV,2,1,08,70,39,231,41,71,42,305,00,73,26,269,33,79,34,070,33,1*7E
$GLGSV,2,2,08,80,75,314,41,81,35,059,38,82,17,128,38,88,18,016,00,1*73
$GPRMC,112609.00,A,5522.4302178,N,01024.0448493,E,0.23,171.44,110515,0.0,E,D*30
$GPGGA,112609.00,5522.4302178,N,01024.0448493,E,5,04,1.0,-1.617,M,39.165,M,1.0,*61
$GLGSA,A,3,70,71,73,79,80,81,82,88,,,,,2.1,1.0,1.9,2*3A
$GLGSV,2,1,08,70,39,231,41,71,42,305,00,73,26,269,00,79,34,070,33,1*7E
$GLGSV,2,2,08,80,75,314,41,81,35,059,37,82,17,128,39,88,18,016,00,1*7D
$GPRMC,112610.00,A,5522.4299818,N,01024.0450210,E,0.34,171.44,110515,0.0,E,D*36
$GPGGA,112610.00,5522.4299818,N,01024.0450210,E,5,04,1.0,-1.564,M,39.165,M,1.0,*66
$GLGSA,A,3,70,71,73,79,80,81,82,88,,,,,2.1,1.0,1.9,2*3A
$GLGSV,2,1,08,70,39,231,42,71,42,305,00,73,27,269,00,79,34,070,33,1*7C
$GLGSV,2,2,08,80,75,314,42,81,35,059,37,82,17,128,38,88,18,016,00,1*7F
$GPRMC,112611.00,A,5522.4304656,N,01024.0448210,E,0.26,171.44,110515,0.0,E,D*3C
$GPGGA,112611.00,5522.4304656,N,01024.0448210,E,5,04,1.0,-3.666,M,39.165,M,1.0,*6C
$GLGSA,A,3,70,71,73,79,80,81,82,88,,,,,2.1,1.0,1.9,2*3A
$GLGSV,2,1,08,70,39,231,41,71,42,305,00,73,27,269,00,79,34,070,33,1*7F
$GLGSV,2,2,08,80,75,314,42,81,35,059,37,82,17,128,38,88,18,016,00,1*7F
$GPRMC,112612.00,A,5522.4344448,N,01024.0428372,E,0.19,171.44,110515,0.0,E,D*39
$GPGGA,112612.00,5522.4344448,N,01024.0428372,E,4,04,1.0,-15.908,M,39.165,M,1.0,*54
$GLGSA,A,3,70,71,73,79,80,81,82,88,,,,,2.1,1.0,1.9,2*3A
$GLGSV,2,1,08,70,39,231,41,71,42,305,00,73,27,269,00,79,34,070,32,1*7E
$GLGSV,2,2,08,80,75,314,41,81,35,059,37,82,17,128,39,88,18,016,00,1*7D
$GPRMC,112613.00,A,5522.4343770,N,01024.0431209,E,0.25,171.44,110515,0.0,E,D*3D
$GPGGA,112613.00,5522.4343770,N,01024.0431209,E,5,04,1.0,-16.275,M,39.165,M,1.0,*5C
$GLGSA,A,3,70,71,73,79,80,81,82,88,,,,,2.1,1.0,1.9,2*3A
$GLGSV,2,1,08,70,39,231,42,71,42,305,00,73,27,269,00,79,34,070,33,1*7C
$GLGSV,2,2,08,80,75,314,41,81,35,059,37,82,17,128,39,88,18,016,00,1*7D
$GPRMC,112614.00,A,5522.4297324,N,01024.0483048,E,0.24,171.44,110515,0.0,E,D*38
$GPGGA,112614.00,5522.4297324,N,01024.0483048,E,5,04,1.0,-6.083,M,39.165,M,1.0,*62
$GLGSA,A,3,70,71,73,79,80,81,82,88,,,,,2.1,1.0,1.9,2*3A
$GLGSV,2,1,08,70,39,231,42,71,42,305,00,73,27,269,00,79,34,070,32,1*7D
$GLGSV,2,2,08,80,75,314,42,81,35,059,37,82,17,128,39,88,18,016,00,1*7E
$GPRMC,112615.00,A,5522.4303530,N,01024.0473456,E,4.13,173.71,110515,0.0,E,D*36
$GPGGA,112615.00,5522.4303530,N,01024.0473456,E,5,04,1.0,-7.217,M,39.165,M,1.0,*66
$GLGSA,A,3,70,71,73,79,80,81,82,88,,,,,2.1,1.0,1.9,2*3A
$GLGSV,2,1,08,70,39,231,42,71,42,305,00,73,27,269,00,79,34,070,33,1*7C
$GLGSV,2,2,08,80,75,314,42,81,35,059,37,82,17,128,39,88,18,016,00,1*7E
$GPRMC,112616.00,A,5522.4334424,N,01024.0432752,E,0.43,173.71,110515,0.0,E,D*36
$GPGGA,112616.00,5522.4334424,N,01024.0432752,E,5,04,1.0,-13.330,M,39.165,M,1.0,*56
$GLGSA,A,3,70,71,73,79,80,81,82,88,,,,,2.1,1.0,1.9,2*3A
$GLGSV,2,1,08,70,39,231,42,71,42,304,00,73,27,269,00,79,34,070,31,1*7F
$GLGSV,2,2,08,80,75,314,41,81,35,059,37,82,17,128,39,88,18,016,00,1*7D
$GPRMC,112617.00,A,5522.4329978,N,01024.0437597,E,0.26,173.71,110515,0.0,E,D*32
$GPGGA,112617.00,5522.4329978,N,01024.0437597,E,5,04,1.0,-12.634,M,39.165,M,1.0,*51
$GLGSA,A,3,70,71,73,79,80,81,82,88,,,,,2.1,1.0,1.9,2*3A
$GLGSV,2,1,08,70,39,231,41,71,42,304,00,73,27,269,00,79,34,070,31,1*7C
$GLGSV,2,2,08,80,75,314,42,81,35,059,37,82,17,128,40,88,18,016,00,1*70
$GPRMC,112618.00,A,5522.4328063,N,01024.0437610,E,0.28,173.71,110515,0.0,E,D*3D
$GPGGA,112618.00,5522.4328063,N,01024.0437610,E,4,04,1.0,-12.085,M,39.165,M,1.0,*5D
$GLGSA,A,3,70,71,73,79,80,81,82,88,,,,,2.1,1.0,1.9,2*3A
$GLGSV,2,1,08,70,39,231,42,71,42,304,00,73,27,269,00,79,34,070,30,1*7E
$GLGSV,2,2,08,80,75,314,41,81,35,059,37,82,17,128,40,88,18,016,00,1*73
$GPRMC,112619.00,A,5522.4326066,N,01024.0436417,E,0.17,173.71,110515,0.0,E,D*3F
$GPGGA,112619.00,5522.4326066,N,01024.0436417,E,4,04,1.0,-11.169,M,39.165,M,1.0,*53
$GLGSA,A,3,70,71,73,79,80,81,82,88,,,,,2.1,1.0,1.9,2*3A
$GLGSV,2,1,08,70,39,231,42,71,42,304,00,73,27,269,00,79,34,070,30,1*7E
$GLGSV,2,2,08,80,75,314,41,81,35,059,37,82,17,128,39,88,18,016,00,1*7D
$GPRMC,112620.00,A,5522.4324122,N,01024.0436614,E,0.20,173.71,110515,0.0,E,D*33
$GPGGA,112620.00,5522.4324122,N,01024.0436614,E,4,04,1.0,-9.956,M,39.165,M,1.0,*66
$GLGSA,A,3,70,71,73,79,80,81,82,88,,,,,2.1,1.0,1.9,2*3A
$GLGSV,2,1,08,70,39,231,41,71,42,304,00,73,27,269,00,79,34,070,30,1*7D
$GLGSV,2,2,08,80,75,314,41,81,35,059,38,82,17,128,39,88,18,016,00,1*72
$GPRMC,112621.00,A,5522.4341502,N,01024.0412290,E,0.19,173.71,110515,0.0,E,D*33
$GPGGA,112621.00,5522.4341502,N,01024.0412290,E,5,04,1.0,-12.989,M,39.165,M,1.0,*55
$GLGSA,A,3,70,71,73,79,80,81,82,88,,,,,2.1,1.0,1.9,2*3A
$GLGSV,2,1,08,70,39,231,41,71,42,304,00,73,27,269,00,79,34,070,30,1*7D
$GLGSV,2,2,08,80,75,314,41,81,35,059,38,82,17,128,40,88,18,016,00,1*7C
$GPRMC,112622.00,A,5522.4339985,N,01024.0411710,E,0.34,173.71,110515,0.0,E,D*3D
$GPGGA,112622.00,5522.4339985,N,01024.0411710,E,5,04,1.0,-12.240,M,39.165,M,1.0,*5A
$GLGSA,A,3,70,71,73,79,80,81,82,88,,,,,2.1,1.0,1.9,2*3A
$GLGSV,2,1,08,70,39,231,41,71,42,304,00,73,27,269,00,79,34,070,29,1*75
$GLGSV,2,2,08,80,75,314,41,81,35,059,38,82,17,128,40,88,18,016,00,1*7C
$GPRMC,112623.00,A,5522.4339317,N,01024.0410731,E,0.47,173.71,110515,0.0,E,D*3B
$GPGGA,112623.00,5522.4339317,N,01024.0410731,E,4,04,1.0,-11.516,M,39.165,M,1.0,*5E
$GLGSA,A,3,70,71,73,79,80,81,82,88,,,,,2.1,1.0,1.9,2*3A
$GLGSV,2,1,08,70,39,231,41,71,42,304,00,73,27,269,00,79,34,070,29,1*75
$GLGSV,2,2,08,80,75,314,41,81,35,059,39,82,17,128,39,88,18,016,00,1*73
$GPGSA,A,1,,,,,,,,,,,,,,,*1E
$GPGSV,1,1,0,,,,,,,,,,,,,,,,*49
$GPGSA,A,1,,,,,,,,,,,,,,,*1E
$GPGSV,1,1,0,,,,,,,,,,,,,,,,*49
$GPRMC,112626.00,A,5522.4336888,N,01024.0413052,E,0.05,173.71,110515,0.0,E,D*3B
$GPGGA,112626.00,5522.4336888,N,01024.0413052,E,5,04,1.0,-10.684,M,39.165,M,1.0,*50
$GLGSA,A,3,70,71,73,79,80,81,82,88,,,,,2.1,1.0,1.9,2*3A
$GLGSV,2,1,08,70,39,231,41,71,42,304,00,73,27,269,00,79,34,070,33,1*7E
$GLGSV,2,2,08,80,75,314,41,81,35,059,38,82,17,128,39,88,18,016,00,1*72
$GPRMC,112627.00,A,5522.4337325,N,01024.0413502,E,0.26,173.71,110515,0.0,E,D*36
$GPGGA,112627.00,5522.4337325,N,01024.0413502,E,4,04,1.0,-10.552,M,39.165,M,1.0,*55
$GLGSA,A,3,70,71,73,79,80,81,82,88,,,,,2.1,1.0,1.9,2*3A
$GLGSV,2,1,08,70,39,231,41,71,42,304,00,73,27,269,00,79,34,070,32,1*7F
$GLGSV,2,2,08,80,75,314,41,81,35,059,38,82,17,128,39,88,18,016,00,1*72
$GPRMC,112628.00,A,5522.4371514,N,01024.0370093,E,0.19,173.71,110515,0.0,E,D*3C
$GPGGA,112628.00,5522.4371514,N,01024.0370093,E,5,04,1.0,-16.996,M,39.165,M,1.0,*50
$GLGSA,A,3,70,71,73,79,80,81,82,88,,,,,2.1,1.0,1.9,2*3A
$GLGSV,2,1,08,70,39,231,41,71,42,304,00,73,27,269,00,79,34,070,32,1*7F
$GLGSV,2,2,08,80,75,314,41,81,35,059,38,82,17,128,39,88,18,016,00,1*72
$GPRMC,112629.00,A,5522.4372228,N,01024.0369467,E,0.31,173.71,110515,0.0,E,D*3B
$GPGGA,112629.00,5522.4372228,N,01024.0369467,E,5,04,1.0,-16.712,M,39.165,M,1.0,*5F
$GLGSA,A,3,70,71,73,79,80,81,82,88,,,,,2.1,1.0,1.9,2*3A
$GLGSV,2,1,08,70,39,231,41,71,42,304,00,73,27,269,00,79,34,070,34,1*79
$GLGSV,2,2,08,80,75,314,41,81,35,059,38,82,17,128,39,88,18,016,00,1*72
$GPRMC,112630.00,A,5522.4373521,N,01024.0366966,E,0.34,173.71,110515,0.0,E,D*3A
$GPGGA,112630.00,5522.4373521,N,01024.0366966,E,5,04,1.0,-16.558,M,39.165,M,1.0,*57
$GLGSA,A,3,70,71,73,79,80,81,82,88,,,,,2.1,1.0,1.9,2*3A
$GLGSV,2,1,08,70,39,231,40,71,42,304,00,73,27,269,00,79,34,070,33,1*7F
$GLGSV,2,2,08,80,75,314,41,81,35,059,37,82,17,128,39,88,18,016,00,1*7D
$GPRMC,112631.00,A,5522.4363274,N,01024.0377499,E,0.09,173.71,110515,0.0,E,D*3E
$GPGGA,112631.00,5522.4363274,N,01024.0377499,E,5,04,1.0,-13.924,M,39.165,M,1.0,*5F
$GLGSA,A,3,70,71,73,79,80,81,82,88,,,,,2.1,1.0,1.9,2*3A
$GLGSV,2,1,08,70,39,231,41,71,42,304,00,73,27,269,00,79,34,070,33,1*7E
$GLGSV,2,2,08,80,75,315,41,81,35,059,37,82,17,128,39,88,18,016,00,1*7C
$GPRMC,112632.00,A,5522.4356453,N,01024.0384159,E,0.19,173.71,110515,0.0,E,D*3C
$GPGGA,112632.00,5522.4356453,N,01024.0384159,E,5,04,1.0,-12.434,M,39.165,M,1.0,*51
$GLGSA,A,3,70,71,73,79,80,81,82,88,,,,,2.1,1.0,1.9,2*3A
$GLGSV,2,1,08,70,39,231,41,71,42,304,00,73,27,269,00,79,34,071,32,1*7E
$GLGSV,2,2,08,80,75,315,41,81,35,059,38,82,17,128,39,88,18,016,00,1*73
$GPRMC,112633.00,A,5522.4351237,N,01024.0387561,E,0.11,173.71,110515,0.0,E,D*3A
$GPGGA,112633.00,5522.4351237,N,01024.0387561,E,5,04,1.0,-10.901,M,39.165,M,1.0,*56
$GLGSA,A,3,70,71,73,79,80,81,82,88,,,,,2.1,1.0,1.9,2*3A
$GLGSV,2,1,08,70,39,231,42,71,42,304,00,73,27,269,00,79,34,071,33,1*7C
$GLGSV,2,2,08,80,75,315,41,81,35,059,38,82,17,128,39,88,18,016,00,1*73
$GPRMC,112634.00,A,5522.4344250,N,01024.0393772,E,0.13,173.71,110515,0.0,E,D*3F
$GPGGA,112634.00,5522.4344250,N,01024.0393772,E,5,04,1.0,-9.121,M,39.165,M,1.0,*63
$GLGSA,A,3,70,71,73,79,80,81,82,88,,,,,2.1,1.0,1.9,2*3A
$GLGSV,2,1,08,70,39,231,41,71,42,304,00,73,27,269,00,79,34,071,33,1*7F
$GLGSV,2,2,08,80,75,315,41,81,35,059,38,82,17,128,39,88,18,016,00,1*73
$GPRMC,112635.00,A,5522.4343734,N,01024.0393803,E,0.15,173.71,110515,0.0,E,D*31
$GPGGA,112635.00,5522.4343734,N,01024.0393803,E,5,04,1.0,-9.089,M,39.165,M,1.0,*68
$GLGSA,A,3,70,71,73,79,80,81,82,88,,,,,2.1,1.0,1.9,2*3A
$GLGSV,2,1,08,70,39,231,41,71,42,304,00,73,27,269,00,79,34,071,33,1*7F
$GLGSV,2,2,08,80,75,315,41,81,35,059,38,82,17,128,39,88,18,016,00,1*73
$GPRMC,112636.00,A,5522.4345089,N,01024.0392939,E,0.05,173.71,110515,0.0,E,D*3D
$GPGGA,112636.00,5522.4345089,N,01024.0392939,E,5,04,1.0,-9.409,M,39.165,M,1.0,*69
$GLGSA,A,3,70,71,73,79,80,81,82,88,,,,,2.1,1.0,1.9,2*3A
$GLGSV,2,1,08,70,39,231,42,71,42,304,00,73,27,269,00,79,34,071,32,1*7D
$GLGSV,2,2,08,80,75,315,41,81,35,059,38,82,17,128,40,88,18,016,00,1*7D
$GPRMC,112637.00,A,5522.4345195,N,01024.0392410,E,0.20,173.71,110515,0.0,E,D*31
$GPGGA,112637.00,5522.4345195,N,01024.0392410,E,5,04,1.0,-9.103,M,39.165,M,1.0,*6D
$GLGSA,A,3,70,71,73,79,80,81,82,88,,,,,2.1,1.0,1.9,2*3A
$GLGSV,2,1,08,70,38,231,41,71,42,304,00,73,27,269,00,79,34,071,32,1*7F
$GLGSV,2,2,08,80,75,315,41,81,35,059,38,82,17,128,40,88,18,016,00,1*7D
$GPRMC,112638.00,A,5522.4344871,N,01024.0391875,E,0.36,173.71,110515,0.0,E,D*37
$GPGGA,112638.00,5522.4344871,N,01024.0391875,E,5,04,1.0,-8.857,M,39.165,M,1.0,*65
$GLGSA,A,3,70,71,73,79,80,81,82,88,,,,,2.1,1.0,1.9,2*3A
$GLGSV,2,1,08,70,38,231,42,71,42,304,00,73,27,269,00,79,34,071,31,1*7F
$GLGSV,2,2,08,80,75,315,41,81,35,059,38,82,17,128,40,88,18,016,00,1*7D
$GPRMC,112639.00,A,5522.4344503,N,01024.0391418,E,0.14,173.71,110515,0.0,E,D*39
$GPGGA,112639.00,5522.4344503,N,01024.0391418,E,5,04,1.0,-8.625,M,39.165,M,2.0,*63
$GLGSA,A,3,70,71,73,79,80,81,82,88,,,,,2.1,1.0,1.9,2*3A
$GLGSV,2,1,08,70,38,231,41,71,42,304,00,73,27,269,00,79,34,071,30,1*7D
$GLGSV,2,2,08,80,75,315,41,81,35,059,38,82,17,128,40,88,18,016,00,1*7D
$GPRMC,112640.00,A,5522.4340747,N,01024.0394280,E,0.24,173.71,110515,0.0,E,D*30
$GPGGA,112640.00,5522.4340747,N,01024.0394280,E,5,04,1.0,-7.532,M,39.165,M,1.0,*60
$GLGSA,A,3,70,71,73,79,80,81,82,88,,,,,2.1,1.0,1.9,2*3A
$GLGSV,2,1,08,70,38,231,41,71,42,304,00,73,27,269,00,79,34,071,30,1*7D
$GLGSV,2,2,08,80,75,315,41,81,35,059,38,82,17,128,40,88,18,016,00,1*7D
$GPRMC,112641.00,A,5522.4337955,N,01024.0396064,E,0.32,173.71,110515,0.0,E,D*31
$GPGGA,112641.00,5522.4337955,N,01024.0396064,E,5,04,1.0,-6.717,M,39.165,M,1.0,*62
$GLGSA,A,3,70,71,73,79,80,81,82,88,,,,,2.1,1.0,1.9,2*3A
$GLGSV,2,1,08,70,38,231,41,71,42,304,00,73,27,269,00,79,34,071,30,1*7D
$GLGSV,2,2,08,80,75,315,41,81,35,059,38,82,17,128,39,88,18,016,00,1*73
$GPRMC,112642.00,A,5522.4336119,N,01024.0398232,E,0.16,173.71,110515,0.0,E,D*3A
$GPGGA,112642.00,5522.4336119,N,01024.0398232,E,5,04,1.0,-6.297,M,39.165,M,1.0,*62
$GLGSA,A,3,70,71,73,79,80,81,82,88,,,,,2.1,1.0,1.9,2*3A
$GLGSV,2,1,08,70,38,231,41,71,42,304,00,73,27,269,00,79,34,071,31,1*7C
$GLGSV,2,2,08,80,75,315,41,81,35,059,37,82,17,128,39,88,18,016,00,1*7C
$GPRMC,112643.00,A,5522.4333618,N,01024.0400509,E,0.06,173.71,110515,0.0,E,D*30
$GPGGA,112643.00,5522.4333618,N,01024.0400509,E,5,04,1.0,-5.696,M,39.165,M,1.0,*6F
$GLGSA,A,3,70,71,73,79,80,81,82,88,,,,,2.1,1.0,1.9,2*3A
$GLGSV,2,1,08,70,38,231,41,71,42,304,00,73,27,269,00,79,34,071,30,1*7D
$GLGSV,2,2,08,80,75,315,40,81,35,059,37,82,17,128,39,88,18,016,00,1*7D
$GPRMC,112644.00,A,5522.4330735,N,01024.0402916,E,0.12,173.71,110515,0.0,E,D*3F
$GPGGA,112644.00,5522.4330735,N,01024.0402916,E,5,04,1.0,-4.908,M,39.165,M,1.0,*6C
$GLGSA,A,3,70,71,73,79,80,81,82,88,,,,,2.1,1.0,1.9,2*3A
$GLGSV,2,1,08,70,38,231,41,71,42,304,00,73,27,269,00,79,34,071,30,1*7D
$GLGSV,2,2,08,80,75,315,40,81,35,059,37,82,17,128,39,88,18,016,00,1*7D
$GPRMC,112645.00,A,5522.4328153,N,01024.0405029,E,0.31,173.71,110515,0.0,E,D*32
$GPGGA,112645.00,5522.4328153,N,01024.0405029,E,5,04,1.0,-4.191,M,39.165,M,2.0,*6B
$GLGSA,A,3,70,71,73,79,80,81,82,88,,,,,2.1,1.0,1.9,2*3A
$GLGSV,2,1,08,70,38,231,41,71,42,304,00,73,27,269,00,79,34,071,31,1*7C
$GLGSV,2,2,08,80,75,315,40,81,35,059,37,82,17,128,38,88,18,016,00,1*7C
$GPRMC,112646.00,A,5522.4325172,N,01024.0407799,E,0.10,173.71,110515,0.0,E,D*32
$GPGGA,112646.00,5522.4325172,N,01024.0407799,E,5,04,1.0,-3.371,M,39.165,M,1.0,*60
$GLGSA,A,3,70,71,73,79,80,81,82,88,,,,,2.1,1.0,1.9,2*3A
$GLGSV,2,1,08,70,38,231,42,71,42,304,00,73,27,269,00,79,34,071,30,1*7E
$GLGSV,2,2,08,80,75,315,40,81,35,059,36,82,17,128,38,88,18,016,00,1*7D
$GPRMC,112647.00,A,5522.4323312,N,01024.0409625,E,0.24,173.71,110515,0.0,E,D*3E
$GPGGA,112647.00,5522.4323312,N,01024.0409625,E,5,04,1.0,-2.878,M,39.165,M,1.0,*68
$GLGSA,A,3,70,71,73,79,80,81,82,88,,,,,2.1,1.0,1.9,2*3A
$GLGSV,2,1,08,70,38,231,42,71,42,304,00,73,27,269,00,79,34,071,29,1*76
$GLGSV,2,2,08,80,75,315,41,81,35,059,36,82,17,128,39,88,18,016,00,1*7D
$GPRMC,112648.00,A,5522.4321828,N,01024.0411401,E,0.20,173.71,110515,0.0,E,D*38
$GPGGA,112648.00,5522.4321828,N,01024.0411401,E,5,04,1.0,-2.486,M,39.165,M,1.0,*67
$GLGSA,A,3,70,71,73,79,80,81,82,88,,,,,2.1,1.0,1.9,2*3A
$GLGSV,2,1,08,70,38,231,42,71,42,304,00,73,27,269,00,79,34,071,29,1*76
$GLGSV,2,2,08,80,75,315,40,81,35,059,36,82,17,128,38,88,18,016,00,1*7D
$GPRMC,112649.00,A,5522.4321139,N,01024.0412782,E,0.15,173.71,110515,0.0,E,D*3D
$GPGGA,112649.00,5522.4321139,N,01024.0412782,E,5,04,1.0,-2.362,M,39.165,M,1.0,*69
$GLGSA,A,3,70,71,73,79,80,81,82,88,,,,,2.1,1.0,1.9,2*3A
$GLGSV,2,1,08,70,38,231,42,71,42,304,00,73,27,269,00,79,34,071,30,1*7E
$GLGSV,2,2,08,80,75,315,40,81,35,059,36,82,17,128,39,88,18,016,00,1*7C
$GPRMC,112650.00,A,5522.4320447,N,01024.0413832,E,0.14,173.71,110515,0.0,E,D*3C
$GPGGA,112650.00,5522.4320447,N,01024.0413832,E,5,04,1.0,-1.950,M,39.165,M,1.0,*61
$GLGSA,A,3,70,71,73,79,80,81,82,88,,,,,2.1,1.0,1.9,2*3A
$GLGSV,2,1,08,70,38,231,42,71,42,304,00,73,27,269,00,79,34,071,31,1*7F
$GLGSV,2,2,08,80,75,315,41,81,35,059,36,82,17,128,38,88,18,016,00,1*7C
$GPRMC,112651.00,A,5522.4319051,N,01024.0415267,E,0.31,173.71,110515,0.0,E,D*3F
$GPGGA,112651.00,5522.4319051,N,01024.0415267,E,5,04,1.0,-1.505,M,39.165,M,1.0,*69
$GLGSA,A,3,70,71,73,79,80,81,82,88,,,,,2.1,1.0,1.9,2*3A
$GLGSV,2,1,08,70,38,231,42,71,42,304,00,73,27,269,00,79,34,071,31,1*7F
$GLGSV,2,2,08,80,75,315,41,81,35,059,36,82,17,128,38,88,18,016,00,1*7C
$GPRMC,112652.00,A,5522.4319666,N,01024.0415315,E,0.60,173.71,110515,0.0,E,D*3E
$GPGGA,112652.00,5522.4319666,N,01024.0415315,E,5,04,1.0,-1.699,M,39.165,M,1.0,*6A
$GLGSA,A,3,70,71,73,79,80,81,82,88,,,,,2.1,1.0,1.9,2*3A
$GLGSV,2,1,08,70,38,231,42,71,42,304,00,73,27,269,00,79,34,071,31,1*7F
$GLGSV,2,2,08,80,75,315,41,81,35,059,36,82,17,128,38,88,18,016,00,1*7C
$GPRMC,112653.00,A,5522.4339656,N,01024.0386510,E,0.08,173.71,110515,0.0,E,D*3E
$GPGGA,112653.00,5522.4339656,N,01024.0386510,E,5,04,1.0,-15.750,M,39.165,M,1.0,*55
$GLGSA,A,3,70,71,73,79,80,81,82,88,,,,,2.1,1.0,1.9,2*3A
$GLGSV,2,1,08,70,38,231,42,71,42,304,00,73,27,269,00,79,34,071,31,1*7F
$GLGSV,2,2,08,80,75,315,40,81,35,059,36,82,17,128,38,88,18,016,00,1*7D
$GPRMC,112654.00,A,5522.4347140,N,01024.0377342,E,0.34,173.71,110515,0.0,E,D*30
$GPGGA,112654.00,5522.4347140,N,01024.0377342,E,5,04,1.0,-18.089,M,39.165,M,1.0,*5A
$GLGSA,A,3,70,71,73,79,80,81,82,88,,,,,2.1,1.0,1.9,2*3A
$GLGSV,2,1,08,70,38,231,41,71,42,304,00,73,27,269,00,79,34,071,29,1*75
$GLGSV,2,2,08,80,75,315,40,81,35,059,36,82,17,128,38,88,18,016,00,1*7D
$GPRMC,112655.00,A,5522.4341364,N,01024.0386276,E,0.11,173.71,110515,0.0,E,D*3C
$GPGGA,112655.00,5522.4341364,N,01024.0386276,E,5,04,1.0,-14.159,M,39.165,M,1.0,*51
$GLGSA,A,3,70,71,73,79,80,81,82,88,,,,,2.1,1.0,1.9,2*3A
$GLGSV,2,1,08,70,38,231,41,71,42,304,00,73,27,269,00,79,34,071,28,1*74
$GLGSV,2,2,08,80,75,315,40,81,35,059,36,82,17,128,38,88,18,016,00,1*7D
$GPRMC,112656.00,A,5522.4347636,N,01024.0379217,E,0.15,173.71,110515,0.0,E,D*38
$GPGGA,112656.00,5522.4347636,N,01024.0379217,E,5,04,1.0,-14.133,M,39.165,M,1.0,*5D
$GLGSA,A,3,70,71,73,79,80,81,82,88,,,,,2.1,1.0,1.9,2*3A
$GLGSV,2,1,08,70,38,231,41,71,42,304,00,73,27,269,00,79,34,071,28,1*74
$GLGSV,2,2,08,80,75,315,40,81,35,059,35,82,17,128,38,88,18,016,00,1*7E
$GPRMC,112657.00,A,5522.4331961,N,01024.0403916,E,0.33,173.71,110515,0.0,E,D*31
$GPGGA,112657.00,5522.4331961,N,01024.0403916,E,5,04,1.0,-0.792,M,39.165,M,1.0,*68
$GLGSA,A,3,70,71,73,79,80,81,82,88,,,,,2.1,1.0,1.9,2*3A
$GLGSV,2,1,08,70,38,231,41,71,42,304,00,73,27,269,00,79,34,071,26,1*7A
$GLGSV,2,2,08,80,75,315,40,81,35,059,35,82,17,128,38,88,18,016,00,1*7E
$GPRMC,112658.00,A,5522.4337982,N,01024.0396416,E,0.29,173.71,110515,0.0,E,D*38
$GPGGA,112658.00,5522.4337982,N,01024.0396416,E,5,04,1.0,-2.999,M,39.165,M,1.0,*6D
$GLGSA,A,3,70,71,73,79,80,81,82,88,,,,,2.1,1.0,1.9,2*3A
$GLGSV,2,1,08,70,38,231,42,71,42,304,00,73,27,269,00,79,34,071,27,1*78
$GLGSV,2,2,08,80,75,315,40,81,35,059,35,82,17,128,38,88,18,016,00,1*7E
$GPRMC,112659.00,A,5522.4333357,N,01024.0403916,E,0.22,173.71,110515,0.0,E,D*32
$GPGGA,112659.00,5522.4333357,N,01024.0403916,E,5,04,1.0,0.412,M,39.165,M,1.0,*4D
$GLGSA,A,3,70,71,73,79,80,81,82,88,,,,,2.1,1.0,1.9,2*3A
$GLGSV,2,1,08,70,38,231,41,71,42,304,00,73,27,269,00,79,34,071,28,1*74
$GLGSV,2,2,08,80,75,315,40,81,35,059,35,82,17,128,38,88,18,016,00,1*7E
$GPRMC,112700.00,A,5522.4333840,N,01024.0403754,E,0.34,173.71,110515,0.0,E,D*3D
$GPGGA,112700.00,5522.4333840,N,01024.0403754,E,5,04,1.0,-0.134,M,39.165,M,1.0,*69
$GLGSA,A,3,70,71,73,79,80,81,82,88,,,,,2.1,1.0,1.9,2*3A
$GLGSV,2,1,08,70,38,231,41,71,42,304,00,73,27,269,00,79,34,071,27,1*7B
$GLGSV,2,2,08,80,75,315,40,81,35,059,35,82,17,128,38,88,18,016,00,1*7E
