%  GPST                  latitude(deg) longitude(deg)  height(m)   Q  ns   sdn(m)   sde(m)   sdu(m)  sdne(m)  sdeu(m)  sdun(m) age(s)  ratio
2015/05/12 11:10:48.000   55.373739173   10.401062951    58.3230   2   8   0.8109   0.5393   1.9610   0.2918   0.3847   0.8241   1.00    1.0
2015/05/12 11:10:49.000   55.373739185   10.401063263    58.1953   2   8   0.5796   0.3842   1.4024   0.2100   0.2817   0.5921   1.00    1.2
2015/05/12 11:10:50.000   55.373738881   10.401062220    58.5710   2   8   0.4749   0.3145   1.1490   0.1724   0.2326   0.4857   1.00    1.1
2015/05/12 11:10:51.000   55.373738710   10.401060978    58.8197   2   8   0.4119   0.2727   0.9963   0.1497   0.2024   0.4212   1.00    1.4
2015/05/12 11:10:52.000   55.373737898   10.401059627    59.0702   2   8   0.3686   0.2441   0.8914   0.1340   0.1814   0.3768   1.00    1.4
2015/05/12 11:10:53.000   55.373737425   10.401058943    59.3202   2   8   0.3365   0.2229   0.8134   0.1223   0.1658   0.3437   1.00    1.3
2015/05/12 11:10:54.000   55.373737497   10.401057331    59.9279   2  12   0.3078   0.2016   0.7260   0.1074   0.1469   0.3039   1.00    1.6
2015/05/12 11:10:55.000   55.373736888   10.401055822    59.9807   2  12   0.2857   0.1856   0.6625   0.0970   0.1339   0.2755   1.00    1.2
2015/05/12 11:10:56.000   55.373736792   10.401054708    59.9806   2  12   0.2678   0.1730   0.6130   0.0889   0.1237   0.2535   1.00    1.1
2015/05/12 11:10:57.000   55.373736495   10.401052965    59.9105   2  12   0.2528   0.1626   0.5728   0.0824   0.1155   0.2357   1.00    1.0
2015/05/12 11:10:58.000   55.373736008   10.401049995    59.9328   2  12   0.2401   0.1539   0.5394   0.0771   0.1087   0.2210   1.00    1.0
2015/05/12 11:10:59.000   55.373735733   10.401046518    60.0858   2  12   0.2291   0.1464   0.5110   0.0726   0.1029   0.2085   1.00    1.1
2015/05/12 11:11:00.000   55.373735427   10.401044020    60.1572   2  12   0.2194   0.1400   0.4864   0.0688   0.0979   0.1976   1.00    1.1
2015/05/12 11:11:01.000   55.373735182   10.401042177    60.2330   2  12   0.2109   0.1343   0.4649   0.0654   0.0935   0.1881   1.00    1.1
2015/05/12 11:11:02.000   55.373734952   10.401039972    60.3806   2  12   0.2032   0.1293   0.4457   0.0625   0.0896   0.1797   1.00    1.2
2015/05/12 11:11:03.000   55.373734393   10.401037822    60.5476   2  12   0.1963   0.1247   0.4286   0.0598   0.0861   0.1721   1.00    1.2
2015/05/12 11:11:04.000   55.373733969   10.401035273    60.9504   2  12   0.1899   0.1207   0.4131   0.0575   0.0829   0.1653   1.00    1.0
2015/05/12 11:11:05.000   55.373733143   10.401032904    61.2418   2  12   0.1842   0.1170   0.3990   0.0553   0.0800   0.1590   1.00    1.2
2015/05/12 11:11:06.000   55.373732478   10.401030862    61.5529   2  12   0.1789   0.1136   0.3861   0.0534   0.0773   0.1532   1.00    1.3
2015/05/12 11:11:07.000   55.373731865   10.401028913    61.8333   2  12   0.1739   0.1105   0.3742   0.0516   0.0749   0.1479   1.00    1.4
2015/05/12 11:11:08.000   55.373731373   10.401027112    62.1407   2  12   0.1694   0.1076   0.3631   0.0500   0.0726   0.1429   1.00    1.4
2015/05/12 11:11:09.000   55.373730906   10.401025714    62.4038   2  12   0.1651   0.1050   0.3529   0.0484   0.0705   0.1383   1.00    1.4
2015/05/12 11:11:10.000   55.373730331   10.401024470    62.5305   2  12   0.1611   0.1025   0.3433   0.0470   0.0685   0.1339   1.00    1.4
2015/05/12 11:11:11.000   55.373730130   10.401023462    62.7832   2  12   0.1574   0.1002   0.3343   0.0457   0.0667   0.1298   1.00    1.3
2015/05/12 11:11:12.000   55.373729591   10.401022196    63.0063   2  12   0.1539   0.0980   0.3258   0.0444   0.0649   0.1259   1.00    1.2
2015/05/12 11:11:13.000   55.373729033   10.401021164    63.1427   2  12   0.1506   0.0960   0.3178   0.0433   0.0633   0.1222   1.00    1.1
2015/05/12 11:11:14.000   55.373728442   10.401019956    63.2423   2  12   0.1474   0.0941   0.3103   0.0421   0.0617   0.1186   1.00    1.0
2015/05/12 11:11:15.000   55.373727590   10.401018896    63.3034   2  12   0.1444   0.0923   0.3031   0.0411   0.0602   0.1153   1.00    1.1
2015/05/12 11:11:16.000   55.373726857   10.401017835    63.3428   2  12   0.1416   0.0906   0.2963   0.0401   0.0588   0.1121   1.00    1.2
2015/05/12 11:11:17.000   55.373726159   10.401016921    63.3626   2  12   0.1390   0.0890   0.2900   0.0392   0.0575   0.1091   2.00    1.2
2015/05/12 11:11:18.000   55.373725440   10.401015797    63.3548   2  12   0.1364   0.0874   0.2838   0.0383   0.0562   0.1061   1.00    1.2
2015/05/12 11:11:19.000   55.373724677   10.401014737    63.3447   2  12   0.1339   0.0860   0.2781   0.0374   0.0549   0.1034   1.00    1.1
2015/05/12 11:11:20.000   55.373724044   10.401013281    63.4650   2  12   0.1316   0.0846   0.2724   0.0365   0.0538   0.1007   1.00    1.0
2015/05/12 11:11:21.000   55.373723354   10.401012260    63.4469   2  12   0.1294   0.0833   0.2669   0.0358   0.0527   0.0980   1.00    1.0
2015/05/12 11:11:22.000   55.373722832   10.401011358    63.4495   2  12   0.1272   0.0820   0.2617   0.0350   0.0516   0.0954   1.00    1.0
2015/05/12 11:11:23.000   55.373722365   10.401010602    63.4430   2  12   0.1252   0.0808   0.2567   0.0343   0.0505   0.0930   1.00    1.1
2015/05/12 11:11:24.000   55.373721930   10.401010229    63.4297   2  12   0.1232   0.0797   0.2518   0.0336   0.0495   0.0906   1.00    1.2
2015/05/12 11:11:25.000   55.373721609   10.401009815    63.4329   2  12   0.1213   0.0786   0.2472   0.0329   0.0486   0.0882   1.00    1.2
2015/05/12 11:11:26.000   55.373721254   10.401009358    63.4014   2  12   0.1194   0.0775   0.2427   0.0323   0.0476   0.0860   1.00    1.2
2015/05/12 11:11:27.000   55.373721039   10.401008916    63.3678   2  12   0.1176   0.0765   0.2384   0.0317   0.0467   0.0838   1.00    1.2
2015/05/12 11:11:28.000   55.373720806   10.401008635    63.3002   2  12   0.1159   0.0755   0.2343   0.0310   0.0457   0.0817   1.00    1.2
2015/05/12 11:11:29.000   55.373720588   10.401008344    63.2671   2  12   0.1143   0.0745   0.2302   0.0304   0.0450   0.0796   1.00    1.2
2015/05/12 11:11:30.000   55.373720387   10.401008003    63.2420   2  12   0.1127   0.0736   0.2264   0.0299   0.0441   0.0776   1.00    1.2
2015/05/12 11:11:31.000   55.373720170   10.401007624    63.1664   2  12   0.1111   0.0727   0.2225   0.0293   0.0433   0.0755   1.00    1.3
2015/05/12 11:11:32.000   55.373719825   10.401007002    63.0888   2  12   0.1097   0.0719   0.2189   0.0288   0.0425   0.0736   1.00    1.1
2015/05/12 11:11:33.000   55.373719596   10.401006660    63.0240   2  12   0.1082   0.0710   0.2153   0.0283   0.0418   0.0717   1.00    1.0
2015/05/12 11:11:34.000   55.373719323   10.401006351    62.9269   2  12   0.1068   0.0702   0.2118   0.0278   0.0411   0.0698   1.00    1.0
2015/05/12 11:11:35.000   55.373719235   10.401006092    62.8578   2  12   0.1054   0.0695   0.2084   0.0273   0.0404   0.0680   1.00    1.0
2015/05/12 11:11:40.000   55.373719263   10.401006141    62.7747   2  12   0.1040   0.0687   0.2048   0.0267   0.0396   0.0657   1.00    1.1
2015/05/12 11:11:41.000   55.373719365   10.401006030    62.7489   2  12   0.1026   0.0680   0.2010   0.0261   0.0388   0.0634   1.00    1.1
2015/05/12 11:11:42.000   55.373719379   10.401005675    62.7138   2  12   0.1012   0.0673   0.1974   0.0256   0.0381   0.0612   1.00    1.1
2015/05/12 11:11:43.000   55.373719286   10.401005572    62.6527   2  12   0.0999   0.0666   0.1940   0.0251   0.0374   0.0590   1.00    1.1
2015/05/12 11:12:02.000   55.373730349   10.400999754    65.5742   2  12   0.0980   0.0659   0.1882   0.0240   0.0361   0.0540   1.00    1.3
2015/05/12 11:12:03.000   55.373744033   10.400997898    69.5372   2  12   0.0962   0.0652   0.1825   0.0231   0.0349   0.0491   1.00    1.0
2015/05/12 11:12:04.000   55.373756015   10.400996092    72.9389   2  12   0.0946   0.0645   0.1776   0.0223   0.0337   0.0446   1.00    1.5
2015/05/12 11:12:05.000   55.373766391   10.400993963    75.8443   2  12   0.0931   0.0639   0.1728   0.0216   0.0327   0.0402   1.00    1.1
2015/05/12 11:12:06.000   55.373775410   10.400991479    78.3616   2  12   0.0917   0.0632   0.1685   0.0209   0.0318   0.0360   1.00    1.3
2015/05/12 11:12:07.000   55.373783336   10.400988978    80.5117   2  12   0.0904   0.0626   0.1645   0.0203   0.0309   0.0318   1.00    1.1
2015/05/12 11:12:08.000   55.373790326   10.400986471    82.3942   2  12   0.0892   0.0620   0.1609   0.0197   0.0301   0.0277   1.00    2.5
2015/05/12 11:12:09.000   55.373796486   10.400983770    84.0510   2  12   0.0880   0.0614   0.1574   0.0191   0.0294   0.0235   1.00    1.3
2015/05/12 11:12:10.000   55.373802111   10.400981419    85.4833   2  12   0.0869   0.0609   0.1545   0.0185   0.0286   0.0193   1.00    1.0
2015/05/12 11:12:11.000   55.373807148   10.400979149    86.7410   2  12   0.0858   0.0603   0.1513   0.0180   0.0280   0.0140   1.00    1.2
2015/05/12 11:12:12.000   55.373811626   10.400976889    87.8452   2  12   0.0848   0.0598   0.1485   0.0176   0.0274   0.0065   1.00    1.0
2015/05/12 11:12:13.000   55.373815668   10.400974724    88.8575   2  12   0.0838   0.0593   0.1458   0.0171   0.0269  -0.0097   1.00    1.3
2015/05/12 11:12:14.000   55.373819227   10.400972597    89.7362   2  12   0.0829   0.0588   0.1432   0.0167   0.0264  -0.0147   1.00    2.7
2015/05/12 11:12:15.000   55.373822293   10.400970630    90.5191   2  12   0.0820   0.0583   0.1408   0.0163   0.0259  -0.0181   1.00    1.4
2015/05/12 11:12:16.000   55.373825088   10.400968714    91.1958   2  12   0.0811   0.0578   0.1386   0.0158   0.0254  -0.0206   1.00    1.2
2015/05/12 11:12:17.000   55.373827743   10.400966989    91.8147   2  12   0.0803   0.0574   0.1364   0.0155   0.0250  -0.0227   1.00    1.0
2015/05/12 11:12:18.000   55.373830485   10.400965766    92.3364   2  12   0.0795   0.0569   0.1343   0.0150   0.0246  -0.0244   1.00    1.1
2015/05/12 11:12:19.000   55.373832883   10.400964545    92.7818   2  12   0.0787   0.0564   0.1323   0.0147   0.0242  -0.0259   1.00    1.3
2015/05/12 11:12:20.000   55.373834984   10.400963230    93.1680   2  12   0.0780   0.0560   0.1304   0.0143   0.0238  -0.0272   1.00    1.7
2015/05/12 11:12:21.000   55.373836686   10.400961654    93.4953   2  12   0.0772   0.0556   0.1286   0.0140   0.0235  -0.0283   1.00    1.2
2015/05/12 11:12:22.000   55.373838250   10.400960150    93.8011   2  12   0.0765   0.0552   0.1268   0.0137   0.0231  -0.0292   1.00    1.0
2015/05/12 11:12:23.000   55.373839768   10.400958826    94.0579   2  12   0.0758   0.0547   0.1251   0.0133   0.0228  -0.0301   1.00    1.0
2015/05/12 11:12:24.000   55.373840701   10.400956547    94.1335   2  11   0.0752   0.0544   0.1235   0.0130   0.0224  -0.0309   1.00    2.4
2015/05/12 11:12:25.000   55.373841103   10.400957205    93.6592   2  12   0.0745   0.0540   0.1220   0.0127   0.0220  -0.0315   1.00    1.1
2015/05/12 11:12:26.000   55.373841483   10.400957756    93.2121   2  12   0.0739   0.0536   0.1206   0.0124   0.0217  -0.0321   1.00    1.1
2015/05/12 11:12:27.000   55.373841826   10.400958417    92.7540   2  12   0.0733   0.0532   0.1192   0.0120   0.0213  -0.0326   1.00    1.2
2015/05/12 11:12:28.000   55.373842004   10.400958845    92.3179   2  12   0.0727   0.0529   0.1179   0.0117   0.0209  -0.0330   1.00    1.7
2015/05/12 11:12:29.000   55.373842172   10.400959301    91.8735   2  12   0.0721   0.0525   0.1166   0.0114   0.0206  -0.0335   1.00    1.1
2015/05/12 11:12:30.000   55.373842266   10.400959796    91.4615   2  12   0.0715   0.0522   0.1153   0.0111   0.0202  -0.0338   1.00    1.1
2015/05/12 11:12:31.000   55.373842383   10.400960165    91.0504   2  12   0.0710   0.0518   0.1141   0.0108   0.0199  -0.0342   1.00    1.0
2015/05/12 11:12:32.000   55.373842460   10.400960678    90.6381   2  12   0.0704   0.0515   0.1129   0.0105   0.0195  -0.0345   1.00    1.2
2015/05/12 11:12:33.000   55.373842503   10.400961163    90.2338   2  12   0.0699   0.0512   0.1117   0.0102   0.0193  -0.0348   1.00    1.3
2015/05/12 11:12:34.000   55.373842565   10.400961639    89.8451   2  12   0.0694   0.0509   0.1106   0.0100   0.0190  -0.0350   1.00    1.0
2015/05/12 11:12:35.000   55.373842605   10.400961985    89.4522   2  12   0.0689   0.0506   0.1095   0.0097   0.0187  -0.0353   1.00    1.0
2015/05/12 11:12:36.000   55.373842591   10.400962195    89.0774   2  12   0.0684   0.0502   0.1084   0.0095   0.0184  -0.0355   1.00    1.1
2015/05/12 11:12:37.000   55.373842619   10.400962442    88.6869   2  12   0.0679   0.0499   0.1074   0.0092   0.0182  -0.0357   1.00    1.3
2015/05/12 11:12:38.000   55.373842349   10.400962977    88.1263   2  12   0.0674   0.0496   0.1068   0.0088   0.0176  -0.0357   1.00    1.3
2015/05/12 11:12:39.000   55.373842342   10.400963294    87.7362   2  12   0.0669   0.0494   0.1056   0.0085   0.0175  -0.0359   1.00    1.3
2015/05/12 11:12:40.000   55.373842308   10.400963608    87.3440   2  12   0.0665   0.0491   0.1048   0.0083   0.0171  -0.0360   1.00    1.3
2015/05/12 11:12:41.000   55.373842250   10.400963968    86.9640   2  12   0.0660   0.0488   0.1037   0.0080   0.0170  -0.0362   1.00    1.0
2015/05/12 11:12:42.000   55.373842269   10.400964267    86.6064   2  12   0.0656   0.0485   0.1027   0.0078   0.0168  -0.0363   1.00    1.3
2015/05/12 11:12:43.000   55.373842271   10.400964565    86.2762   2  12   0.0652   0.0483   0.1019   0.0075   0.0165  -0.0364   2.00    1.1
2015/05/12 11:12:44.000   55.373842148   10.400965067    85.9357   2  12   0.0647   0.0480   0.1009   0.0073   0.0164  -0.0365   1.00    1.0
2015/05/12 11:12:45.000   55.373842072   10.400965514    85.6171   2  12   0.0643   0.0477   0.1000   0.0071   0.0162  -0.0366   1.00    1.1
2015/05/12 11:12:46.000   55.373841948   10.400966001    85.2825   2  12   0.0639   0.0475   0.0995   0.0066   0.0157  -0.0366   1.00    1.2
2015/05/12 11:12:47.000   55.373841783   10.400966469    84.9664   2  12   0.0635   0.0472   0.0984   0.0065   0.0157  -0.0367   1.00    1.0
2015/05/12 11:12:48.000   55.373841585   10.400966944    84.6586   2  12   0.0631   0.0469   0.0975   0.0062   0.0155  -0.0368   1.00    1.3
2015/05/12 11:13:02.000   55.373841285   10.400967590    84.1956   2  12   0.0626   0.0467   0.0965   0.0053   0.0154  -0.0371   1.00    1.3
2015/05/12 11:13:03.000   55.373841073   10.400968019    83.6884   2  12   0.0622   0.0464   0.0954   0.0050   0.0151  -0.0373   1.00    1.3
2015/05/12 11:13:04.000   55.373840925   10.400968424    83.2403   2  12   0.0617   0.0462   0.0944   0.0044   0.0149  -0.0375   1.00    1.0
2015/05/12 11:13:05.000   55.373840765   10.400968861    82.8050   2  12   0.0613   0.0459   0.0934   0.0038   0.0147  -0.0377   1.00    1.4
2015/05/12 11:13:06.000   55.373840572   10.400969156    82.3711   2  12   0.0609   0.0457   0.0925   0.0032   0.0145  -0.0378   1.00    1.3
2015/05/12 11:13:07.000   55.373840339   10.400969428    81.9403   2  12   0.0605   0.0454   0.0916   0.0028   0.0143  -0.0380   1.00    1.2
2015/05/12 11:13:08.000   55.373840192   10.400969743    81.5422   2  12   0.0601   0.0452   0.0907   0.0015   0.0140  -0.0381   1.00    1.1
2015/05/12 11:13:09.000   55.373840030   10.400969885    81.1477   2  12   0.0597   0.0450   0.0898  -0.0009   0.0139  -0.0382   1.00    1.0
2015/05/12 11:13:10.000   55.373839884   10.400970033    80.7608   2  12   0.0594   0.0448   0.0890  -0.0019   0.0137  -0.0383   1.00    1.1
2015/05/12 11:13:11.000   55.373839703   10.400970213    80.4055   2  12   0.0590   0.0445   0.0882  -0.0026   0.0135  -0.0384   1.00    1.1
2015/05/12 11:13:12.000   55.373839493   10.400970319    80.0288   2  12   0.0586   0.0443   0.0874  -0.0031   0.0133  -0.0385   1.00    1.1
2015/05/12 11:13:13.000   55.373839282   10.400970383    79.6790   2  12   0.0583   0.0441   0.0866  -0.0038   0.0132  -0.0385   1.00    1.2
2015/05/12 11:13:14.000   55.373839119   10.400970407    79.3505   2  12   0.0579   0.0438   0.0859  -0.0041   0.0131  -0.0385   1.00    1.3
2015/05/12 11:13:15.000   55.373839002   10.400970438    79.0450   2  12   0.0576   0.0437   0.0853  -0.0042   0.0128  -0.0385   2.00    1.2
2015/05/12 11:13:16.000   55.373838788   10.400970554    78.7248   2  12   0.0573   0.0434   0.0845  -0.0046   0.0128  -0.0386   1.00    1.1
2015/05/12 11:13:17.000   55.373838535   10.400970568    78.4308   2  12   0.0569   0.0432   0.0838  -0.0049   0.0126  -0.0386   1.00    1.4
2015/05/12 11:13:18.000   55.373838333   10.400970701    78.1367   2  12   0.0566   0.0430   0.0831  -0.0052   0.0125  -0.0386   1.00    1.6
2015/05/12 11:13:19.000   55.373838096   10.400970827    77.8537   2  12   0.0563   0.0428   0.0824  -0.0052   0.0124  -0.0386   1.00    1.6
2015/05/12 11:13:20.000   55.373837876   10.400971010    77.5816   2  12   0.0560   0.0426   0.0818  -0.0055   0.0123  -0.0386   1.00    1.4
2015/05/12 11:13:21.000   55.373837655   10.400971278    77.3074   2  12   0.0557   0.0424   0.0812  -0.0059   0.0121  -0.0386   1.00    1.2
2015/05/12 11:13:22.000   55.373837260   10.400972373    76.9960   2  12   0.0554   0.0423   0.0806  -0.0060   0.0120  -0.0386   1.00    1.1
2015/05/12 11:13:23.000   55.373836577   10.400972672    76.6950   2  12   0.0551   0.0420   0.0800  -0.0062   0.0118  -0.0385   1.00    1.1
2015/05/12 11:13:24.000   55.373835965   10.400972820    76.4139   2  12   0.0548   0.0419   0.0794  -0.0063   0.0117  -0.0385   1.00    1.6
2015/05/12 11:13:26.000   55.373835295   10.400973129    76.1282   2  12   0.0545   0.0417   0.0788  -0.0065   0.0116  -0.0384   1.00    1.7
2015/05/12 11:13:44.000   55.373834520   10.400973673    75.8953   2  12   0.0542   0.0416   0.0786  -0.0072   0.0114  -0.0383   1.00    1.0
2015/05/12 11:13:45.000   55.373833526   10.400974442    75.4245   2  12   0.0539   0.0413   0.0776  -0.0075   0.0114  -0.0384   1.00    1.0
2015/05/12 11:13:46.000   55.373832621   10.400975215    74.9787   2  12   0.0536   0.0411   0.0767  -0.0077   0.0113  -0.0385   1.00    1.0
2015/05/12 11:13:47.000   55.373831813   10.400976002    74.5546   2  12   0.0533   0.0410   0.0760  -0.0080   0.0112  -0.0385   1.00    1.2
2015/05/12 11:14:00.000   55.373830522   10.400976924    74.1192   2  12   0.0530   0.0408   0.0756  -0.0086   0.0107  -0.0384   1.00    1.1
2015/05/12 11:14:02.000   55.373829471   10.400977292    73.7293   2  12   0.0527   0.0406   0.0748  -0.0087   0.0108  -0.0384   2.00    1.4
2015/05/12 11:14:03.000   55.373828193   10.400977741    73.2990   2  12   0.0524   0.0404   0.0738  -0.0089   0.0107  -0.0385   1.00    1.4
2015/05/12 11:14:04.000   55.373826996   10.400978078    72.9186   2  12   0.0521   0.0402   0.0731  -0.0092   0.0107  -0.0386   1.00    1.7
2015/05/12 11:14:05.000   55.373825181   10.400977705    72.8868   1  12   0.0078   0.0048   0.0165   0.0020   0.0031   0.0063   1.00    3.6
2015/05/12 11:14:06.000   55.373824668   10.400978716    72.1944   2  12   0.0515   0.0399   0.0717  -0.0095   0.0103  -0.0385   1.00    1.3
2015/05/12 11:14:07.000   55.373823497   10.400979113    71.8555   2  12   0.0513   0.0397   0.0711  -0.0096   0.0104  -0.0386   1.00    1.1
2015/05/12 11:14:08.000   55.373822435   10.400979450    71.5499   2  12   0.0510   0.0395   0.0704  -0.0098   0.0103  -0.0385   1.00    1.1
2015/05/12 11:14:09.000   55.373821364   10.400979781    71.2419   2  12   0.0508   0.0393   0.0698  -0.0099   0.0103  -0.0385   1.00    1.2
2015/05/12 11:14:10.000   55.373820371   10.400980106    70.9615   2  12   0.0505   0.0391   0.0692  -0.0100   0.0102  -0.0385   1.00    1.2
2015/05/12 11:14:11.000   55.373819358   10.400980463    70.6979   2  12   0.0503   0.0390   0.0687  -0.0102   0.0101  -0.0384   1.00    1.3
2015/05/12 11:14:12.000   55.373818365   10.400980839    70.4251   2  12   0.0500   0.0388   0.0681  -0.0102   0.0101  -0.0384   1.00    1.2
2015/05/12 11:14:13.000   55.373817422   10.400981176    70.1756   2  12   0.0498   0.0386   0.0676  -0.0104   0.0101  -0.0383   1.00    1.0
2015/05/12 11:14:14.000   55.373816521   10.400981448    69.9373   2  12   0.0496   0.0385   0.0671  -0.0105   0.0100  -0.0383   1.00    1.1
2015/05/12 11:14:15.000   55.373815681   10.400981783    69.6996   2  12   0.0494   0.0383   0.0666  -0.0106   0.0100  -0.0382   1.00    1.0
2015/05/12 11:14:16.000   55.373814811   10.400981945    69.5107   2  12   0.0491   0.0382   0.0661  -0.0107   0.0099  -0.0382   1.00    1.0
2015/05/12 11:14:17.000   55.373813973   10.400982231    69.2944   2  12   0.0489   0.0380   0.0656  -0.0108   0.0099  -0.0381   1.00    1.1
2015/05/12 11:14:18.000   55.373813070   10.400982381    69.0888   2  12   0.0487   0.0379   0.0652  -0.0108   0.0099  -0.0380   1.00    1.0
2015/05/12 11:14:19.000   55.373812306   10.400982509    68.8962   2  12   0.0485   0.0377   0.0647  -0.0109   0.0098  -0.0380   1.00    1.2
2015/05/12 11:14:20.000   55.373811540   10.400982648    68.6991   2  12   0.0483   0.0376   0.0649  -0.0111   0.0094  -0.0378   1.00    1.1
2015/05/12 11:14:21.000   55.373810881   10.400982857    68.5236   2  12   0.0481   0.0374   0.0641  -0.0111   0.0096  -0.0377   1.00    1.3
2015/05/12 11:14:22.000   55.373810084   10.400983163    68.3529   2  12   0.0479   0.0373   0.0641  -0.0111   0.0093  -0.0376   1.00    1.1
2015/05/12 11:14:23.000   55.373809367   10.400983499    68.1821   2  12   0.0477   0.0371   0.0633  -0.0113   0.0096  -0.0376   1.00    1.2
2015/05/12 11:14:24.000   55.373808635   10.400983979    68.0145   2  12   0.0475   0.0370   0.0628  -0.0113   0.0097  -0.0375   1.00    1.6
2015/05/12 11:14:25.000   55.373808297   10.400984743    67.8382   2  12   0.0473   0.0369   0.0624  -0.0113   0.0097  -0.0375   1.00    1.6
2015/05/12 11:14:26.000   55.373807904   10.400985269    67.6698   2  12   0.0471   0.0368   0.0622  -0.0113   0.0096  -0.0374   2.00    1.5
2015/05/12 11:14:27.000   55.373807427   10.400985710    67.5109   2  12   0.0469   0.0366   0.0616  -0.0115   0.0097  -0.0373   1.00    1.4
2015/05/12 11:14:28.000   55.373806891   10.400985948    67.3516   2  12   0.0467   0.0365   0.0618  -0.0115   0.0093  -0.0371   1.00    1.0
2015/05/12 11:14:29.000   55.373806353   10.400986171    67.2081   2  12   0.0465   0.0364   0.0611  -0.0116   0.0095  -0.0371   1.00    1.0
2015/05/12 11:14:30.000   55.373805807   10.400986398    67.0706   2  12   0.0464   0.0362   0.0611  -0.0116   0.0093  -0.0369   1.00    1.0
2015/05/12 11:14:31.000   55.373805197   10.400986505    66.9391   2  12   0.0462   0.0360   0.0604  -0.0117   0.0095  -0.0369   1.00    1.1
2015/05/12 11:14:32.000   55.373804582   10.400986619    66.8128   2  12   0.0460   0.0359   0.0605  -0.0117   0.0092  -0.0368   1.00    1.2
2015/05/12 11:14:33.000   55.373803976   10.400986669    66.7015   2  12   0.0458   0.0358   0.0598  -0.0117   0.0094  -0.0368   1.00    1.2
2015/05/12 11:14:34.000   55.373803341   10.400986878    66.5965   2  12   0.0456   0.0357   0.0593  -0.0117   0.0095  -0.0367   1.00    1.1
2015/05/12 11:14:35.000   55.373802684   10.400986829    66.5003   2  12   0.0455   0.0356   0.0590  -0.0117   0.0096  -0.0366   1.00    1.1
2015/05/12 11:14:36.000   55.373802093   10.400986864    66.3923   2  12   0.0453   0.0354   0.0586  -0.0118   0.0096  -0.0365   1.00    1.3
2015/05/12 11:14:37.000   55.373801511   10.400986957    66.3013   2  12   0.0451   0.0353   0.0583  -0.0119   0.0097  -0.0364   1.00    1.4
2015/05/12 11:14:38.000   55.373800926   10.400986992    66.2140   2  12   0.0450   0.0352   0.0586  -0.0119   0.0092  -0.0362   1.00    1.1
2015/05/12 11:14:39.000   55.373800371   10.400987091    66.1294   2  12   0.0448   0.0351   0.0580  -0.0119   0.0095  -0.0362   1.00    1.3
2015/05/12 11:14:40.000   55.373799760   10.400987143    66.0414   2  12   0.0446   0.0349   0.0575  -0.0120   0.0095  -0.0361   1.00    1.1
2015/05/12 11:14:41.000   55.373799228   10.400987199    65.9596   2  12   0.0445   0.0348   0.0572  -0.0120   0.0095  -0.0361   1.00    1.0
2015/05/12 11:14:42.000   55.373798721   10.400987248    65.8772   2  12   0.0443   0.0347   0.0569  -0.0120   0.0095  -0.0360   1.00    1.0
2015/05/12 11:14:43.000   55.373798206   10.400987258    65.8062   2  12   0.0442   0.0346   0.0566  -0.0120   0.0096  -0.0359   1.00    1.1
2015/05/12 11:14:44.000   55.373797679   10.400987257    65.7355   2  12   0.0440   0.0345   0.0563  -0.0120   0.0096  -0.0358   1.00    1.1
2015/05/12 11:14:45.000   55.373797183   10.400987341    65.6562   2  12   0.0438   0.0344   0.0560  -0.0120   0.0096  -0.0357   1.00    1.2
2015/05/12 11:14:46.000   55.373796686   10.400987398    65.5987   2  12   0.0437   0.0343   0.0557  -0.0120   0.0095  -0.0356   1.00    1.2
2015/05/12 11:14:47.000   55.373796139   10.400987467    65.5150   2  12   0.0435   0.0341   0.0555  -0.0121   0.0096  -0.0356   1.00    1.2
2015/05/12 11:14:48.000   55.373795635   10.400987533    65.4592   2  12   0.0434   0.0341   0.0552  -0.0121   0.0096  -0.0355   1.00    1.1
2015/05/12 11:14:49.000   55.373795061   10.400987582    65.3849   2  11   0.0433   0.0340   0.0550  -0.0121   0.0096  -0.0354   1.00    1.1
2015/05/12 11:14:50.000   55.373794582   10.400987756    65.3322   2  12   0.0431   0.0339   0.0547  -0.0121   0.0096  -0.0353   1.00    1.2
2015/05/12 11:14:51.000   55.373794072   10.400987873    65.2646   2  12   0.0430   0.0337   0.0545  -0.0122   0.0096  -0.0352   1.00    1.3
2015/05/12 11:14:52.000   55.373793565   10.400987867    65.2089   2  12   0.0428   0.0336   0.0542  -0.0122   0.0096  -0.0351   1.00    1.2
2015/05/12 11:14:53.000   55.373793099   10.400988000    65.1600   2  12   0.0427   0.0335   0.0540  -0.0122   0.0096  -0.0350   1.00    1.1
2015/05/12 11:14:54.000   55.373792635   10.400988177    65.1105   2  12   0.0425   0.0334   0.0537  -0.0122   0.0096  -0.0350   1.00    1.0
2015/05/12 11:14:55.000   55.373792217   10.400988377    65.0444   2  12   0.0424   0.0332   0.0535  -0.0123   0.0097  -0.0349   1.00    1.0
2015/05/12 11:14:56.000   55.373791789   10.400988541    64.9995   2  12   0.0423   0.0332   0.0533  -0.0123   0.0096  -0.0348   1.00    1.0
2015/05/12 11:14:57.000   55.373791407   10.400988695    64.9535   2  12   0.0421   0.0331   0.0531  -0.0123   0.0097  -0.0347   1.00    1.0
2015/05/12 11:14:58.000   55.373791015   10.400988844    64.8971   2  12   0.0420   0.0330   0.0528  -0.0123   0.0096  -0.0346   1.00    1.0
2015/05/12 11:14:59.000   55.373790669   10.400989018    64.8532   2  12   0.0419   0.0329   0.0526  -0.0123   0.0096  -0.0345   1.00    1.0
2015/05/12 11:15:00.000   55.373790310   10.400989256    64.7999   2  12   0.0418   0.0328   0.0524  -0.0124   0.0097  -0.0344   1.00    1.0
2015/05/12 11:15:01.000   55.373789975   10.400989366    64.7509   2  12   0.0416   0.0327   0.0522  -0.0124   0.0097  -0.0343   1.00    1.0
2015/05/12 11:15:02.000   55.373789607   10.400989560    64.7098   2  12   0.0415   0.0326   0.0520  -0.0123   0.0096  -0.0343   1.00    1.1
2015/05/12 11:15:03.000   55.373789257   10.400989671    64.6592   2  12   0.0413   0.0325   0.0519  -0.0124   0.0094  -0.0342   1.00    1.3
2015/05/12 11:15:04.000   55.373788922   10.400989812    64.6133   2  12   0.0412   0.0324   0.0516  -0.0124   0.0096  -0.0341   1.00    1.1
2015/05/12 11:15:05.000   55.373788615   10.400989862    64.5783   2  12   0.0411   0.0323   0.0514  -0.0124   0.0096  -0.0340   1.00    1.0
2015/05/12 11:15:06.000   55.373788296   10.400989930    64.5424   2  12   0.0410   0.0322   0.0512  -0.0124   0.0096  -0.0339   1.00    1.2
2015/05/12 11:15:07.000   55.373787998   10.400990010    64.4977   2  12   0.0409   0.0321   0.0510  -0.0124   0.0096  -0.0338   1.00    1.3
2015/05/12 11:15:08.000   55.373787700   10.400990095    64.4636   2  12   0.0407   0.0320   0.0508  -0.0124   0.0096  -0.0338   1.00    1.3
2015/05/12 11:15:09.000   55.373787374   10.400990144    64.4254   2  12   0.0406   0.0319   0.0506  -0.0125   0.0096  -0.0337   1.00    1.3
2015/05/12 11:15:10.000   55.373787056   10.400990213    64.3840   2  12   0.0405   0.0318   0.0504  -0.0125   0.0096  -0.0336   1.00    1.2
2015/05/12 11:15:11.000   55.373786766   10.400990245    64.3541   2  12   0.0404   0.0317   0.0502  -0.0125   0.0096  -0.0335   1.00    1.1
2015/05/12 11:15:12.000   55.373786457   10.400990359    64.3142   2  12   0.0403   0.0317   0.0501  -0.0125   0.0095  -0.0334   1.00    1.0
2015/05/12 11:15:13.000   55.373786104   10.400990467    64.2865   2  12   0.0401   0.0315   0.0499  -0.0125   0.0096  -0.0333   1.00    1.1
2015/05/12 11:15:14.000   55.373785723   10.400990527    64.2499   2  12   0.0400   0.0315   0.0497  -0.0125   0.0096  -0.0333   1.00    1.2
2015/05/12 11:15:15.000   55.373785417   10.400990709    64.2129   2  12   0.0399   0.0313   0.0495  -0.0125   0.0097  -0.0332   1.00    1.3
2015/05/12 11:15:16.000   55.373785059   10.400990777    64.1850   2  12   0.0398   0.0313   0.0493  -0.0125   0.0097  -0.0331   1.00    1.4
2015/05/12 11:15:17.000   55.373784738   10.400990910    64.1588   2  12   0.0397   0.0312   0.0491  -0.0125   0.0097  -0.0330   1.00    1.3
2015/05/12 11:15:18.000   55.373784430   10.400990986    64.1365   2  12   0.0396   0.0311   0.0489  -0.0125   0.0097  -0.0329   1.00    1.3
2015/05/12 11:15:19.000   55.373784095   10.400991068    64.1103   2  11   0.0395   0.0311   0.0496  -0.0125   0.0092  -0.0327   1.00    1.0
2015/05/12 11:15:20.000   55.373783808   10.400991056    64.0819   2  12   0.0393   0.0310   0.0494  -0.0126   0.0092  -0.0326   1.00    1.0
2015/05/12 11:15:21.000   55.373783493   10.400991118    64.0624   2  12   0.0392   0.0308   0.0488  -0.0125   0.0094  -0.0326   1.00    1.0
2015/05/12 11:15:22.000   55.373783157   10.400991090    64.0315   2  12   0.0391   0.0308   0.0485  -0.0125   0.0096  -0.0326   1.00    1.1
2015/05/12 11:15:23.000   55.373782818   10.400991162    64.0007   2  12   0.0390   0.0307   0.0483  -0.0125   0.0096  -0.0325   1.00    1.1
2015/05/12 11:15:24.000   55.373782507   10.400991233    63.9824   2  12   0.0389   0.0306   0.0481  -0.0125   0.0096  -0.0324   1.00    1.2
2015/05/12 11:15:25.000   55.373782239   10.400991422    63.9439   2  12   0.0388   0.0305   0.0479  -0.0126   0.0097  -0.0324   1.00    1.2
2015/05/12 11:15:26.000   55.373781933   10.400991430    63.9313   2  12   0.0387   0.0305   0.0477  -0.0126   0.0096  -0.0323   1.00    1.2
2015/05/12 11:15:27.000   55.373781635   10.400991554    63.9135   2  12   0.0386   0.0304   0.0475  -0.0125   0.0096  -0.0323   1.00    1.3
2015/05/12 11:15:28.000   55.373781409   10.400991709    63.8918   2  12   0.0385   0.0303   0.0481  -0.0127   0.0093  -0.0320   1.00    1.1
2015/05/12 11:15:29.000   55.373781226   10.400991836    63.8787   2  12   0.0385   0.0303   0.0483  -0.0126   0.0091  -0.0319   2.00    1.1
2015/05/12 11:15:30.000   55.373780909   10.400991991    63.8507   2  12   0.0383   0.0301   0.0474  -0.0126   0.0094  -0.0320   1.00    1.2
2015/05/12 11:15:31.000   55.373780611   10.400992119    63.8289   2  12   0.0382   0.0301   0.0471  -0.0126   0.0095  -0.0319   1.00    1.2
2015/05/12 11:15:32.000   55.373780312   10.400992166    63.8151   2  12   0.0381   0.0300   0.0469  -0.0126   0.0096  -0.0318   1.00    1.2
2015/05/12 11:15:33.000   55.373780131   10.400992300    63.8000   2  12   0.0381   0.0299   0.0469  -0.0126   0.0095  -0.0317   2.00    1.1
2015/05/12 11:15:34.000   55.373779827   10.400992462    63.7671   2  12   0.0379   0.0298   0.0465  -0.0126   0.0096  -0.0317   1.00    1.1
2015/05/12 11:15:35.000   55.373779603   10.400992610    63.7479   2  12   0.0378   0.0298   0.0464  -0.0126   0.0096  -0.0316   1.00    1.1
2015/05/12 11:15:36.000   55.373779346   10.400992748    63.7168   2  12   0.0377   0.0297   0.0462  -0.0126   0.0096  -0.0316   1.00    1.1
2015/05/12 11:15:37.000   55.373779123   10.400992851    63.6978   2  12   0.0376   0.0296   0.0460  -0.0126   0.0096  -0.0315   1.00    1.0
2015/05/12 11:15:38.000   55.373778849   10.400992979    63.6689   2  12   0.0375   0.0296   0.0459  -0.0126   0.0096  -0.0314   1.00    1.0
2015/05/12 11:15:39.000   55.373778590   10.400993166    63.6575   2  12   0.0374   0.0294   0.0457  -0.0126   0.0097  -0.0314   1.00    1.0
2015/05/12 11:15:40.000   55.373778407   10.400993363    63.6377   2  12   0.0373   0.0294   0.0456  -0.0126   0.0097  -0.0313   1.00    1.1
2015/05/12 11:15:41.000   55.373778134   10.400993525    63.6177   2  12   0.0372   0.0293   0.0454  -0.0125   0.0097  -0.0312   1.00    1.0
2015/05/12 11:15:42.000   55.373777911   10.400993624    63.6028   2  12   0.0371   0.0293   0.0453  -0.0125   0.0097  -0.0311   1.00    1.0
2015/05/12 11:15:43.000   55.373777617   10.400993792    63.5647   2  12   0.0370   0.0292   0.0452  -0.0126   0.0097  -0.0311   1.00    1.1
2015/05/12 11:15:44.000   55.373777425   10.400993946    63.5451   2  12   0.0369   0.0291   0.0450  -0.0126   0.0097  -0.0310   1.00    1.0
2015/05/12 11:15:45.000   55.373777245   10.400994055    63.5233   2  12   0.0368   0.0290   0.0449  -0.0126   0.0097  -0.0309   1.00    1.0
2015/05/12 11:15:46.000   55.373776978   10.400994198    63.4910   2  12   0.0367   0.0290   0.0448  -0.0126   0.0097  -0.0309   1.00    1.0
2015/05/12 11:15:47.000   55.373776781   10.400994350    63.4794   2  12   0.0366   0.0289   0.0446  -0.0126   0.0097  -0.0308   1.00    1.0
2015/05/12 11:15:48.000   55.373776595   10.400994450    63.4695   2  12   0.0365   0.0288   0.0445  -0.0126   0.0097  -0.0307   1.00    1.0
2015/05/12 11:15:49.000   55.373776365   10.400994574    63.4421   2  12   0.0365   0.0288   0.0443  -0.0125   0.0097  -0.0307   1.00    1.0
2015/05/12 11:15:50.000   55.373776629   10.400996393    63.3617   2  12   0.0364   0.0287   0.0442  -0.0126   0.0097  -0.0306   1.00    1.1
2015/05/12 11:15:51.000   55.373775923   10.400994715    63.3909   2  12   0.0363   0.0286   0.0441  -0.0125   0.0097  -0.0305   1.00    1.1
2015/05/12 11:15:52.000   55.373775611   10.400994427    63.3857   2  12   0.0362   0.0286   0.0440  -0.0126   0.0097  -0.0305   1.00    1.1
2015/05/12 11:15:53.000   55.373775462   10.400994599    63.3567   2  12   0.0361   0.0285   0.0438  -0.0126   0.0097  -0.0304   1.00    1.1
2015/05/12 11:15:54.000   55.373775299   10.400994752    63.3449   2  12   0.0360   0.0284   0.0437  -0.0126   0.0097  -0.0304   1.00    1.2
2015/05/12 11:15:55.000   55.373775138   10.400994933    63.3125   2  12   0.0359   0.0284   0.0436  -0.0126   0.0097  -0.0303   1.00    1.2
2015/05/12 11:15:56.000   55.373774959   10.400995019    63.3043   2  12   0.0359   0.0283   0.0435  -0.0125   0.0097  -0.0302   1.00    1.2
2015/05/12 11:15:57.000   55.373774747   10.400995113    63.2725   2  12   0.0358   0.0282   0.0434  -0.0126   0.0098  -0.0301   1.00    1.2
2015/05/12 11:15:58.000   55.373774590   10.400995293    63.2356   2  12   0.0357   0.0282   0.0442  -0.0126   0.0094  -0.0299   1.00    1.1
2015/05/12 11:15:59.000   55.373774395   10.400995329    63.2220   2  12   0.0356   0.0281   0.0436  -0.0125   0.0096  -0.0299   1.00    1.3
2015/05/12 11:16:00.000   55.373774334   10.400995467    63.2129   2  12   0.0356   0.0281   0.0442  -0.0126   0.0096  -0.0297   1.00    1.0
2015/05/12 11:16:01.000   55.373774198   10.400995539    63.2015   2  12   0.0355   0.0280   0.0434  -0.0126   0.0098  -0.0298   1.00    1.0
2015/05/12 11:16:02.000   55.373774058   10.400995592    63.1873   2  12   0.0353   0.0279   0.0431  -0.0126   0.0098  -0.0297   1.00    1.0
2015/05/12 11:16:24.000   55.373773720   10.400995744    63.1918   2  12   0.0353   0.0279   0.0436  -0.0128   0.0095  -0.0295   1.00    1.1
2015/05/12 11:16:25.000   55.373773485   10.400995794    63.1714   2  12   0.0352   0.0278   0.0429  -0.0127   0.0097  -0.0296   1.00    1.1
2015/05/12 11:16:26.000   55.373773266   10.400995918    63.1512   2  12   0.0350   0.0278   0.0426  -0.0128   0.0097  -0.0295   1.00    1.1
2015/05/12 11:16:27.000   55.373773040   10.400996029    63.1194   2  12   0.0349   0.0277   0.0424  -0.0127   0.0098  -0.0295   1.00    1.1
2015/05/12 11:16:28.000   55.373772796   10.400996088    63.0955   2  12   0.0349   0.0276   0.0422  -0.0128   0.0099  -0.0294   1.00    1.2
2015/05/12 11:16:29.000   55.373772589   10.400996165    63.0756   2  12   0.0348   0.0275   0.0421  -0.0128   0.0099  -0.0294   1.00    1.2
2015/05/12 11:16:30.000   55.373772382   10.400996199    63.0500   2  12   0.0347   0.0275   0.0419  -0.0128   0.0099  -0.0293   1.00    1.2
2015/05/12 11:16:31.000   55.373772173   10.400996176    63.0311   2  12   0.0346   0.0274   0.0418  -0.0128   0.0099  -0.0293   1.00    1.2
2015/05/12 11:16:32.000   55.373772013   10.400996202    63.0141   2  12   0.0345   0.0273   0.0416  -0.0128   0.0099  -0.0292   1.00    1.2
2015/05/12 11:16:33.000   55.373771829   10.400996262    62.9905   2  11   0.0345   0.0273   0.0415  -0.0128   0.0099  -0.0291   1.00    1.1
2015/05/12 11:16:34.000   55.373771637   10.400996236    62.9671   2  12   0.0344   0.0273   0.0413  -0.0128   0.0099  -0.0291   1.00    1.1
2015/05/12 11:16:35.000   55.373771425   10.400996277    62.9328   2  12   0.0343   0.0272   0.0412  -0.0128   0.0100  -0.0290   1.00    1.0
2015/05/12 11:16:36.000   55.373771244   10.400996229    62.9202   2  12   0.0342   0.0271   0.0411  -0.0128   0.0100  -0.0290   1.00    1.0
2015/05/12 11:16:37.000   55.373771118   10.400996233    62.9074   2  12   0.0341   0.0270   0.0410  -0.0128   0.0100  -0.0289   1.00    1.1
2015/05/12 11:16:38.000   55.373770962   10.400996196    62.8935   2  12   0.0340   0.0269   0.0409  -0.0129   0.0101  -0.0288   1.00    1.1
2015/05/12 11:16:39.000   55.373770789   10.400996212    62.8731   2  12   0.0340   0.0269   0.0407  -0.0129   0.0100  -0.0288   1.00    1.1
2015/05/12 11:16:40.000   55.373770681   10.400996304    62.8485   2  12   0.0339   0.0268   0.0406  -0.0128   0.0100  -0.0287   1.00    1.1
2015/05/12 11:16:41.000   55.373770521   10.400996367    62.8338   2  12   0.0338   0.0268   0.0405  -0.0128   0.0100  -0.0287   1.00    1.1
2015/05/12 11:16:42.000   55.373770364   10.400996359    62.8286   2  12   0.0337   0.0268   0.0404  -0.0128   0.0100  -0.0286   1.00    1.0
2015/05/12 11:16:43.000   55.373770221   10.400996423    62.7995   2  12   0.0337   0.0266   0.0403  -0.0129   0.0100  -0.0286   1.00    1.0
2015/05/12 11:16:44.000   55.373770088   10.400996582    62.7723   2  12   0.0336   0.0266   0.0402  -0.0128   0.0101  -0.0285   1.00    1.0
2015/05/12 11:16:45.000   55.373769986   10.400996687    62.7567   2  12   0.0335   0.0266   0.0400  -0.0128   0.0100  -0.0284   1.00    1.0
2015/05/12 11:16:46.000   55.373769848   10.400996722    62.7473   2  12   0.0334   0.0265   0.0399  -0.0129   0.0101  -0.0284   1.00    1.0
2015/05/12 11:16:47.000   55.373769691   10.400996903    62.7400   2  12   0.0333   0.0265   0.0398  -0.0128   0.0101  -0.0283   1.00    1.0
2015/05/12 11:16:48.000   55.373769535   10.400996992    62.7151   2  12   0.0333   0.0264   0.0397  -0.0129   0.0102  -0.0282   1.00    1.0
2015/05/12 11:16:49.000   55.373769385   10.400997107    62.7013   2  12   0.0332   0.0263   0.0396  -0.0129   0.0101  -0.0282   1.00    1.0
2015/05/12 11:16:51.000   55.373769580   10.400996744    62.9817   2  12   0.0331   0.0262   0.0395  -0.0128   0.0102  -0.0281   1.00    1.0
2015/05/12 11:16:53.000   55.373769134   10.400997314    62.6764   2  12   0.0331   0.0262   0.0404  -0.0129   0.0097  -0.0279   1.00    1.1
2015/05/12 11:16:54.000   55.373769001   10.400997338    62.6665   2  12   0.0330   0.0261   0.0403  -0.0129   0.0098  -0.0278   1.00    1.1
2015/05/12 11:17:02.000   55.373768844   10.400997402    62.6596   2  12   0.0329   0.0260   0.0402  -0.0130   0.0098  -0.0277   1.00    1.0
2015/05/12 11:17:04.000   55.373768615   10.400997485    62.6476   2  12   0.0328   0.0260   0.0395  -0.0130   0.0100  -0.0278   1.00    1.0
2015/05/12 11:17:05.000   55.373768442   10.400997648    62.6316   2  12   0.0327   0.0260   0.0393  -0.0130   0.0101  -0.0278   1.00    1.0
2015/05/12 11:17:06.000   55.373768227   10.400997667    62.6271   2  12   0.0327   0.0259   0.0391  -0.0130   0.0102  -0.0277   1.00    1.1
2015/05/12 11:17:17.000   55.373768004   10.400997793    62.6103   2  12   0.0326   0.0258   0.0389  -0.0130   0.0101  -0.0276   1.00    1.1
2015/05/12 11:17:18.000   55.373767828   10.400997871    62.5838   2  12   0.0325   0.0258   0.0387  -0.0130   0.0102  -0.0276   1.00    1.1
2015/05/12 11:17:24.000   55.373767618   10.400998016    62.5844   2  12   0.0324   0.0258   0.0386  -0.0131   0.0102  -0.0275   1.00    1.0
2015/05/12 11:17:25.000   55.373767402   10.400998143    62.5768   2  12   0.0323   0.0256   0.0384  -0.0131   0.0102  -0.0275   1.00    1.0
2015/05/12 11:17:26.000   55.373767269   10.400998307    62.5534   2  12   0.0323   0.0257   0.0383  -0.0131   0.0102  -0.0274   1.00    1.0
2015/05/12 11:17:27.000   55.373767091   10.400998551    62.5393   2  12   0.0322   0.0256   0.0382  -0.0131   0.0102  -0.0274   1.00    1.0
2015/05/12 11:17:28.000   55.373766928   10.400998754    62.5409   2  12   0.0321   0.0255   0.0381  -0.0131   0.0103  -0.0273   1.00    1.0
2015/05/12 11:17:29.000   55.373766775   10.400998856    62.5283   2  12   0.0320   0.0255   0.0380  -0.0131   0.0103  -0.0272   1.00    1.1
2015/05/12 11:17:30.000   55.373766589   10.400999036    62.5119   2  12   0.0319   0.0254   0.0379  -0.0131   0.0103  -0.0272   1.00    1.1
2015/05/12 11:17:31.000   55.373766457   10.400999196    62.5032   2  12   0.0319   0.0253   0.0377  -0.0131   0.0104  -0.0271   1.00    1.1
2015/05/12 11:17:32.000   55.373766300   10.400999346    62.4857   2  12   0.0318   0.0252   0.0376  -0.0131   0.0104  -0.0271   1.00    1.1
2015/05/12 11:17:33.000   55.373766169   10.400999562    62.4755   2  12   0.0317   0.0252   0.0375  -0.0132   0.0104  -0.0270   1.00    1.1
2015/05/12 11:17:34.000   55.373766045   10.400999744    62.4511   2  12   0.0317   0.0252   0.0374  -0.0132   0.0104  -0.0270   1.00    1.2
2015/05/12 11:17:35.000   55.373765915   10.401000005    62.4518   2  12   0.0316   0.0251   0.0373  -0.0132   0.0104  -0.0269   1.00    1.2
2015/05/12 11:17:36.000   55.373765775   10.401000175    62.4214   2  12   0.0315   0.0250   0.0372  -0.0131   0.0104  -0.0269   1.00    1.1
2015/05/12 11:17:37.000   55.373765637   10.401000393    62.3989   2  12   0.0314   0.0250   0.0371  -0.0132   0.0105  -0.0268   1.00    1.1
2015/05/12 11:17:38.000   55.373765529   10.401000653    62.3860   2  12   0.0314   0.0249   0.0370  -0.0132   0.0105  -0.0267   1.00    1.1
2015/05/12 11:17:39.000   55.373765354   10.401000867    62.3787   2  12   0.0313   0.0249   0.0369  -0.0132   0.0105  -0.0267   1.00    1.1
2015/05/12 11:17:40.000   55.373765292   10.401001044    62.3741   2  12   0.0312   0.0248   0.0368  -0.0132   0.0105  -0.0266   1.00    1.1
2015/05/12 11:17:41.000   55.373765193   10.401001180    62.3694   2  12   0.0311   0.0248   0.0367  -0.0132   0.0105  -0.0266   1.00    1.0
2015/05/12 11:17:42.000   55.373765041   10.401001323    62.3498   2  12   0.0311   0.0247   0.0377  -0.0132   0.0102  -0.0263   1.00    1.1
2015/05/12 11:17:43.000   55.373764956   10.401001567    62.3405   2  12   0.0310   0.0246   0.0371  -0.0132   0.0104  -0.0264   1.00    1.1
2015/05/12 11:17:44.000   55.373764721   10.401001660    62.3237   2  12   0.0310   0.0246   0.0376  -0.0133   0.0102  -0.0262   1.00    1.2
2015/05/12 11:17:45.000   55.373764663   10.401001866    62.3156   2  12   0.0309   0.0245   0.0369  -0.0132   0.0104  -0.0263   1.00    1.2
2015/05/12 11:17:46.000   55.373764552   10.401002006    62.3075   2  12   0.0309   0.0245   0.0366  -0.0132   0.0105  -0.0262   1.00    1.1
2015/05/12 11:17:47.000   55.373764445   10.401002104    62.3063   2  12   0.0308   0.0245   0.0364  -0.0132   0.0105  -0.0262   1.00    1.1
2015/05/12 11:17:48.000   55.373764307   10.401002194    62.2943   2  12   0.0307   0.0244   0.0363  -0.0132   0.0106  -0.0262   1.00    1.0
2015/05/12 11:17:49.000   55.373764211   10.401002359    62.2744   2  12   0.0307   0.0244   0.0362  -0.0132   0.0106  -0.0261   1.00    1.0
2015/05/12 11:17:50.000   55.373764110   10.401002461    62.2695   2  12   0.0306   0.0243   0.0370  -0.0133   0.0102  -0.0259   1.00    1.0
2015/05/12 11:17:51.000   55.373764056   10.401002619    62.2624   2  12   0.0305   0.0243   0.0364  -0.0132   0.0105  -0.0259   1.00    1.1
2015/05/12 11:17:52.000   55.373763937   10.401002812    62.2466   2  12   0.0305   0.0242   0.0361  -0.0133   0.0105  -0.0259   1.00    1.1
2015/05/12 11:17:53.000   55.373763870   10.401002889    62.2377   2  12   0.0304   0.0241   0.0359  -0.0133   0.0106  -0.0259   1.00    1.1
2015/05/12 11:17:54.000   55.373763786   10.401003105    62.2199   2  12   0.0304   0.0241   0.0358  -0.0132   0.0106  -0.0259   1.00    1.1
2015/05/12 11:17:55.000   55.373763629   10.401003162    62.2198   2  12   0.0303   0.0240   0.0356  -0.0133   0.0107  -0.0258   1.00    1.1
2015/05/12 11:17:56.000   55.373763499   10.401003347    62.2069   2  12   0.0302   0.0240   0.0355  -0.0132   0.0107  -0.0258   1.00    1.2
2015/05/12 11:17:57.000   55.373763438   10.401003491    62.2170   2  12   0.0302   0.0239   0.0354  -0.0133   0.0107  -0.0257   1.00    1.2
2015/05/12 11:17:58.000   55.373763311   10.401003606    62.1977   2  12   0.0301   0.0239   0.0353  -0.0132   0.0107  -0.0257   1.00    1.2
2015/05/12 11:17:59.000   55.373763195   10.401003669    62.1873   2  12   0.0300   0.0238   0.0352  -0.0132   0.0107  -0.0256   1.00    1.2
2015/05/12 11:18:00.000   55.373763110   10.401003898    62.1768   2  12   0.0300   0.0237   0.0352  -0.0132   0.0107  -0.0256   1.00    1.2
2015/05/12 11:18:01.000   55.373762955   10.401003993    62.1914   2  12   0.0299   0.0237   0.0351  -0.0132   0.0107  -0.0255   1.00    1.3
2015/05/12 11:18:02.000   55.373762855   10.401004126    62.1862   2  12   0.0299   0.0237   0.0350  -0.0132   0.0107  -0.0255   1.00    1.3
2015/05/12 11:18:03.000   55.373762737   10.401004312    62.1781   2  12   0.0298   0.0237   0.0349  -0.0132   0.0107  -0.0254   1.00    1.3
2015/05/12 11:18:04.000   55.373762582   10.401004414    62.1739   2  12   0.0297   0.0236   0.0348  -0.0132   0.0107  -0.0254   1.00    1.3
2015/05/12 11:18:05.000   55.373762487   10.401004609    62.1771   2  12   0.0297   0.0236   0.0347  -0.0132   0.0107  -0.0253   1.00    1.3
2015/05/12 11:18:06.000   55.373762329   10.401004776    62.1684   2  12   0.0296   0.0235   0.0347  -0.0132   0.0107  -0.0253   1.00    1.4
2015/05/12 11:18:07.000   55.373762191   10.401004929    62.1714   2  12   0.0296   0.0234   0.0346  -0.0132   0.0108  -0.0252   1.00    1.4
2015/05/12 11:18:08.000   55.373762082   10.401005086    62.1826   2  12   0.0295   0.0234   0.0345  -0.0132   0.0107  -0.0252   1.00    1.3
2015/05/12 11:18:09.000   55.373762031   10.401005304    62.1776   2  12   0.0295   0.0234   0.0345  -0.0132   0.0108  -0.0252   1.00    1.3
2015/05/12 11:18:10.000   55.373761927   10.401005430    62.1814   2  12   0.0294   0.0234   0.0355  -0.0132   0.0103  -0.0249   1.00    1.0
2015/05/12 11:18:11.000   55.373761852   10.401005627    62.1807   2  12   0.0294   0.0233   0.0349  -0.0132   0.0105  -0.0249   1.00    1.1
2015/05/12 11:18:12.000   55.373761733   10.401005744    62.1878   2  12   0.0293   0.0233   0.0356  -0.0132   0.0106  -0.0247   1.00    1.2
2015/05/12 11:18:13.000   55.373761614   10.401005904    62.1671   2  12   0.0293   0.0232   0.0348  -0.0132   0.0107  -0.0248   1.00    1.2
2015/05/12 11:18:14.000   55.373761594   10.401006052    62.1651   2  12   0.0292   0.0231   0.0345  -0.0133   0.0108  -0.0248   1.00    1.2
2015/05/12 11:18:15.000   55.373761526   10.401006234    62.1634   2  12   0.0291   0.0231   0.0343  -0.0132   0.0108  -0.0248   1.00    1.3
2015/05/12 11:18:16.000   55.373761426   10.401006388    62.1530   2  12   0.0291   0.0230   0.0342  -0.0131   0.0108  -0.0248   1.00    1.3
2015/05/12 11:18:17.000   55.373761358   10.401006517    62.1414   2  12   0.0290   0.0230   0.0341  -0.0132   0.0108  -0.0247   1.00    1.3
2015/05/12 11:18:18.000   55.373761352   10.401006691    62.1470   2  12   0.0290   0.0230   0.0350  -0.0132   0.0105  -0.0245   1.00    1.1
2015/05/12 11:18:19.000   55.373761270   10.401006873    62.1295   2  12   0.0289   0.0229   0.0343  -0.0132   0.0107  -0.0246   1.00    1.1
2015/05/12 11:18:20.000   55.373761181   10.401007006    62.1267   2  12   0.0288   0.0229   0.0340  -0.0131   0.0107  -0.0245   1.00    1.0
2015/05/12 11:18:21.000   55.373761053   10.401007101    62.1218   2  12   0.0289   0.0229   0.0342  -0.0131   0.0106  -0.0245   2.00    1.0
2015/05/12 11:18:22.000   55.373760953   10.401007202    62.1212   2  12   0.0287   0.0228   0.0338  -0.0132   0.0108  -0.0245   1.00    1.0
2015/05/12 11:18:23.000   55.373760853   10.401007283    62.1248   2  12   0.0287   0.0228   0.0337  -0.0132   0.0108  -0.0244   1.00    1.1
2015/05/12 11:18:24.000   55.373760781   10.401007360    62.1159   2  12   0.0286   0.0227   0.0336  -0.0132   0.0109  -0.0244   1.00    1.1
2015/05/12 11:18:25.000   55.373760684   10.401007356    62.1217   2  12   0.0286   0.0227   0.0335  -0.0131   0.0108  -0.0244   1.00    1.1
2015/05/12 11:18:26.000   55.373760554   10.401007411    62.1083   2  12   0.0286   0.0226   0.0334  -0.0132   0.0109  -0.0243   1.00    1.1
2015/05/12 11:18:27.000   55.373760461   10.401007447    62.1055   2  12   0.0285   0.0226   0.0333  -0.0131   0.0108  -0.0243   1.00    1.2
2015/05/12 11:18:28.000   55.373760412   10.401007507    62.1058   2  12   0.0284   0.0226   0.0332  -0.0131   0.0109  -0.0242   1.00    1.2
2015/05/12 11:18:29.000   55.373760285   10.401007632    62.0964   2  12   0.0284   0.0225   0.0332  -0.0131   0.0108  -0.0242   1.00    1.2
2015/05/12 11:18:30.000   55.373760207   10.401007725    62.1019   2  12   0.0283   0.0224   0.0331  -0.0132   0.0109  -0.0241   1.00    1.3
2015/05/12 11:18:31.000   55.373760105   10.401007815    62.0936   2  12   0.0283   0.0224   0.0330  -0.0131   0.0108  -0.0241   1.00    1.4
2015/05/12 11:18:32.000   55.373760030   10.401007960    62.0936   2  12   0.0282   0.0225   0.0330  -0.0132   0.0108  -0.0241   1.00    1.5
2015/05/12 11:18:33.000   55.373759923   10.401007973    62.1029   2  12   0.0282   0.0224   0.0329  -0.0131   0.0108  -0.0240   1.00    1.5
2015/05/12 11:18:34.000   55.373759780   10.401008099    62.0926   2  12   0.0282   0.0223   0.0328  -0.0131   0.0109  -0.0240   1.00    1.5
2015/05/12 11:18:35.000   55.373759639   10.401008266    62.0903   2  12   0.0281   0.0223   0.0328  -0.0131   0.0108  -0.0239   1.00    1.5
2015/05/12 11:18:36.000   55.373759603   10.401008285    62.0968   2  12   0.0281   0.0223   0.0327  -0.0131   0.0109  -0.0239   1.00    1.5
2015/05/12 11:18:37.000   55.373759460   10.401008380    62.0959   2  12   0.0280   0.0222   0.0327  -0.0132   0.0109  -0.0239   1.00    1.5
2015/05/12 11:18:38.000   55.373759361   10.401008445    62.0990   2  12   0.0279   0.0222   0.0326  -0.0131   0.0108  -0.0238   1.00    1.0
2015/05/12 11:18:39.000   55.373759212   10.401008492    62.1056   2  12   0.0279   0.0221   0.0325  -0.0131   0.0109  -0.0238   1.00    1.1
2015/05/12 11:18:40.000   55.373759112   10.401008655    62.1073   2  12   0.0279   0.0221   0.0325  -0.0132   0.0109  -0.0237   1.00    1.1
2015/05/12 11:18:41.000   55.373759025   10.401008769    62.1152   2  12   0.0278   0.0221   0.0324  -0.0131   0.0109  -0.0237   1.00    1.1
2015/05/12 11:18:42.000   55.373758915   10.401008879    62.1256   2  12   0.0278   0.0221   0.0323  -0.0131   0.0109  -0.0236   1.00    1.1
2015/05/12 11:18:43.000   55.373758740   10.401009014    62.1190   2  12   0.0277   0.0219   0.0323  -0.0131   0.0109  -0.0236   1.00    1.2
2015/05/12 11:18:44.000   55.373758611   10.401009134    62.1208   2  12   0.0277   0.0219   0.0322  -0.0131   0.0109  -0.0236   1.00    1.2
2015/05/12 11:18:45.000   55.373758473   10.401009218    62.1249   2  12   0.0276   0.0219   0.0322  -0.0131   0.0109  -0.0235   1.00    1.2
2015/05/12 11:18:46.000   55.373758378   10.401009326    62.1323   2  12   0.0276   0.0219   0.0321  -0.0131   0.0109  -0.0235   1.00    1.2
2015/05/12 11:18:47.000   55.373758235   10.401009455    62.1359   2  12   0.0275   0.0218   0.0321  -0.0131   0.0109  -0.0234   1.00    1.3
2015/05/12 11:18:48.000   55.373758125   10.401009609    62.1230   2  12   0.0275   0.0218   0.0320  -0.0131   0.0109  -0.0234   1.00    1.3
2015/05/12 11:18:49.000   55.373758004   10.401009672    62.1410   2  12   0.0274   0.0218   0.0320  -0.0131   0.0108  -0.0234   1.00    1.3
2015/05/12 11:18:50.000   55.373757968   10.401009757    62.1459   2  12   0.0274   0.0217   0.0319  -0.0131   0.0109  -0.0233   1.00    1.3
2015/05/12 11:18:51.000   55.373757817   10.401009794    62.1361   2  12   0.0274   0.0216   0.0318  -0.0131   0.0109  -0.0233   1.00    1.3
2015/05/12 11:18:52.000   55.373757725   10.401009831    62.1435   2  12   0.0273   0.0216   0.0318  -0.0131   0.0109  -0.0232   1.00    1.4
2015/05/12 11:18:53.000   55.373757642   10.401009943    62.1477   2  12   0.0273   0.0216   0.0317  -0.0131   0.0109  -0.0232   1.00    1.4
2015/05/12 11:18:54.000   55.373757572   10.401010022    62.1507   2  12   0.0272   0.0215   0.0317  -0.0130   0.0109  -0.0232   1.00    1.4
2015/05/12 11:18:55.000   55.373757480   10.401010090    62.1473   2  12   0.0272   0.0216   0.0316  -0.0130   0.0109  -0.0231   1.00    1.4
2015/05/12 11:18:56.000   55.373757407   10.401010234    62.1421   2  12   0.0271   0.0215   0.0316  -0.0130   0.0108  -0.0231   1.00    1.4
2015/05/12 11:18:57.000   55.373757341   10.401010255    62.1532   2  12   0.0271   0.0215   0.0315  -0.0130   0.0109  -0.0230   1.00    1.4
2015/05/12 11:18:58.000   55.373757273   10.401010330    62.1462   2  12   0.0271   0.0215   0.0315  -0.0130   0.0108  -0.0230   1.00    1.4
2015/05/12 11:18:59.000   55.373757221   10.401010419    62.1421   2  12   0.0270   0.0214   0.0314  -0.0130   0.0109  -0.0229   1.00    1.4
2015/05/12 11:19:00.000   55.373757246   10.401010540    62.1355   2  12   0.0270   0.0213   0.0314  -0.0130   0.0109  -0.0229   1.00    1.4
2015/05/12 11:19:01.000   55.373757255   10.401010714    62.1277   2  12   0.0269   0.0214   0.0313  -0.0130   0.0108  -0.0229   1.00    1.4
2015/05/12 11:19:02.000   55.373757255   10.401010880    62.1241   2  12   0.0269   0.0212   0.0313  -0.0130   0.0109  -0.0228   1.00    1.4
2015/05/12 11:19:03.000   55.373757302   10.401011034    62.1175   2  12   0.0268   0.0212   0.0312  -0.0130   0.0109  -0.0228   1.00    1.4
2015/05/12 11:19:04.000   55.373757311   10.401011231    62.1070   2  12   0.0268   0.0212   0.0312  -0.0131   0.0109  -0.0228   1.00    1.4
2015/05/12 11:19:05.000   55.373757283   10.401011325    62.0828   2  12   0.0267   0.0212   0.0311  -0.0130   0.0109  -0.0227   1.00    1.4
2015/05/12 11:19:06.000   55.373757345   10.401011471    62.0618   2  12   0.0267   0.0211   0.0311  -0.0130   0.0109  -0.0227   1.00    1.3
2015/05/12 11:19:07.000   55.373757346   10.401011565    62.0574   2  12   0.0267   0.0211   0.0310  -0.0130   0.0108  -0.0226   1.00    1.3
2015/05/12 11:19:08.000   55.373757328   10.401011588    62.0511   2  12   0.0266   0.0211   0.0310  -0.0130   0.0109  -0.0226   1.00    1.3
2015/05/12 11:19:09.000   55.373757304   10.401011666    62.0466   2  12   0.0266   0.0210   0.0309  -0.0130   0.0109  -0.0226   1.00    1.2
2015/05/12 11:19:10.000   55.373757285   10.401011692    62.0598   2  12   0.0265   0.0211   0.0309  -0.0129   0.0109  -0.0225   1.00    1.2
2015/05/12 11:19:11.000   55.373757214   10.401011803    62.0501   2  12   0.0265   0.0210   0.0308  -0.0129   0.0109  -0.0225   1.00    1.2
2015/05/12 11:19:12.000   55.373757150   10.401011909    62.0462   2  12   0.0265   0.0209   0.0308  -0.0130   0.0109  -0.0224   1.00    1.2
2015/05/12 11:19:13.000   55.373757125   10.401012061    62.0506   2  12   0.0264   0.0209   0.0307  -0.0129   0.0109  -0.0224   1.00    1.1
2015/05/12 11:19:14.000   55.373757055   10.401012114    62.0557   2  12   0.0264   0.0209   0.0307  -0.0129   0.0109  -0.0224   1.00    1.1
2015/05/12 11:19:15.000   55.373756966   10.401012197    62.0582   2  12   0.0263   0.0208   0.0306  -0.0129   0.0109  -0.0223   1.00    1.1
2015/05/12 11:19:16.000   55.373756923   10.401012247    62.0573   2  12   0.0263   0.0208   0.0306  -0.0129   0.0109  -0.0223   1.00    1.1
2015/05/12 11:19:17.000   55.373756863   10.401012343    62.0518   2  12   0.0262   0.0207   0.0306  -0.0130   0.0109  -0.0223   1.00    1.0
2015/05/12 11:19:18.000   55.373756774   10.401012406    62.0540   2  12   0.0262   0.0208   0.0305  -0.0129   0.0108  -0.0223   1.00    1.0
2015/05/12 11:19:19.000   55.373756705   10.401012444    62.0592   2  12   0.0262   0.0207   0.0304  -0.0129   0.0108  -0.0222   1.00    1.0
2015/05/12 11:19:20.000   55.373756664   10.401012473    62.0643   2  12   0.0261   0.0207   0.0304  -0.0129   0.0109  -0.0222   1.00    1.0
2015/05/12 11:19:21.000   55.373756609   10.401012512    62.0621   2  12   0.0261   0.0207   0.0304  -0.0129   0.0108  -0.0221   1.00    1.0
2015/05/12 11:19:22.000   55.373756554   10.401012511    62.0534   2  12   0.0260   0.0206   0.0303  -0.0129   0.0109  -0.0221   1.00    1.0
2015/05/12 11:19:23.000   55.373756526   10.401012528    62.0597   2  12   0.0260   0.0205   0.0303  -0.0129   0.0108  -0.0221   1.00    1.1
2015/05/12 11:19:24.000   55.373756454   10.401012517    62.0643   2  12   0.0260   0.0205   0.0302  -0.0129   0.0109  -0.0220   1.00    1.1
2015/05/12 11:19:25.000   55.373756401   10.401012552    62.0499   2  12   0.0259   0.0205   0.0302  -0.0128   0.0108  -0.0220   1.00    1.1
2015/05/12 11:19:26.000   55.373756350   10.401012526    62.0604   2  12   0.0259   0.0205   0.0301  -0.0129   0.0108  -0.0219   1.00    1.1
2015/05/12 11:19:27.000   55.373756307   10.401012580    62.0487   2  12   0.0259   0.0204   0.0301  -0.0128   0.0109  -0.0219   1.00    1.0
2015/05/12 11:19:28.000   55.373756238   10.401012639    62.0503   2  12   0.0258   0.0204   0.0301  -0.0128   0.0108  -0.0219   1.00    1.0
2015/05/12 11:19:29.000   55.373756165   10.401012615    62.0508   2  12   0.0258   0.0204   0.0300  -0.0128   0.0108  -0.0219   1.00    1.0
2015/05/12 11:19:30.000   55.373756146   10.401012691    62.0546   2  12   0.0258   0.0203   0.0300  -0.0128   0.0108  -0.0218   1.00    1.0
2015/05/12 11:19:31.000   55.373756070   10.401012714    62.0469   2  12   0.0257   0.0203   0.0299  -0.0128   0.0109  -0.0218   1.00    1.0
2015/05/12 11:19:32.000   55.373756035   10.401012738    62.0487   2  12   0.0257   0.0203   0.0312  -0.0129   0.0105  -0.0215   1.00    1.5
2015/05/12 11:19:33.000   55.373756013   10.401012816    62.0618   2  12   0.0257   0.0202   0.0305  -0.0129   0.0107  -0.0216   1.00    1.5
2015/05/12 11:19:34.000   55.373755978   10.401012805    62.0485   2  12   0.0256   0.0203   0.0302  -0.0128   0.0107  -0.0216   1.00    1.5
2015/05/12 11:19:35.000   55.373755921   10.401012766    62.0394   2  12   0.0256   0.0202   0.0301  -0.0128   0.0107  -0.0216   1.00    1.5
2015/05/12 11:19:36.000   55.373755860   10.401012760    62.0518   2  12   0.0255   0.0202   0.0300  -0.0128   0.0108  -0.0215   1.00    1.5
2015/05/12 11:19:37.000   55.373755855   10.401012777    62.0370   2  12   0.0255   0.0201   0.0299  -0.0128   0.0108  -0.0215   1.00    1.5
2015/05/12 11:19:38.000   55.373755832   10.401012812    62.0355   2  12   0.0255   0.0201   0.0298  -0.0128   0.0108  -0.0215   1.00    1.5
2015/05/12 11:19:39.000   55.373755841   10.401012826    62.0326   2  12   0.0254   0.0201   0.0297  -0.0127   0.0108  -0.0214   1.00    1.5
2015/05/12 11:19:40.000   55.373755778   10.401012836    62.0221   2  12   0.0254   0.0200   0.0309  -0.0128   0.0105  -0.0212   1.00    1.0
2015/05/12 11:19:41.000   55.373755762   10.401012856    62.0206   2  12   0.0254   0.0201   0.0302  -0.0128   0.0107  -0.0213   1.00    1.0
2015/05/12 11:19:42.000   55.373755746   10.401012837    62.0184   2  12   0.0253   0.0200   0.0299  -0.0128   0.0107  -0.0213   1.00    1.0
2015/05/12 11:19:43.000   55.373755784   10.401012905    62.0175   2  12   0.0253   0.0201   0.0298  -0.0127   0.0107  -0.0213   1.00    1.0
