$GPGSA,A,1,,,,,,,,,,,,,,,*1E
$GPGSV,1,1,0,,,,,,,,,,,,,,,,*49
$GPRMC,113943.00,A,5522.4301631,N,01024.0782241,E,0.19,0.00,150515,0.0,E,A*3A
$GPGGA,113943.00,5522.4301631,N,01024.0782241,E,1,08,1.0,25.922,M,39.164,M,0.0,*7E
$GPGSA,A,3,12,13,15,17,18,22,24,28,,,,,1.9,0.9,1.7,1*2E
$GPGSV,2,1,08,12,31,227,42,13,20,158,42,15,45,190,43,17,43,083,40,1*61
$GPGSV,2,2,08,18,20,273,36,22,18,307,42,24,67,278,34,28,18,057,44,1*63
$GPRMC,113944.00,A,5522.4309448,N,01024.0782259,E,0.03,0.00,150515,0.0,E,D*3E
$GPGGA,113944.00,5522.4309448,N,01024.0782259,E,5,08,1.0,22.078,M,39.164,M,1.0,*70
$GPGSA,A,3,12,13,15,17,18,22,24,28,,,,,1.9,0.9,1.7,1*2E
$GPGSV,2,1,08,12,31,227,41,13,20,158,42,15,45,190,43,17,43,083,39,1*6C
$GPGSV,2,2,08,18,20,273,36,22,18,307,41,24,67,278,33,28,18,057,44,1*67
$GPRMC,113945.00,A,5522.4309915,N,01024.0782727,E,0.07,0.00,150515,0.0,E,D*32
$GPGGA,113945.00,5522.4309915,N,01024.0782727,E,5,08,1.0,22.220,M,39.164,M,2.0,*74
$GPGSA,A,3,12,13,15,17,18,22,24,28,,,,,1.9,0.9,1.7,1*2E
$GPGSV,2,1,08,12,31,227,42,13,20,158,42,15,45,190,43,17,43,083,40,1*61
$GPGSV,2,2,08,18,20,273,36,22,18,307,42,24,67,278,34,28,18,057,44,1*63
$GPRMC,113946.00,A,5522.4310027,N,01024.0783053,E,0.18,0.00,150515,0.0,E,D*3A
$GPGGA,113946.00,5522.4310027,N,01024.0783053,E,5,08,1.0,22.331,M,39.164,M,1.0,*70
$GPGSA,A,3,12,13,15,17,18,22,24,28,,,,,1.9,0.9,1.7,1*2E
$GPGSV,2,1,08,12,31,227,42,13,20,158,42,15,45,190,43,17,43,083,40,1*61
$GPGSV,2,2,08,18,20,273,36,22,18,307,42,24,67,278,34,28,18,057,44,1*63
$GPRMC,113947.00,A,5522.4310378,N,01024.0783115,E,0.03,0.00,150515,0.0,E,D*3B
$GPGGA,113947.00,5522.4310378,N,01024.0783115,E,5,08,1.0,22.434,M,39.164,M,1.0,*79
$GPGSA,A,3,12,13,15,17,18,22,24,28,,,,,1.9,0.9,1.7,1*2E
$GPGSV,2,1,08,12,31,227,42,13,20,158,42,15,45,190,43,17,43,083,40,1*61
$GPGSV,2,2,08,18,20,273,37,22,18,307,41,24,67,278,34,28,18,057,44,1*61
$GPRMC,113948.00,A,5522.4310332,N,01024.0783224,E,0.08,0.00,150515,0.0,E,D*30
$GPGGA,113948.00,5522.4310332,N,01024.0783224,E,5,08,1.0,22.549,M,39.164,M,1.0,*72
$GPGSA,A,3,12,13,15,17,18,22,24,28,,,,,1.9,0.9,1.7,1*2E
$GPGSV,2,1,08,12,31,227,41,13,20,158,41,15,45,190,41,17,43,083,38,1*6C
$GPGSV,2,2,08,18,20,273,36,22,18,307,40,24,67,278,34,28,18,057,42,1*67
$GPRMC,113949.00,A,5522.4310198,N,01024.0783399,E,0.09,0.00,150515,0.0,E,D*35
$GPGGA,113949.00,5522.4310198,N,01024.0783399,E,5,08,1.0,22.602,M,39.164,M,1.0,*7A
$GPGSA,A,3,12,13,15,17,18,22,24,28,,,,,1.9,0.9,1.7,1*2E
$GPGSV,2,1,08,12,31,227,41,13,20,158,40,15,45,190,41,17,43,083,38,1*6D
$GPGSV,2,2,08,18,20,273,35,22,18,307,40,24,67,278,33,28,18,057,42,1*63
$GPRMC,113950.00,A,5522.4309842,N,01024.0783452,E,0.04,0.00,150515,0.0,E,D*36
$GPGGA,113950.00,5522.4309842,N,01024.0783452,E,5,08,1.0,22.654,M,39.164,M,1.0,*77
$GPGSA,A,3,12,13,15,17,18,22,24,28,,,,,1.9,0.9,1.7,1*2E
$GPGSV,2,1,08,12,31,227,41,13,20,158,41,15,45,190,40,17,43,083,39,1*6C
$GPGSV,2,2,08,18,20,273,35,22,18,307,40,24,67,278,33,28,18,057,42,1*63
$GPRMC,113951.00,A,5522.4309271,N,01024.0783108,E,0.17,0.00,150515,0.0,E,D*35
$GPGGA,113951.00,5522.4309271,N,01024.0783108,E,5,08,1.0,22.649,M,39.164,M,1.0,*7A
$GPGSA,A,3,12,13,15,17,18,22,24,28,,,,,1.9,0.9,1.7,1*2E
$GPGSV,2,1,08,12,31,227,42,13,20,158,42,15,45,190,41,17,43,083,40,1*63
$GPGSV,2,2,08,18,20,273,34,22,18,307,41,24,67,278,35,28,18,057,43,1*64
$GPRMC,113952.00,A,5522.4308919,N,01024.0782691,E,0.08,0.00,150515,0.0,E,D*3A
$GPGGA,113952.00,5522.4308919,N,01024.0782691,E,5,08,1.0,22.765,M,39.164,M,1.0,*74
$GPGSA,A,3,12,13,15,17,18,22,24,28,,,,,1.9,0.9,1.7,1*2E
$GPGSV,2,1,08,12,31,227,43,13,20,158,42,15,45,190,41,17,43,083,41,1*63
$GPGSV,2,2,08,18,20,273,34,22,18,307,41,24,67,278,35,28,18,057,43,1*64
$GPRMC,113953.00,A,5522.4308581,N,01024.0782243,E,0.03,0.00,150515,0.0,E,D*36
$GPGGA,113953.00,5522.4308581,N,01024.0782243,E,5,08,1.0,22.880,M,39.164,M,1.0,*77
$GPGSA,A,3,12,13,15,17,18,22,24,28,,,,,1.9,0.9,1.7,1*2E
$GPGSV,2,1,08,12,31,227,43,13,20,158,42,15,45,190,41,17,43,083,41,1*63
$GPGSV,2,2,08,18,20,273,33,22,18,307,41,24,67,278,35,28,18,057,43,1*63
$GPRMC,113954.00,A,5522.4308274,N,01024.0781746,E,0.16,0.00,150515,0.0,E,D*3B
$GPGGA,113954.00,5522.4308274,N,01024.0781746,E,5,08,1.0,22.952,M,39.164,M,1.0,*70
$GPGSA,A,3,12,13,15,17,18,22,24,28,,,,,1.9,0.9,1.7,1*2E
$GPGSV,2,1,08,12,31,227,43,13,20,158,42,15,45,190,41,17,43,083,40,1*62
$GPGSV,2,2,08,18,20,273,32,22,18,307,41,24,67,278,36,28,18,057,43,1*61
$GPRMC,113955.00,A,5522.4308413,N,01024.0780870,E,0.14,0.00,150515,0.0,E,D*34
$GPGGA,113955.00,5522.4308413,N,01024.0780870,E,5,08,1.0,22.940,M,39.164,M,1.0,*7E
$GPGSA,A,3,12,13,15,17,18,22,24,28,,,,,1.9,0.9,1.7,1*2E
$GPGSV,2,1,08,12,31,227,43,13,20,158,41,15,45,190,41,17,43,083,40,1*61
$GPGSV,2,2,08,18,20,273,32,22,18,307,42,24,67,278,36,28,18,057,43,1*62
$GPRMC,113956.00,A,5522.4308545,N,01024.0780110,E,0.07,0.00,150515,0.0,E,D*38
$GPGGA,113956.00,5522.4308545,N,01024.0780110,E,5,08,1.0,22.877,M,39.164,M,1.0,*75
$GPGSA,A,3,12,13,15,17,18,22,24,28,,,,,1.9,0.9,1.7,1*2E
$GPGSV,2,1,08,12,31,227,43,13,20,158,41,15,45,190,41,17,43,083,40,1*61
$GPGSV,2,2,08,18,20,273,32,22,18,307,42,24,67,278,36,28,18,057,43,1*62
$GPRMC,113957.00,A,5522.4308378,N,01024.0780134,E,0.12,0.00,150515,0.0,E,D*33
$GPGGA,113957.00,5522.4308378,N,01024.0780134,E,5,08,1.0,22.862,M,39.164,M,1.0,*7E
$GPGSA,A,3,12,13,15,17,18,22,24,28,,,,,1.9,0.9,1.7,1*2E
$GPGSV,2,1,08,12,31,227,44,13,20,158,42,15,45,190,41,17,43,083,40,1*65
$GPGSV,2,2,08,18,20,273,33,22,18,307,42,24,67,278,36,28,18,057,43,1*63
$GPRMC,113958.00,A,5522.4308292,N,01024.0779927,E,0.17,0.00,150515,0.0,E,D*30
$GPGGA,113958.00,5522.4308292,N,01024.0779927,E,5,08,1.0,22.779,M,39.164,M,1.0,*7D
$GPGSA,A,3,12,13,15,17,18,22,24,28,,,,,1.9,0.9,1.7,1*2E
$GPGSV,2,1,08,12,31,227,44,13,20,158,42,15,45,190,42,17,43,083,40,1*66
$GPGSV,2,2,08,18,20,273,34,22,18,307,42,24,67,278,36,28,18,057,43,1*64
$GPRMC,113959.00,A,5522.4308179,N,01024.0779547,E,0.23,0.00,150515,0.0,E,D*3A
$GPGGA,113959.00,5522.4308179,N,01024.0779547,E,5,08,1.0,22.639,M,39.164,M,1.0,*75
$GPGSA,A,3,12,13,15,17,18,22,24,28,,,,,1.9,0.9,1.7,1*2E
$GPGSV,2,1,08,12,31,227,42,13,20,158,41,15,45,190,40,17,43,083,39,1*6F
$GPGSV,2,2,08,18,20,273,33,22,18,307,41,24,67,278,35,28,18,057,42,1*62
$GPRMC,114000.00,A,5522.4307970,N,01024.0779593,E,0.03,0.00,150515,0.0,E,D*3D
$GPGGA,114000.00,5522.4307970,N,01024.0779593,E,5,08,1.0,22.532,M,39.164,M,1.0,*78
$GPGSA,A,3,12,13,15,17,18,22,24,28,,,,,1.9,0.9,1.7,1*2E
$GPGSV,2,1,08,12,31,227,44,13,20,158,42,15,45,190,42,17,43,083,39,1*68
$GPGSV,2,2,08,18,20,273,33,22,18,307,43,24,67,278,35,28,18,057,42,1*60
$GPRMC,114001.00,A,5522.4307704,N,01024.0779543,E,0.11,0.00,150515,0.0,E,D*3F
$GPGGA,114001.00,5522.4307704,N,01024.0779543,E,5,08,1.0,22.394,M,39.164,M,1.0,*73
$GPGSA,A,3,12,13,15,17,18,22,24,28,,,,,1.9,0.9,1.7,1*2E
$GPGSV,2,1,08,12,31,227,44,13,20,158,42,15,45,190,42,17,43,083,40,1*66
$GPGSV,2,2,08,18,20,273,34,22,18,307,43,24,67,278,36,28,18,057,43,1*65
$GPRMC,114002.00,A,5522.4307425,N,01024.0779440,E,0.30,0.00,150515,0.0,E,D*3D
$GPGGA,114002.00,5522.4307425,N,01024.0779440,E,5,08,1.0,22.233,M,39.164,M,1.0,*7E
$GPGSA,A,3,12,13,15,17,18,22,24,28,,,,,1.9,0.9,1.7,1*2E
$GPGSV,2,1,08,12,31,227,44,13,20,158,42,15,45,190,42,17,43,083,40,1*66
$GPGSV,2,2,08,18,20,273,34,22,18,307,43,24,67,278,37,28,18,057,43,1*64
$GPRMC,114003.00,A,5522.4307184,N,01024.0779417,E,0.07,0.00,150515,0.0,E,D*34
$GPGGA,114003.00,5522.4307184,N,01024.0779417,E,5,08,1.0,22.074,M,39.164,M,2.0,*71
$GPGSA,A,3,12,13,15,17,18,22,24,28,,,,,1.9,0.9,1.7,1*2E
$GPGSV,2,1,08,12,31,227,44,13,20,158,42,15,45,190,43,17,43,083,40,1*67
$GPGSV,2,2,08,18,20,273,34,22,18,307,43,24,67,278,36,28,18,057,43,1*65
$GPRMC,114004.00,A,5522.4306830,N,01024.0779186,E,0.20,0.00,150515,0.0,E,D*3C
$GPGGA,114004.00,5522.4306830,N,01024.0779186,E,5,08,1.0,21.921,M,39.164,M,1.0,*75
$GPGSA,A,3,12,13,15,17,18,22,24,28,,,,,1.9,0.9,1.7,1*2E
$GPGSV,2,1,08,12,31,227,43,13,20,158,42,15,45,190,43,17,43,083,40,1*60
$GPGSV,2,2,08,18,20,273,34,22,18,307,43,24,67,278,36,28,18,057,43,1*65
$GPRMC,114005.00,A,5522.4306560,N,01024.0778993,E,0.19,0.00,150515,0.0,E,D*32
$GPGGA,114005.00,5522.4306560,N,01024.0778993,E,5,08,1.0,21.798,M,39.164,M,1.0,*7D
$GPGSA,A,3,12,13,15,17,18,22,24,28,,,,,1.9,0.9,1.7,1*2E
$GPGSV,2,1,08,12,31,227,43,13,20,158,42,15,45,190,43,17,43,083,40,1*60
$GPGSV,2,2,08,18,20,273,34,22,18,307,43,24,67,278,36,28,18,057,43,1*65
$GPRMC,114006.00,A,5522.4306313,N,01024.0778890,E,0.07,0.00,150515,0.0,E,D*3E
$GPGGA,114006.00,5522.4306313,N,01024.0778890,E,5,08,1.0,21.654,M,39.164,M,1.0,*7F
$GPGSA,A,3,12,13,15,17,18,22,24,28,,,,,1.9,0.9,1.7,1*2E
$GPGSV,2,1,08,12,31,227,43,13,20,158,41,15,45,190,43,17,43,083,40,1*63
$GPGSV,2,2,08,18,20,273,34,22,18,307,42,24,67,278,36,28,18,057,43,1*64
$GPRMC,114007.00,A,5522.4306080,N,01024.0778808,E,0.14,0.00,150515,0.0,E,D*35
$GPGGA,114007.00,5522.4306080,N,01024.0778808,E,5,08,1.0,21.474,M,39.164,M,1.0,*76
$GPGSA,A,3,12,13,15,17,18,22,24,28,,,,,1.9,0.9,1.7,1*2E
$GPGSV,2,1,08,12,31,227,43,13,20,158,41,15,45,190,42,17,43,083,40,1*62
$GPGSV,2,2,08,18,20,273,34,22,18,307,42,24,67,278,34,28,18,057,43,1*66
$GPRMC,114008.00,A,5522.4305882,N,01024.0778692,E,0.06,0.00,150515,0.0,E,D*3D
$GPGGA,114008.00,5522.4305882,N,01024.0778692,E,5,08,1.0,21.344,M,39.164,M,1.0,*79
$GPGSA,A,3,12,13,15,17,18,22,24,28,,,,,1.9,0.9,1.7,1*2E
$GPGSV,2,1,08,12,31,227,43,13,20,158,41,15,45,190,42,17,43,083,40,1*62
$GPGSV,2,2,08,18,20,273,35,22,18,307,42,24,67,278,34,28,18,057,43,1*67
$GPRMC,114009.00,A,5522.4305681,N,01024.0778521,E,0.37,0.00,150515,0.0,E,D*38
$GPGGA,114009.00,5522.4305681,N,01024.0778521,E,5,08,1.0,21.201,M,39.164,M,1.0,*7E
$GPGSA,A,3,12,13,15,17,18,22,24,28,,,,,1.9,0.9,1.7,1*2E
$GPGSV,2,1,08,12,31,227,43,13,20,158,41,15,45,190,43,17,43,083,40,1*63
$GPGSV,2,2,08,18,20,273,35,22,18,307,42,24,67,278,34,28,18,057,43,1*67
$GPRMC,114010.00,A,5522.4305525,N,01024.0778339,E,0.17,0.00,150515,0.0,E,D*30
$GPGGA,114010.00,5522.4305525,N,01024.0778339,E,5,08,1.0,21.099,M,39.164,M,1.0,*77
$GPGSA,A,3,12,13,15,17,18,22,24,28,,,,,1.9,0.9,1.7,1*2E
$GPGSV,2,1,08,12,31,227,42,13,20,158,41,15,45,190,43,17,43,083,40,1*62
$GPGSV,2,2,08,18,20,273,35,22,18,307,42,24,67,278,35,28,18,057,43,1*66
$GPRMC,114011.00,A,5522.4305293,N,01024.0778209,E,0.03,0.00,150515,0.0,E,D*3C
$GPGGA,114011.00,5522.4305293,N,01024.0778209,E,5,08,1.0,20.973,M,39.164,M,1.0,*72
$GPGSA,A,3,12,13,15,17,18,22,24,28,,,,,1.9,0.9,1.7,1*2E
$GPGSV,2,1,08,12,31,227,42,13,20,158,41,15,45,190,42,17,43,083,39,1*6D
$GPGSV,2,2,08,18,20,273,35,22,18,307,42,24,67,278,34,28,18,057,43,1*67
$GPRMC,114012.00,A,5522.4305101,N,01024.0777943,E,0.20,0.00,150515,0.0,E,D*3C
$GPGGA,114012.00,5522.4305101,N,01024.0777943,E,5,08,1.0,20.907,M,39.164,M,1.0,*70
$GPGSA,A,3,12,13,15,17,18,22,24,28,,,,,1.9,0.9,1.7,1*2E
$GPGSV,2,1,08,12,31,227,42,13,20,158,41,15,45,190,43,17,43,083,39,1*6C
$GPGSV,2,2,08,18,20,273,35,22,18,307,42,24,67,278,35,28,18,057,43,1*66
$GPRMC,114013.00,A,5522.4304939,N,01024.0777699,E,0.06,0.00,150515,0.0,E,D*33
$GPGGA,114013.00,5522.4304939,N,01024.0777699,E,5,08,1.0,20.856,M,39.164,M,1.0,*7E
$GPGSA,A,3,12,13,15,17,18,22,24,28,,,,,1.9,0.9,1.7,1*2E
$GPGSV,2,1,08,12,31,227,42,13,20,158,41,15,45,190,43,17,43,083,39,1*6C
$GPGSV,2,2,08,18,20,273,35,22,18,307,42,24,67,278,36,28,18,057,43,1*65
$GPRMC,114014.00,A,5522.4304868,N,01024.0777495,E,0.17,0.00,150515,0.0,E,D*3F
$GPGGA,114014.00,5522.4304868,N,01024.0777495,E,5,08,1.0,20.792,M,39.164,M,1.0,*75
$GPGSA,A,3,12,13,15,17,18,22,24,28,,,,,1.9,0.9,1.7,1*2E
$GPGSV,2,1,08,12,31,227,42,13,20,158,41,15,45,190,43,17,43,083,39,1*6C
$GPGSV,2,2,08,18,20,273,34,22,18,307,42,24,67,278,36,28,18,057,43,1*64
$GPRMC,114015.00,A,5522.4304784,N,01024.0777235,E,0.21,0.00,150515,0.0,E,D*3A
$GPGGA,114015.00,5522.4304784,N,01024.0777235,E,5,08,1.0,20.753,M,39.164,M,2.0,*7B
$GPGSA,A,3,12,13,15,17,18,22,24,28,,,,,1.9,0.9,1.7,1*2E
$GPGSV,2,1,08,12,31,227,42,13,20,158,41,15,45,190,43,17,43,083,40,1*62
$GPGSV,2,2,08,18,20,273,35,22,18,307,42,24,67,278,36,28,18,057,43,1*65
$GPRMC,114016.00,A,5522.4304775,N,01024.0777057,E,0.09,0.00,150515,0.0,E,D*3B
$GPGGA,114016.00,5522.4304775,N,01024.0777057,E,5,08,1.0,20.713,M,39.164,M,1.0,*77
$GPGSA,A,3,12,13,15,17,18,22,24,28,,,,,1.9,0.9,1.7,1*2E
$GPGSV,2,1,08,12,31,227,42,13,20,158,41,15,45,190,43,17,43,083,40,1*62
$GPGSV,2,2,08,18,20,273,34,22,18,307,42,24,67,278,36,28,18,057,44,1*63
$GPRMC,114017.00,A,5522.4304777,N,01024.0776823,E,0.11,0.00,150515,0.0,E,D*3B
$GPGGA,114017.00,5522.4304777,N,01024.0776823,E,5,08,1.0,20.655,M,39.164,M,1.0,*7D
$GPGSA,A,3,12,13,15,17,18,22,24,28,,,,,1.9,0.9,1.7,1*2E
$GPGSV,2,1,08,12,31,227,42,13,20,158,41,15,45,190,43,17,43,083,40,1*62
$GPGSV,2,2,08,18,20,273,34,22,18,307,42,24,67,278,36,28,18,057,44,1*63
$GPRMC,114018.00,A,5522.4304771,N,01024.0776626,E,0.31,0.00,150515,0.0,E,D*3B
$GPGGA,114018.00,5522.4304771,N,01024.0776626,E,5,08,1.0,20.620,M,39.164,M,1.0,*7D
$GPGSA,A,3,12,13,15,17,18,22,24,28,,,,,1.9,0.9,1.7,1*2E
$GPGSV,2,1,08,12,31,227,42,13,20,158,41,15,45,190,43,17,43,083,40,1*62
$GPGSV,2,2,08,18,20,273,34,22,18,307,42,24,67,278,35,28,18,057,44,1*60
$GPRMC,114019.00,A,5522.4304821,N,01024.0776379,E,0.13,0.00,150515,0.0,E,D*3F
$GPGGA,114019.00,5522.4304821,N,01024.0776379,E,5,08,1.0,20.578,M,39.164,M,1.0,*77
$GPGSA,A,3,12,13,15,17,18,22,24,28,,,,,1.9,0.9,1.7,1*2E
$GPGSV,2,1,08,12,31,227,43,13,20,158,41,15,45,190,43,17,43,083,40,1*63
$GPGSV,2,2,08,18,20,273,34,22,18,307,42,24,67,278,35,28,18,057,44,1*60
$GPRMC,114020.00,A,5522.4304890,N,01024.0776123,E,0.13,0.00,150515,0.0,E,D*32
$GPGGA,114020.00,5522.4304890,N,01024.0776123,E,5,08,1.0,20.565,M,39.164,M,1.0,*76
$GPGSA,A,3,12,13,15,17,18,22,24,28,,,,,1.9,0.9,1.7,1*2E
$GPGSV,2,1,08,12,31,227,41,13,20,158,40,15,45,190,42,17,43,083,38,1*6E
$GPGSV,2,2,08,18,20,273,33,22,18,307,41,24,67,278,35,28,18,057,42,1*62
$GPRMC,114021.00,A,5522.4304969,N,01024.0775893,E,0.17,0.00,150515,0.0,E,D*31
$GPGGA,114021.00,5522.4304969,N,01024.0775893,E,5,08,1.0,20.512,M,39.164,M,2.0,*72
$GPGSA,A,3,12,13,15,17,18,22,24,28,,,,,1.9,0.9,1.7,1*2E
$GPGSV,2,1,08,12,31,227,42,13,20,158,41,15,45,190,43,17,43,083,40,1*62
$GPGSV,2,2,08,18,20,273,32,22,18,307,42,24,67,278,34,28,18,057,43,1*60
$GPRMC,114022.00,A,5522.4305099,N,01024.0775696,E,0.12,0.00,150515,0.0,E,D*3B
$GPGGA,114022.00,5522.4305099,N,01024.0775696,E,5,08,1.0,20.483,M,39.164,M,1.0,*77
$GPGSA,A,3,12,13,15,17,18,22,24,28,,,,,1.9,0.9,1.7,1*2E
$GPGSV,2,1,08,12,31,227,42,13,20,158,41,15,45,190,43,17,43,083,40,1*62
$GPGSV,2,2,08,18,20,273,33,22,18,307,42,24,67,278,34,28,18,057,43,1*61
$GPRMC,114023.00,A,5522.4305196,N,01024.0775500,E,0.15,0.00,150515,0.0,E,D*3F
$GPGGA,114023.00,5522.4305196,N,01024.0775500,E,5,08,1.0,20.469,M,39.164,M,1.0,*70
$GPGSA,A,3,12,13,15,17,18,22,24,28,,,,,1.9,0.9,1.7,1*2E
$GPGSV,2,1,08,12,31,227,42,13,20,158,41,15,45,190,43,17,43,083,40,1*62
$GPGSV,2,2,08,18,20,273,32,22,18,307,42,24,67,278,33,28,18,057,43,1*67
$GPRMC,114024.00,A,5522.4305263,N,01024.0775441,E,0.43,0.00,150515,0.0,E,D*36
$GPGGA,114024.00,5522.4305263,N,01024.0775441,E,5,08,1.0,20.469,M,39.164,M,1.0,*7A
$GPGSA,A,3,12,13,15,17,18,22,24,28,,,,,1.9,0.9,1.7,1*2E
$GPGSV,2,1,08,12,31,227,41,13,20,158,40,15,45,190,42,17,43,083,39,1*6F
$GPGSV,2,2,08,18,20,273,33,22,18,307,42,24,67,278,34,28,18,057,42,1*60
$GPRMC,114025.00,A,5522.4305275,N,01024.0775379,E,0.13,0.00,150515,0.0,E,D*39
$GPGGA,114025.00,5522.4305275,N,01024.0775379,E,5,08,1.0,20.485,M,39.164,M,1.0,*72
$GPGSA,A,3,12,13,15,17,18,22,24,28,,,,,1.9,0.9,1.7,1*2E
$GPGSV,2,1,08,12,31,227,41,13,20,158,40,15,45,190,42,17,43,083,38,1*6E
$GPGSV,2,2,08,18,20,273,31,22,18,307,40,24,67,278,33,28,18,057,42,1*67
$GPRMC,114026.00,A,5522.4305285,N,01024.0775251,E,0.06,0.00,150515,0.0,E,D*3A
$GPGGA,114026.00,5522.4305285,N,01024.0775251,E,5,08,1.0,20.510,M,39.164,M,1.0,*78
$GPGSA,A,3,12,13,15,17,18,22,24,28,,,,,1.9,0.9,1.7,1*2E
$GPGSV,2,1,08,12,31,227,42,13,20,158,42,15,45,190,43,17,43,083,39,1*6F
$GPGSV,2,2,08,18,20,273,32,22,18,307,41,24,67,278,34,28,18,057,43,1*63
$GPRMC,114027.00,A,5522.4305273,N,01024.0775133,E,0.18,0.00,150515,0.0,E,D*3A
$GPGGA,114027.00,5522.4305273,N,01024.0775133,E,5,08,1.0,20.539,M,39.164,M,1.0,*7C
$GPGSA,A,3,12,13,15,17,18,22,24,28,,,,,1.9,0.9,1.7,1*2E
$GPGSV,2,1,08,12,31,227,43,13,20,158,42,15,45,190,43,17,43,083,40,1*60
$GPGSV,2,2,08,18,20,273,32,22,18,307,42,24,67,278,35,28,18,057,43,1*61
$GPRMC,114028.00,A,5522.4305258,N,01024.0774979,E,0.12,0.00,150515,0.0,E,D*31
$GPGGA,114028.00,5522.4305258,N,01024.0774979,E,5,08,1.0,20.568,M,39.164,M,1.0,*79
$GPGSA,A,3,12,13,15,17,18,22,24,28,,,,,1.9,0.9,1.7,1*2E
$GPGSV,2,1,08,12,31,227,41,13,20,158,40,15,45,190,41,17,43,083,38,1*6D
$GPGSV,2,2,08,18,20,273,32,22,18,307,40,24,67,278,33,28,18,057,42,1*64
$GPRMC,114029.00,A,5522.4305269,N,01024.0774857,E,0.09,0.00,150515,0.0,E,D*35
$GPGGA,114029.00,5522.4305269,N,01024.0774857,E,5,08,1.0,20.602,M,39.164,M,1.0,*78
$GPGSA,A,3,12,13,15,17,18,22,24,28,,,,,1.9,0.9,1.7,1*2E
$GPGSV,2,1,08,12,31,227,41,13,20,158,40,15,45,190,42,17,43,083,39,1*6F
$GPGSV,2,2,08,18,20,273,32,22,18,307,40,24,67,278,34,28,18,057,42,1*63
$GPRMC,114030.00,A,5522.4305295,N,01024.0774714,E,0.04,0.00,150515,0.0,E,D*3B
$GPGGA,114030.00,5522.4305295,N,01024.0774714,E,5,08,1.0,20.657,M,39.164,M,1.0,*7B
$GPGSA,A,3,12,13,15,17,18,22,24,28,,,,,1.9,0.9,1.7,1*2E
$GPGSV,2,1,08,12,31,227,43,13,20,158,42,15,45,190,43,17,43,083,40,1*60
$GPGSV,2,2,08,18,20,273,32,22,18,307,42,24,67,278,36,28,18,057,44,1*65
$GPRMC,114031.00,A,5522.4305363,N,01024.0774541,E,0.13,0.00,150515,0.0,E,D*36
$GPGGA,114031.00,5522.4305363,N,01024.0774541,E,5,08,1.0,20.684,M,39.164,M,1.0,*7E
$GPGSA,A,3,12,13,15,17,18,22,24,28,,,,,1.9,0.9,1.7,1*2E
$GPGSV,2,1,08,12,31,227,41,13,20,158,41,15,45,190,42,17,43,083,39,1*6E
$GPGSV,2,2,08,18,20,273,31,22,18,307,40,24,67,278,35,28,18,057,42,1*61
$GPRMC,114032.00,A,5522.4305426,N,01024.0774383,E,0.17,0.00,150515,0.0,E,D*3F
$GPGGA,114032.00,5522.4305426,N,01024.0774383,E,5,08,1.0,20.738,M,39.164,M,1.0,*75
$GPGSA,A,3,12,13,15,17,18,22,24,28,,,,,1.9,0.9,1.7,1*2E
$GPGSV,2,1,08,12,31,227,41,13,20,158,41,15,45,190,41,17,43,083,39,1*6D
$GPGSV,2,2,08,18,20,273,31,22,18,307,41,24,67,278,35,28,18,057,42,1*60
$GPRMC,114033.00,A,5522.4305494,N,01024.0774232,E,0.11,0.00,150515,0.0,E,D*3A
$GPGGA,114033.00,5522.4305494,N,01024.0774232,E,5,08,1.0,20.787,M,39.164,M,1.0,*72
$GPGSA,A,3,12,13,15,17,18,22,24,28,,,,,1.9,0.9,1.7,1*2E
$GPGSV,2,1,08,12,31,227,41,13,20,158,41,15,45,190,42,17,43,083,39,1*6E
$GPGSV,2,2,08,18,20,273,31,22,18,307,41,24,67,278,35,28,18,057,42,1*60
$GPRMC,114034.00,A,5522.4305535,N,01024.0774143,E,0.07,0.00,150515,0.0,E,D*35
$GPGGA,114034.00,5522.4305535,N,01024.0774143,E,5,08,1.0,20.823,M,39.164,M,1.0,*7B
$GPGSA,A,3,12,13,15,17,18,22,24,28,,,,,1.9,0.9,1.7,1*2E
$GPGSV,2,1,08,12,31,227,41,13,20,158,41,15,45,190,41,17,43,083,39,1*6D
$GPGSV,2,2,08,18,20,273,31,22,18,307,41,24,67,278,36,28,18,057,42,1*63
$GPRMC,114035.00,A,5522.4305548,N,01024.0774165,E,0.10,0.00,150515,0.0,E,D*3C
$GPGGA,114035.00,5522.4305548,N,01024.0774165,E,5,08,1.0,20.877,M,39.164,M,1.0,*75
$GPGSA,A,3,12,13,15,17,18,22,24,28,,,,,1.9,0.9,1.7,1*2E
$GPGSV,2,1,08,12,31,227,41,13,20,158,41,15,45,190,41,17,43,083,39,1*6D
$GPGSV,2,2,08,18,20,273,32,22,18,307,41,24,67,278,36,28,18,057,42,1*60
$GPRMC,114036.00,A,5522.4305529,N,01024.0774309,E,0.10,0.00,150515,0.0,E,D*30
$GPGGA,114036.00,5522.4305529,N,01024.0774309,E,5,08,1.0,20.941,M,39.164,M,1.0,*7D
$GPGSA,A,3,12,13,15,17,18,22,24,28,,,,,1.9,0.9,1.7,1*2E
$GPGSV,2,1,08,12,31,227,41,13,20,158,41,15,45,190,42,17,43,083,39,1*6E
$GPGSV,2,2,08,18,20,273,32,22,18,307,41,24,67,278,36,28,18,057,42,1*60
$GPRMC,114037.00,A,5522.4305396,N,01024.0774470,E,0.09,0.00,150515,0.0,E,D*32
$GPGGA,114037.00,5522.4305396,N,01024.0774470,E,5,08,1.0,21.009,M,39.164,M,1.0,*73
$GPGSA,A,3,12,13,15,17,18,22,24,28,,,,,1.9,0.9,1.7,1*2E
$GPGSV,2,1,08,12,31,227,42,13,20,158,41,15,45,190,42,17,43,083,40,1*63
$GPGSV,2,2,08,18,20,273,32,22,18,307,41,24,67,278,36,28,18,057,43,1*61
$GPRMC,114038.00,A,5522.4305367,N,01024.0774457,E,0.05,0.00,150515,0.0,E,D*3A
$GPGGA,114038.00,5522.4305367,N,01024.0774457,E,5,08,1.0,21.034,M,39.164,M,1.0,*79
$GPGSA,A,3,12,13,15,17,18,22,24,28,,,,,1.9,0.9,1.7,1*2E
$GPGSV,2,1,08,12,31,227,42,13,20,158,42,15,45,190,42,17,43,083,40,1*60
$GPGSV,2,2,08,18,20,273,32,22,18,307,41,24,67,278,37,28,18,057,43,1*60
$GPRMC,114039.00,A,5522.4305284,N,01024.0774425,E,0.12,0.00,150515,0.0,E,D*34
$GPGGA,114039.00,5522.4305284,N,01024.0774425,E,5,08,1.0,21.051,M,39.164,M,1.0,*72
$GPGSA,A,3,12,13,15,17,18,22,24,28,,,,,1.9,0.9,1.7,1*2E
$GPGSV,2,1,08,12,31,227,43,13,20,158,43,15,45,190,43,17,43,083,41,1*60
$GPGSV,2,2,08,18,20,273,33,22,18,307,43,24,67,278,37,28,18,057,44,1*64
$GPRMC,114040.00,A,5522.4305170,N,01024.0774423,E,0.04,0.00,150515,0.0,E,D*33
$GPGGA,114040.00,5522.4305170,N,01024.0774423,E,5,08,1.0,21.098,M,39.164,M,1.0,*77
$GPGSA,A,3,12,13,15,17,18,22,24,28,,,,,1.9,0.9,1.7,1*2E
$GPGSV,2,1,08,12,31,227,42,13,20,158,43,15,45,190,43,17,43,083,41,1*61
$GPGSV,2,2,08,18,20,273,34,22,18,307,43,24,67,278,38,28,18,057,44,1*6C
$GPRMC,114041.00,A,5522.4305100,N,01024.0774419,E,0.06,0.00,150515,0.0,E,D*3E
$GPGGA,114041.00,5522.4305100,N,01024.0774419,E,5,08,1.0,21.128,M,39.164,M,1.0,*72
$GPGSA,A,3,12,13,15,17,18,22,24,28,,,,,1.9,0.9,1.7,1*2E
$GPGSV,2,1,08,12,31,227,42,13,20,158,41,15,45,190,42,17,43,083,40,1*63
$GPGSV,2,2,08,18,20,273,33,22,18,307,41,24,67,278,35,28,18,057,43,1*63
$GPRMC,114042.00,A,5522.4304991,N,01024.0774409,E,0.04,0.00,150515,0.0,E,D*3F
$GPGGA,114042.00,5522.4304991,N,01024.0774409,E,5,08,1.0,21.156,M,39.164,M,1.0,*78
$GPGSA,A,3,12,13,15,17,18,22,24,28,,,,,1.9,0.9,1.7,1*2E
$GPGSV,2,1,08,12,31,227,42,13,20,158,41,15,45,190,42,17,43,083,40,1*63
$GPGSV,2,2,08,18,20,273,34,22,18,307,41,24,67,278,35,28,18,057,43,1*64
$GPRMC,114043.00,A,5522.4304895,N,01024.0774340,E,0.12,0.00,150515,0.0,E,D*36
$GPGGA,114043.00,5522.4304895,N,01024.0774340,E,5,08,1.0,21.193,M,39.164,M,1.0,*7F
$GPGSA,A,3,12,13,15,17,18,22,24,28,,,,,1.9,0.9,1.7,1*2E
$GPGSV,2,1,08,12,31,227,42,13,20,158,41,15,45,190,42,17,43,083,40,1*63
$GPGSV,2,2,08,18,20,273,33,22,18,307,41,24,67,278,35,28,18,057,43,1*63
$GPRMC,114044.00,A,5522.4304816,N,01024.0774341,E,0.10,0.00,150515,0.0,E,D*39
$GPGGA,114044.00,5522.4304816,N,01024.0774341,E,5,08,1.0,21.233,M,39.164,M,1.0,*7B
$GPGSA,A,3,12,13,15,17,18,22,24,28,,,,,1.9,0.9,1.7,1*2E
$GPGSV,2,1,08,12,31,227,42,13,20,158,41,15,45,190,42,17,43,083,40,1*63
$GPGSV,2,2,08,18,20,273,34,22,18,307,41,24,67,278,35,28,18,057,42,1*65
$GPRMC,114045.00,A,5522.4304750,N,01024.0774269,E,0.10,0.00,150515,0.0,E,D*3E
$GPGGA,114045.00,5522.4304750,N,01024.0774269,E,5,08,1.0,21.262,M,39.164,M,1.0,*78
$GPGSA,A,3,12,13,15,17,18,22,24,28,,,,,1.9,0.9,1.7,1*2E
$GPGSV,2,1,08,12,31,227,42,13,20,158,41,15,45,190,42,17,43,083,40,1*63
$GPGSV,2,2,08,18,20,273,33,22,18,307,41,24,67,278,35,28,18,057,42,1*62
$GPRMC,114046.00,A,5522.4304725,N,01024.0774129,E,0.18,0.00,150515,0.0,E,D*30
$GPGGA,114046.00,5522.4304725,N,01024.0774129,E,5,08,1.0,21.302,M,39.164,M,1.0,*79
$GPGSA,A,3,12,13,15,17,18,22,24,28,,,,,1.9,0.9,1.7,1*2E
$GPGSV,2,1,08,12,31,227,42,13,19,158,42,15,45,190,42,17,43,082,40,1*6B
$GPGSV,2,2,08,18,20,273,33,22,18,307,41,24,67,278,35,28,18,057,42,1*62
$GPRMC,114047.00,A,5522.4304731,N,01024.0773946,E,0.05,0.00,150515,0.0,E,D*3E
$GPGGA,114047.00,5522.4304731,N,01024.0773946,E,5,08,1.0,21.339,M,39.164,M,1.0,*73
$GPGSA,A,3,12,13,15,17,18,22,24,28,,,,,1.9,0.9,1.7,1*2E
$GPGSV,2,1,08,12,31,227,43,13,19,158,43,15,45,190,44,17,43,082,42,1*6F
$GPGSV,2,2,08,18,20,273,33,22,18,307,42,24,67,278,37,28,18,057,44,1*65
$GPRMC,114048.00,A,5522.4304756,N,01024.0773759,E,0.25,0.00,150515,0.0,E,D*32
$GPGGA,114048.00,5522.4304756,N,01024.0773759,E,5,08,1.0,21.372,M,39.164,M,1.0,*72
$GPGSA,A,3,12,13,15,17,18,22,24,28,,,,,1.9,0.9,1.7,1*2E
$GPGSV,2,1,08,12,31,227,43,13,19,158,43,15,45,190,44,17,43,082,42,1*6F
$GPGSV,2,2,08,18,20,273,33,22,18,307,42,24,67,278,37,28,18,057,44,1*65
$GPRMC,114049.00,A,5522.4304806,N,01024.0773606,E,0.07,0.00,150515,0.0,E,D*32
$GPGGA,114049.00,5522.4304806,N,01024.0773606,E,5,08,1.0,21.392,M,39.164,M,1.0,*7C
$GPGSA,A,3,12,13,15,17,18,22,24,28,,,,,1.9,0.9,1.7,1*2E
$GPGSV,2,1,08,12,31,227,43,13,19,158,43,15,45,190,44,17,43,082,42,1*6F
$GPGSV,2,2,08,18,20,273,33,22,18,307,42,24,67,278,37,28,18,057,44,1*65
$GPRMC,114050.00,A,5522.4304901,N,01024.0773415,E,0.11,0.00,150515,0.0,E,D*3B
$GPGGA,114050.00,5522.4304901,N,01024.0773415,E,5,08,1.0,21.407,M,39.164,M,1.0,*79
$GPGSA,A,3,12,13,15,17,18,22,24,28,,,,,1.9,0.9,1.7,1*2E
$GPGSV,2,1,08,12,31,227,42,13,19,158,43,15,45,190,42,17,43,082,41,1*6B
$GPGSV,2,2,08,18,20,273,33,22,18,307,41,24,67,278,35,28,18,057,43,1*63
$GPRMC,114051.00,A,5522.4304963,N,01024.0773235,E,0.14,0.00,150515,0.0,E,D*3F
$GPGGA,114051.00,5522.4304963,N,01024.0773235,E,5,08,1.0,21.428,M,39.164,M,1.0,*75
$GPGSA,A,3,12,13,15,17,18,22,24,28,,,,,1.9,0.9,1.7,1*2E
$GPGSV,2,1,08,12,31,227,43,13,19,158,43,15,45,190,43,17,43,082,41,1*6B
$GPGSV,2,2,08,18,20,273,33,22,18,307,41,24,67,278,35,28,18,057,43,1*63
$GPRMC,114052.00,A,5522.4305095,N,01024.0773043,E,0.15,0.00,150515,0.0,E,D*3F
$GPGGA,114052.00,5522.4305095,N,01024.0773043,E,5,08,1.0,21.466,M,39.164,M,1.0,*7E
$GPGSA,A,3,12,13,15,17,18,22,24,28,,,,,1.9,0.9,1.7,1*2E
$GPGSV,2,1,08,12,31,227,43,13,19,158,43,15,45,190,43,17,43,082,41,1*6B
$GPGSV,2,2,08,18,20,273,33,22,18,307,41,24,67,278,35,28,18,057,43,1*63
$GPRMC,114053.00,A,5522.4305178,N,01024.0772935,E,0.12,0.00,150515,0.0,E,D*32
$GPGGA,114053.00,5522.4305178,N,01024.0772935,E,5,08,1.0,21.495,M,39.164,M,2.0,*7B
$GPGSA,A,3,12,13,15,17,18,22,24,28,,,,,1.9,0.9,1.7,1*2E
$GPGSV,2,1,08,12,31,227,43,13,19,158,43,15,45,190,42,17,43,082,41,1*6A
$GPGSV,2,2,08,18,20,273,33,22,18,307,41,24,67,278,36,28,18,057,43,1*60
$GPRMC,114054.00,A,5522.4305285,N,01024.0772828,E,0.02,0.00,150515,0.0,E,D*38
$GPGGA,114054.00,5522.4305285,N,01024.0772828,E,5,08,1.0,21.528,M,39.164,M,1.0,*74
$GPGSA,A,3,12,13,15,17,18,22,24,28,,,,,1.9,0.9,1.7,1*2E
$GPGSV,2,1,08,12,31,227,43,13,19,158,43,15,44,190,43,17,43,082,41,1*6A
$GPGSV,2,2,08,18,19,273,33,22,18,307,41,24,68,278,36,28,18,057,43,1*65
$GPRMC,114055.00,A,5522.4305393,N,01024.0772800,E,0.11,0.00,150515,0.0,E,D*37
$GPGGA,114055.00,5522.4305393,N,01024.0772800,E,5,08,1.0,21.553,M,39.164,M,1.0,*75
$GPGSA,A,3,12,13,15,17,18,22,24,28,,,,,1.9,0.9,1.7,1*2E
$GPGSV,2,1,08,12,31,227,43,13,19,158,43,15,44,190,43,17,43,082,40,1*6B
$GPGSV,2,2,08,18,19,273,34,22,18,307,41,24,68,278,36,28,18,057,43,1*62
$GPRMC,114056.00,A,5522.4305439,N,01024.0772798,E,0.08,0.00,150515,0.0,E,D*35
$GPGGA,114056.00,5522.4305439,N,01024.0772798,E,5,08,1.0,21.580,M,39.164,M,1.0,*71
$GPGSA,A,3,12,13,15,17,18,22,24,28,,,,,1.9,0.9,1.7,1*2E
$GPGSV,2,1,08,12,31,227,42,13,19,158,43,15,44,190,43,17,43,082,40,1*6A
$GPGSV,2,2,08,18,19,273,34,22,18,307,41,24,68,278,36,28,18,057,43,1*62
$GPRMC,114057.00,A,5522.4305505,N,01024.0772803,E,0.12,0.00,150515,0.0,E,D*3C
$GPGGA,114057.00,5522.4305505,N,01024.0772803,E,5,08,1.0,21.607,M,39.164,M,1.0,*7F
$GPGSA,A,3,12,13,15,17,18,22,24,28,,,,,1.9,0.9,1.7,1*2E
$GPGSV,2,1,08,12,31,227,43,13,19,158,43,15,44,190,43,17,43,082,40,1*6B
$GPGSV,2,2,08,18,19,273,34,22,18,307,41,24,68,278,36,28,18,057,43,1*62
$GPRMC,114058.00,A,5522.4305579,N,01024.0772905,E,0.21,0.00,150515,0.0,E,D*3F
$GPGGA,114058.00,5522.4305579,N,01024.0772905,E,5,08,1.0,21.626,M,39.164,M,1.0,*7F
$GPGSA,A,3,12,13,15,17,18,22,24,28,,,,,1.9,0.9,1.7,1*2E
$GPGSV,2,1,08,12,31,227,42,13,19,158,42,15,44,190,43,17,43,082,40,1*6B
$GPGSV,2,2,08,18,19,273,34,22,18,307,41,24,68,278,35,28,18,057,41,1*63
$GPRMC,114059.00,A,5522.4305614,N,01024.0772973,E,0.16,0.00,150515,0.0,E,D*33
$GPGGA,114059.00,5522.4305614,N,01024.0772973,E,5,08,1.0,21.627,M,39.164,M,1.0,*76
$GPGSA,A,3,12,13,15,17,18,22,24,28,,,,,1.9,0.9,1.7,1*2E
$GPGSV,2,1,08,12,31,227,42,13,19,158,42,15,44,190,41,17,43,082,40,1*69
$GPGSV,2,2,08,18,19,273,34,22,18,307,41,24,68,278,36,28,18,057,42,1*63
$GPRMC,114100.00,A,5522.4305689,N,01024.0773058,E,0.20,0.00,150515,0.0,E,D*3E
$GPGGA,114100.00,5522.4305689,N,01024.0773058,E,5,08,1.0,21.679,M,39.164,M,1.0,*75
$GPGSA,A,3,12,13,15,17,18,22,24,28,,,,,1.9,0.9,1.7,1*2E
$GPGSV,2,1,08,12,31,227,42,13,19,158,42,15,44,190,41,17,43,082,39,1*67
$GPGSV,2,2,08,18,19,273,34,22,18,307,42,24,68,278,36,28,18,057,42,1*60
$GPRMC,114101.00,A,5522.4305711,N,01024.0773134,E,0.06,0.00,150515,0.0,E,D*30
$GPGGA,114101.00,5522.4305711,N,01024.0773134,E,5,08,1.0,21.702,M,39.164,M,1.0,*72
$GPGSA,A,3,12,13,15,17,18,22,24,28,,,,,1.9,0.9,1.7,1*2E
$GPGSV,2,1,08,12,31,227,41,13,19,158,41,15,44,190,42,17,43,082,40,1*6A
$GPGSV,2,2,08,18,19,273,34,22,18,307,42,24,68,278,36,28,18,057,42,1*60
$GPRMC,114102.00,A,5522.4305707,N,01024.0773216,E,0.10,0.00,150515,0.0,E,D*30
$GPGGA,114102.00,5522.4305707,N,01024.0773216,E,5,08,1.0,21.720,M,39.164,M,1.0,*75
$GPGSA,A,3,12,13,15,17,18,22,24,28,,,,,1.9,0.9,1.7,1*2E
$GPGSV,2,1,08,12,31,227,41,13,19,158,41,15,44,190,42,17,43,082,40,1*6A
$GPGSV,2,2,08,18,19,273,35,22,18,307,42,24,68,278,36,28,18,057,42,1*61
$GPRMC,114103.00,A,5522.4305699,N,01024.0773234,E,0.07,0.00,150515,0.0,E,D*31
$GPGGA,114103.00,5522.4305699,N,01024.0773234,E,5,08,1.0,21.733,M,39.164,M,1.0,*70
$GPGSA,A,3,12,13,15,17,18,22,24,28,,,,,1.9,0.9,1.7,1*2E
$GPGSV,2,1,08,12,31,227,42,13,19,158,41,15,44,190,43,17,43,082,40,1*68
$GPGSV,2,2,08,18,19,273,35,22,18,307,42,24,68,278,36,28,18,057,42,1*61
$GPRMC,114104.00,A,5522.4305684,N,01024.0773250,E,0.10,0.00,150515,0.0,E,D*3E
$GPGGA,114104.00,5522.4305684,N,01024.0773250,E,5,08,1.0,21.746,M,39.164,M,1.0,*7B
$GPGSA,A,3,12,13,15,17,18,22,24,28,,,,,1.9,0.9,1.7,1*2E
$GPGSV,2,1,08,12,31,227,41,13,19,158,41,15,44,190,43,17,43,082,40,1*6B
$GPGSV,2,2,08,18,19,273,35,22,18,307,42,24,68,278,36,28,18,057,42,1*61
$GPRMC,114105.00,A,5522.4305662,N,01024.0773287,E,0.18,0.00,150515,0.0,E,D*35
$GPGGA,114105.00,5522.4305662,N,01024.0773287,E,5,08,1.0,21.763,M,39.164,M,1.0,*7F
$GPGSA,A,3,12,13,15,17,18,22,24,28,,,,,1.9,0.9,1.7,1*2E
$GPGSV,2,1,08,12,31,227,41,13,19,158,41,15,44,190,42,17,43,082,40,1*6A
$GPGSV,2,2,08,18,19,273,35,22,18,307,42,24,68,278,36,28,18,057,42,1*61
$GPRMC,114106.00,A,5522.4305648,N,01024.0773238,E,0.03,0.00,150515,0.0,E,D*30
$GPGGA,114106.00,5522.4305648,N,01024.0773238,E,5,08,1.0,21.776,M,39.164,M,1.0,*74
$GPGSA,A,3,12,13,15,17,18,22,24,28,,,,,1.9,0.9,1.7,1*2E
$GPGSV,2,1,08,12,31,227,41,13,19,158,40,15,44,190,41,17,43,082,40,1*68
$GPGSV,2,2,08,18,19,273,36,22,18,307,42,24,68,278,36,28,18,057,42,1*62
$GPRMC,114107.00,A,5522.4305615,N,01024.0773280,E,0.09,0.00,150515,0.0,E,D*30
$GPGGA,114107.00,5522.4305615,N,01024.0773280,E,5,08,1.0,21.779,M,39.164,M,1.0,*71
$GPGSA,A,3,12,13,15,17,18,22,24,28,,,,,1.9,0.9,1.7,1*2E
$GPGSV,2,1,08,12,31,227,41,13,19,158,40,15,44,190,41,17,43,082,39,1*66
$GPGSV,2,2,08,18,19,273,36,22,18,307,42,24,68,278,37,28,18,057,42,1*63
$GPRMC,114108.00,A,5522.4305608,N,01024.0773305,E,0.08,0.00,150515,0.0,E,D*3E
$GPGGA,114108.00,5522.4305608,N,01024.0773305,E,5,08,1.0,21.785,M,39.164,M,1.0,*7D
$GPGSA,A,3,12,13,15,17,18,22,24,28,,,,,1.9,0.9,1.7,1*2E
$GPGSV,2,1,08,12,31,227,41,13,19,158,40,15,44,190,43,17,43,082,39,1*64
$GPGSV,2,2,08,18,19,273,35,22,18,307,42,24,68,278,37,28,18,057,42,1*60
$GPRMC,114109.00,A,5522.4305595,N,01024.0773340,E,0.08,0.00,150515,0.0,E,D*39
$GPGGA,114109.00,5522.4305595,N,01024.0773340,E,5,08,1.0,21.782,M,39.164,M,1.0,*7D
$GPGSA,A,3,12,13,15,17,18,22,24,28,,,,,1.9,0.9,1.7,1*2E
$GPGSV,2,1,08,12,31,227,42,13,19,158,40,15,44,190,43,17,43,082,39,1*67
$GPGSV,2,2,08,18,19,273,34,22,18,307,42,24,68,278,37,28,18,057,42,1*61
$GPRMC,114110.00,A,5522.4305605,N,01024.0773347,E,0.09,0.00,150515,0.0,E,D*3D
$GPGGA,114110.00,5522.4305605,N,01024.0773347,E,5,08,1.0,21.779,M,39.164,M,1.0,*7C
$GPGSA,A,3,12,13,15,17,18,22,24,28,,,,,1.9,0.9,1.7,1*2E
$GPGSV,2,1,08,12,31,227,42,13,19,158,41,15,44,190,43,17,43,082,39,1*66
$GPGSV,2,2,08,18,19,273,34,22,18,307,42,24,68,278,37,28,18,057,42,1*61
$GPRMC,114111.00,A,5522.4305610,N,01024.0773414,E,0.04,0.00,150515,0.0,E,D*34
$GPGGA,114111.00,5522.4305610,N,01024.0773414,E,5,08,1.0,21.771,M,39.164,M,1.0,*70
$GPGSA,A,3,12,13,15,17,18,22,24,28,,,,,1.9,0.9,1.7,1*2E
$GPGSV,2,1,08,12,31,227,42,13,19,158,41,15,44,190,43,17,43,082,40,1*68
$GPGSV,2,2,08,18,19,273,34,22,18,307,41,24,68,278,37,28,18,057,42,1*62
$GPRMC,114112.00,A,5522.4305623,N,01024.0773453,E,0.06,0.00,150515,0.0,E,D*36
$GPGGA,114112.00,5522.4305623,N,01024.0773453,E,5,08,1.0,21.764,M,39.164,M,1.0,*74
$GPGSA,A,3,12,13,15,17,18,22,24,28,,,,,1.9,0.9,1.6,1*2F
$GPGSV,2,1,08,12,31,227,42,13,19,158,41,15,44,190,43,17,43,082,40,1*68
$GPGSV,2,2,08,18,19,273,34,22,18,307,41,24,68,278,36,28,18,057,42,1*63
$GPRMC,114113.00,A,5522.4305675,N,01024.0773496,E,0.06,0.00,150515,0.0,E,D*3D
$GPGGA,114113.00,5522.4305675,N,01024.0773496,E,5,08,1.0,21.739,M,39.164,M,1.0,*77
$GPGSA,A,3,12,13,15,17,18,22,24,28,,,,,1.9,0.9,1.6,1*2F
$GPGSV,2,1,08,12,32,227,42,13,19,158,40,15,44,190,43,17,43,082,39,1*64
$GPGSV,2,2,08,18,19,273,33,22,18,307,41,24,68,278,37,28,18,057,42,1*65
$GPRMC,114114.00,A,5522.4305698,N,01024.0773590,E,0.09,0.00,150515,0.0,E,D*31
$GPGGA,114114.00,5522.4305698,N,01024.0773590,E,5,08,1.0,21.718,M,39.164,M,1.0,*77
$GPGSA,A,3,12,13,15,17,18,22,24,28,,,,,1.9,0.9,1.6,1*2F
$GPGSV,2,1,08,12,32,227,42,13,19,158,40,15,44,189,43,17,43,082,39,1*6C
$GPGSV,2,2,08,18,19,273,34,22,18,307,40,24,68,278,37,28,18,057,42,1*63
$GPRMC,114115.00,A,5522.4305749,N,01024.0773654,E,0.12,0.00,150515,0.0,E,D*3C
$GPGGA,114115.00,5522.4305749,N,01024.0773654,E,5,08,1.0,21.691,M,39.164,M,2.0,*73
$GPGSA,A,3,12,13,15,17,18,22,24,28,,,,,1.9,0.9,1.6,1*2F
$GPGSV,2,1,08,12,32,227,42,13,19,158,41,15,44,189,43,17,43,082,40,1*63
$GPGSV,2,2,08,18,19,273,34,22,18,307,40,24,68,278,37,28,18,057,42,1*63
$GPRMC,114116.00,A,5522.4305799,N,01024.0773694,E,0.10,0.00,150515,0.0,E,D*3C
$GPGGA,114116.00,5522.4305799,N,01024.0773694,E,5,08,1.0,21.667,M,39.164,M,1.0,*7B
$GPGSA,A,3,12,13,15,17,18,22,24,28,,,,,1.9,0.9,1.6,1*2F
$GPGSV,2,1,08,12,32,227,42,13,19,158,41,15,44,189,43,17,43,082,40,1*63
$GPGSV,2,2,08,18,19,273,34,22,18,307,40,24,68,278,37,28,18,057,42,1*63
$GPRMC,114117.00,A,5522.4305819,N,01024.0773769,E,0.09,0.00,150515,0.0,E,D*31
$GPGGA,114117.00,5522.4305819,N,01024.0773769,E,5,08,1.0,21.623,M,39.164,M,1.0,*7E
$GPGSA,A,3,12,13,15,17,18,22,24,28,,,,,1.9,0.9,1.6,1*2F
$GPGSV,2,1,08,12,32,227,42,13,19,158,41,15,44,189,43,17,43,082,40,1*63
$GPGSV,2,2,08,18,19,273,34,22,18,307,40,24,68,278,38,28,18,057,42,1*6C
$GPRMC,114118.00,A,5522.4305829,N,01024.0773841,E,0.13,0.00,150515,0.0,E,D*33
$GPGGA,114118.00,5522.4305829,N,01024.0773841,E,5,08,1.0,21.593,M,39.164,M,1.0,*7F
$GPGSA,A,3,12,13,15,17,18,22,24,28,,,,,1.9,0.9,1.6,1*2F
$GPGSV,2,1,08,12,32,227,41,13,19,158,41,15,44,189,43,17,43,082,40,1*60
$GPGSV,2,2,08,18,19,273,34,22,18,307,39,24,68,278,38,28,18,057,42,1*62
$GPRMC,114119.00,A,5522.4305855,N,01024.0773889,E,0.07,0.00,150515,0.0,E,D*38
$GPGGA,114119.00,5522.4305855,N,01024.0773889,E,5,08,1.0,21.562,M,39.164,M,1.0,*7F
$GPGSA,A,3,12,13,15,17,18,22,24,28,,,,,1.9,0.9,1.6,1*2F
$GPGSV,2,1,08,12,32,227,41,13,19,158,41,15,44,189,43,17,43,082,40,1*60
$GPGSV,2,2,08,18,19,273,34,22,18,307,40,24,68,278,38,28,18,057,42,1*6C
$GPRMC,114120.00,A,5522.4305835,N,01024.0773935,E,0.06,0.00,150515,0.0,E,D*33
$GPGGA,114120.00,5522.4305835,N,01024.0773935,E,5,08,1.0,21.520,M,39.164,M,1.0,*73
$GPGSA,A,3,12,13,15,17,18,22,24,28,,,,,1.9,0.9,1.6,1*2F
$GPGSV,2,1,08,12,32,227,41,13,19,158,41,15,44,189,43,17,43,082,40,1*60
$GPGSV,2,2,08,18,19,273,35,22,18,307,40,24,68,278,38,28,18,057,42,1*6D
$GPRMC,114121.00,A,5522.4305837,N,01024.0773959,E,0.03,0.00,150515,0.0,E,D*3F
$GPGGA,114121.00,5522.4305837,N,01024.0773959,E,5,08,1.0,21.487,M,39.164,M,1.0,*76
$GPGSA,A,3,12,13,15,17,18,22,24,28,,,,,1.9,0.9,1.6,1*2F
$GPGSV,2,1,08,12,32,227,41,13,19,158,41,15,44,189,43,17,43,082,40,1*60
$GPGSV,2,2,08,18,19,273,35,22,18,307,40,24,68,278,38,28,18,057,42,1*6D
$GPRMC,114122.00,A,5522.4305812,N,01024.0773985,E,0.09,0.00,150515,0.0,E,D*30
$GPGGA,114122.00,5522.4305812,N,01024.0773985,E,5,08,1.0,21.463,M,39.164,M,1.0,*79
$GPGSA,A,3,12,13,15,17,18,22,24,28,,,,,1.9,0.9,1.6,1*2F
$GPGSV,2,1,08,12,32,227,40,13,19,158,41,15,44,189,43,17,43,082,40,1*61
$GPGSV,2,2,08,18,19,273,35,22,18,307,40,24,68,278,38,28,18,057,42,1*6D
$GPRMC,114123.00,A,5522.4305802,N,01024.0774002,E,0.16,0.00,150515,0.0,E,D*3F
$GPGGA,114123.00,5522.4305802,N,01024.0774002,E,5,08,1.0,21.428,M,39.164,M,1.0,*77
$GPGSA,A,3,12,13,15,17,18,22,24,28,,,,,1.9,0.9,1.6,1*2F
$GPGSV,2,1,08,12,32,227,40,13,19,158,41,15,44,189,43,17,43,082,39,1*6F
$GPGSV,2,2,08,18,19,273,35,22,18,307,41,24,68,278,38,28,18,057,42,1*6C
$GPRMC,114124.00,A,5522.4305783,N,01024.0774040,E,0.04,0.00,150515,0.0,E,D*3B
$GPGGA,114124.00,5522.4305783,N,01024.0774040,E,5,08,1.0,21.396,M,39.164,M,1.0,*72
$GPGSA,A,3,12,13,15,17,18,22,24,28,,,,,1.9,0.9,1.6,1*2F
$GPGSV,2,1,08,12,32,227,40,13,19,158,41,15,44,189,43,17,43,082,39,1*6F
$GPGSV,2,2,08,18,19,273,35,22,18,307,41,24,68,278,38,28,18,057,42,1*6C
$GPRMC,114125.00,A,5522.4305754,N,01024.0774078,E,0.14,0.00,150515,0.0,E,D*3A
$GPGGA,114125.00,5522.4305754,N,01024.0774078,E,5,08,1.0,21.380,M,39.164,M,1.0,*75
$GPGSA,A,3,12,13,15,17,18,22,24,28,,,,,1.9,0.9,1.6,1*2F
$GPGSV,2,1,08,12,32,227,40,13,19,158,41,15,44,189,43,17,43,082,39,1*6F
$GPGSV,2,2,08,18,19,273,35,22,18,307,41,24,68,278,38,28,18,057,42,1*6C
$GPRMC,114126.00,A,5522.4305714,N,01024.0774105,E,0.13,0.00,150515,0.0,E,D*31
$GPGGA,114126.00,5522.4305714,N,01024.0774105,E,5,08,1.0,21.362,M,39.164,M,1.0,*75
$GPGSA,A,3,12,13,15,17,18,22,24,28,,,,,1.9,0.9,1.6,1*2F
$GPGSV,2,1,08,12,32,227,40,13,19,158,41,15,44,189,43,17,43,082,39,1*6F
$GPGSV,2,2,08,18,19,273,34,22,18,307,42,24,68,278,38,28,18,057,42,1*6E
$GPRMC,114127.00,A,5522.4305661,N,01024.0774171,E,0.05,0.00,150515,0.0,E,D*37
$GPGGA,114127.00,5522.4305661,N,01024.0774171,E,5,08,1.0,21.360,M,39.164,M,1.0,*76
$GPGSA,A,3,12,13,15,17,18,22,24,28,,,,,1.9,0.9,1.6,1*2F
$GPGSV,2,1,08,12,32,227,40,13,19,158,42,15,44,189,43,17,43,082,39,1*6C
$GPGSV,2,2,08,18,19,272,34,22,18,307,42,24,68,278,38,28,18,057,42,1*6F
$GPRMC,114128.00,A,5522.4305653,N,01024.0774221,E,0.07,0.00,150515,0.0,E,D*3D
$GPGGA,114128.00,5522.4305653,N,01024.0774221,E,5,08,1.0,21.357,M,39.164,M,1.0,*7A
$GPGSA,A,3,12,13,15,17,18,22,24,28,,,,,1.9,0.9,1.6,1*2F
$GPGSV,2,1,08,12,32,227,39,13,19,158,40,15,44,189,42,17,43,082,39,1*61
$GPGSV,2,2,08,18,19,272,33,22,18,307,42,24,68,278,37,28,18,057,41,1*64
$GPRMC,114129.00,A,5522.4305604,N,01024.0774252,E,0.10,0.00,150515,0.0,E,D*3C
$GPGGA,114129.00,5522.4305604,N,01024.0774252,E,5,08,1.0,21.354,M,39.164,M,1.0,*7E
$GPGSA,A,3,12,13,15,17,18,22,24,28,,,,,1.9,0.9,1.6,1*2F
$GPGSV,2,1,08,12,32,227,41,13,19,158,42,15,44,189,43,17,43,082,40,1*63
$GPGSV,2,2,08,18,19,272,34,22,18,307,43,24,68,278,37,28,18,057,42,1*61
$GPRMC,114130.00,A,5522.4305605,N,01024.0774273,E,0.10,0.00,150515,0.0,E,D*36
$GPGGA,114130.00,5522.4305605,N,01024.0774273,E,5,08,1.0,21.351,M,39.164,M,1.0,*71
$GPGSA,A,3,12,13,15,17,18,22,24,28,,,,,1.9,0.9,1.6,1*2F
$GPGSV,2,1,08,12,32,227,41,13,19,158,42,15,44,189,43,17,43,082,40,1*63
$GPGSV,2,2,08,18,19,272,33,22,18,307,43,24,68,278,37,28,18,057,42,1*66
$GPRMC,114131.00,A,5522.4305614,N,01024.0774287,E,0.10,0.00,150515,0.0,E,D*3C
$GPGGA,114131.00,5522.4305614,N,01024.0774287,E,5,08,1.0,21.359,M,39.164,M,1.0,*73
$GPGSA,A,3,12,13,15,17,18,22,24,28,,,,,1.9,0.9,1.6,1*2F
$GPGSV,2,1,08,12,32,227,41,13,19,158,41,15,44,189,44,17,43,082,40,1*67
$GPGSV,2,2,08,18,19,272,33,22,18,307,43,24,68,278,37,28,18,057,43,1*67
$GPRMC,114132.00,A,5522.4305663,N,01024.0774247,E,0.24,0.00,150515,0.0,E,D*34
$GPGGA,114132.00,5522.4305663,N,01024.0774247,E,5,08,1.0,21.360,M,39.164,M,1.0,*76
$GPGSA,A,3,12,13,15,17,18,22,24,28,,,,,1.9,0.9,1.6,1*2F
$GPGSV,2,1,08,12,32,227,40,13,19,158,42,15,44,189,44,17,43,082,39,1*6B
$GPGSV,2,2,08,18,19,272,34,22,18,307,43,24,68,278,36,28,18,057,43,1*61
$GPRMC,114133.00,A,5522.4305719,N,01024.0774223,E,0.17,0.00,150515,0.0,E,D*3B
$GPGGA,114133.00,5522.4305719,N,01024.0774223,E,5,08,1.0,21.387,M,39.164,M,1.0,*70
$GPGSA,A,3,12,13,15,17,18,22,24,28,,,,,1.9,0.9,1.6,1*2F
$GPGSV,2,1,08,12,32,227,41,13,19,158,43,15,44,189,44,17,43,082,40,1*65
$GPGSV,2,2,08,18,19,272,35,22,18,307,43,24,68,278,36,28,18,057,43,1*60
$GPRMC,114134.00,A,5522.4305746,N,01024.0774139,E,0.05,0.00,150515,0.0,E,D*3D
$GPGGA,114134.00,5522.4305746,N,01024.0774139,E,5,08,1.0,21.403,M,39.164,M,1.0,*7E
$GPGSA,A,3,12,13,15,17,18,22,24,28,,,,,1.9,0.9,1.6,1*2F
$GPGSV,2,1,08,12,32,227,41,13,19,158,43,15,44,189,44,17,43,082,40,1*65
$GPGSV,2,2,08,18,19,272,35,22,18,307,43,24,68,278,37,28,18,057,43,1*61
$GPRMC,114135.00,A,5522.4305777,N,01024.0774063,E,0.11,0.00,150515,0.0,E,D*35
$GPGGA,114135.00,5522.4305777,N,01024.0774063,E,5,08,1.0,21.410,M,39.164,M,1.0,*71
$GPGSA,A,3,12,13,15,17,18,22,24,28,,,,,1.9,0.9,1.6,1*2F
$GPGSV,2,1,08,12,32,227,41,13,19,158,43,15,44,189,44,17,43,082,40,1*65
$GPGSV,2,2,08,18,19,272,34,22,18,307,43,24,68,278,37,28,18,057,43,1*60
$GPRMC,114136.00,A,5522.4305800,N,01024.0774015,E,0.06,0.00,150515,0.0,E,D*3E
$GPGGA,114136.00,5522.4305800,N,01024.0774015,E,5,08,1.0,21.428,M,39.164,M,1.0,*77
$GPGSA,A,3,12,13,15,17,18,22,24,28,,,,,1.9,0.9,1.6,1*2F
$GPGSV,2,1,08,12,32,227,41,13,19,158,43,15,44,189,44,17,43,082,40,1*65
$GPGSV,2,2,08,18,19,272,34,22,18,307,43,24,68,278,37,28,18,057,43,1*60
$GPRMC,114137.00,A,5522.4305846,N,01024.0773940,E,0.06,0.00,150515,0.0,E,D*33
$GPGGA,114137.00,5522.4305846,N,01024.0773940,E,5,08,1.0,21.445,M,39.164,M,1.0,*71
$GPGSA,A,3,12,13,15,17,18,22,24,28,,,,,1.9,0.9,1.6,1*2F
$GPGSV,2,1,08,12,32,227,41,13,19,158,43,15,44,189,44,17,43,082,41,1*64
$GPGSV,2,2,08,18,19,272,35,22,18,307,42,24,68,278,38,28,18,057,43,1*6F
$GPRMC,114138.00,A,5522.4305867,N,01024.0773910,E,0.08,0.00,150515,0.0,E,D*34
$GPGGA,114138.00,5522.4305867,N,01024.0773910,E,5,08,1.0,21.453,M,39.164,M,1.0,*7F
$GPGSA,A,3,12,13,15,17,18,22,24,28,,,,,1.9,0.9,1.6,1*2F
$GPGSV,2,1,08,12,32,227,41,13,19,158,43,15,44,189,44,17,43,082,40,1*65
$GPGSV,2,2,08,18,19,272,35,22,18,307,42,24,68,278,38,28,18,057,43,1*6F
$GPRMC,114139.00,A,5522.4305879,N,01024.0773889,E,0.08,0.00,150515,0.0,E,D*3B
$GPGGA,114139.00,5522.4305879,N,01024.0773889,E,5,08,1.0,21.474,M,39.164,M,1.0,*75
$GPGSA,A,3,12,13,15,17,18,22,24,28,,,,,1.9,0.9,1.6,1*2F
$GPGSV,2,1,08,12,32,227,42,13,19,158,42,15,44,189,44,17,43,082,40,1*67
$GPGSV,2,2,08,18,19,272,34,22,18,307,42,24,68,278,38,28,18,057,42,1*6F
$GPRMC,114140.00,A,5522.4305896,N,01024.0773846,E,0.07,0.00,150515,0.0,E,D*38
$GPGGA,114140.00,5522.4305896,N,01024.0773846,E,5,08,1.0,21.510,M,39.164,M,1.0,*7A
$GPGSA,A,3,12,13,15,17,18,22,24,28,,,,,1.9,0.9,1.6,1*2F
$GPGSV,2,1,08,12,32,227,42,13,19,158,42,15,44,189,44,17,43,082,41,1*66
$GPGSV,2,2,08,18,19,272,34,22,18,307,42,24,68,278,38,28,18,057,42,1*6F
$GPRMC,114141.00,A,5522.4305931,N,01024.0773843,E,0.13,0.00,150515,0.0,E,D*35
$GPGGA,114141.00,5522.4305931,N,01024.0773843,E,5,08,1.0,21.535,M,39.164,M,1.0,*75
$GPGSA,A,3,12,13,15,17,18,22,24,28,,,,,1.9,0.9,1.6,1*2F
$GPGSV,2,1,08,12,32,227,42,13,19,158,42,15,44,189,43,17,43,082,41,1*61
$GPGSV,2,2,08,18,19,272,35,22,18,307,42,24,68,278,38,28,18,057,42,1*6E
$GPRMC,114142.00,A,5522.4305973,N,01024.0773816,E,0.23,0.00,150515,0.0,E,D*33
$GPGGA,114142.00,5522.4305973,N,01024.0773816,E,5,08,1.0,21.546,M,39.164,M,1.0,*74
$GPGSA,A,3,12,13,15,17,18,22,24,28,,,,,1.9,0.9,1.6,1*2F
$GPGSV,2,1,08,12,32,227,42,13,19,158,42,15,44,189,43,17,43,082,40,1*60
$GPGSV,2,2,08,18,19,272,35,22,18,307,42,24,68,278,38,28,18,057,42,1*6E
$GPRMC,114143.00,A,5522.4306037,N,01024.0773820,E,0.27,0.00,150515,0.0,E,D*39
$GPGGA,114143.00,5522.4306037,N,01024.0773820,E,5,08,1.0,21.570,M,39.164,M,1.0,*7F
$GPGSA,A,3,12,13,15,17,18,22,24,28,,,,,1.9,0.9,1.6,1*2F
$GPGSV,2,1,08,12,32,227,42,13,19,158,42,15,44,189,43,17,43,082,40,1*60
$GPGSV,2,2,08,18,19,272,36,22,18,307,41,24,68,278,36,28,18,057,42,1*60
$GPRMC,114144.00,A,5522.4306109,N,01024.0773891,E,0.08,0.00,150515,0.0,E,D*35
$GPGGA,114144.00,5522.4306109,N,01024.0773891,E,5,08,1.0,21.595,M,39.164,M,1.0,*75
$GPGSA,A,3,12,13,15,17,18,22,24,28,,,,,1.9,0.9,1.6,1*2F
$GPGSV,2,1,08,12,32,227,42,13,19,158,42,15,44,189,43,17,43,082,39,1*6E
$GPGSV,2,2,08,18,19,272,36,22,18,307,42,24,68,278,36,28,18,057,42,1*63
$GPRMC,114145.00,A,5522.4306169,N,01024.0773922,E,0.09,0.00,150515,0.0,E,D*3A
$GPGGA,114145.00,5522.4306169,N,01024.0773922,E,5,08,1.0,21.616,M,39.164,M,2.0,*70
$GPGSA,A,3,12,13,15,17,18,22,24,28,,,,,1.9,0.9,1.6,1*2F
$GPGSV,2,1,08,12,32,227,42,13,19,158,42,15,44,189,43,17,43,082,39,1*6E
$GPGSV,2,2,08,18,19,272,36,22,18,307,42,24,68,278,36,28,18,057,42,1*63
$GPRMC,114146.00,A,5522.4306195,N,01024.0774003,E,0.11,0.00,150515,0.0,E,D*3E
$GPGGA,114146.00,5522.4306195,N,01024.0774003,E,5,08,1.0,21.635,M,39.164,M,1.0,*7F
$GPGSA,A,3,12,13,15,17,18,22,24,28,,,,,1.9,0.9,1.6,1*2F
$GPGSV,2,1,08,12,32,227,42,13,19,158,42,15,44,189,43,17,43,082,39,1*6E
$GPGSV,2,2,08,18,19,272,36,22,18,307,42,24,68,278,36,28,18,057,42,1*63
$GPRMC,114147.00,A,5522.4306268,N,01024.0773988,E,0.29,0.00,150515,0.0,E,D*38
$GPGGA,114147.00,5522.4306268,N,01024.0773988,E,5,08,1.0,21.671,M,39.164,M,1.0,*72
$GPGSA,A,3,12,13,15,17,18,22,24,28,,,,,1.9,0.9,1.6,1*2F
$GPGSV,2,1,08,12,32,227,42,13,19,158,42,15,44,189,44,17,43,082,40,1*67
$GPGSV,2,2,08,18,19,272,36,22,18,307,42,24,68,278,36,28,18,057,42,1*63
$GPRMC,114148.00,A,5522.4306328,N,01024.0774024,E,0.07,0.00,150515,0.0,E,D*36
$GPGGA,114148.00,5522.4306328,N,01024.0774024,E,5,08,1.0,21.684,M,39.164,M,1.0,*7A
$GPGSA,A,3,12,13,15,17,18,22,24,28,,,,,1.9,0.9,1.6,1*2F
$GPGSV,2,1,08,12,32,227,42,13,19,158,42,15,44,189,44,17,43,082,40,1*67
$GPGSV,2,2,08,18,19,272,36,22,18,306,41,24,68,278,36,28,18,057,42,1*61
$GPRMC,114149.00,A,5522.4306406,N,01024.0774032,E,0.05,0.00,150515,0.0,E,D*39
$GPGGA,114149.00,5522.4306406,N,01024.0774032,E,5,08,1.0,21.712,M,39.164,M,1.0,*79
$GPGSA,A,3,12,13,15,17,18,22,24,28,,,,,1.9,0.9,1.6,1*2F
$GPGSV,2,1,08,12,32,227,42,13,19,158,42,15,44,189,44,17,43,082,40,1*67
$GPGSV,2,2,08,18,19,272,36,22,18,306,41,24,68,278,36,28,18,057,42,1*61
$GPRMC,114150.00,A,5522.4306476,N,01024.0774058,E,0.02,0.00,150515,0.0,E,D*3D
$GPGGA,114150.00,5522.4306476,N,01024.0774058,E,5,08,1.0,21.723,M,39.164,M,1.0,*78
$GPGSA,A,3,12,13,15,17,18,22,24,28,,,,,1.9,0.9,1.6,1*2F
$GPGSV,2,1,08,12,32,227,42,13,19,158,42,15,44,189,44,17,43,082,40,1*67
$GPGSV,2,2,08,18,19,272,35,22,18,306,41,24,68,278,36,28,18,057,42,1*62
$GPRMC,114151.00,A,5522.4306539,N,01024.0774067,E,0.13,0.00,150515,0.0,E,D*3A
$GPGGA,114151.00,5522.4306539,N,01024.0774067,E,5,08,1.0,21.745,M,39.164,M,2.0,*7C
$GPGSA,A,3,12,13,15,17,18,22,24,28,,,,,1.9,0.9,1.6,1*2F
$GPGSV,2,1,08,12,32,227,42,13,19,158,42,15,44,189,44,17,43,082,40,1*67
$GPGSV,2,2,08,18,19,272,35,22,18,306,41,24,68,278,36,28,18,057,43,1*63
$GPRMC,114152.00,A,5522.4306610,N,01024.0774005,E,0.16,0.00,150515,0.0,E,D*30
$GPGGA,114152.00,5522.4306610,N,01024.0774005,E,5,08,1.0,21.775,M,39.164,M,1.0,*73
$GPGSA,A,3,12,13,15,17,18,22,24,28,,,,,1.9,0.9,1.6,1*2F
$GPGSV,2,1,08,12,32,227,42,13,19,158,43,15,44,189,44,17,43,082,40,1*66
$GPGSV,2,2,08,18,19,272,35,22,18,306,41,24,68,278,36,28,18,057,43,1*63
$GPRMC,114153.00,A,5522.4306693,N,01024.0773950,E,0.06,0.00,150515,0.0,E,D*35
$GPGGA,114153.00,5522.4306693,N,01024.0773950,E,5,08,1.0,21.786,M,39.164,M,1.0,*7B
$GPGSA,A,3,12,13,15,17,18,22,24,28,,,,,1.9,0.9,1.6,1*2F
$GPGSV,2,1,08,12,32,227,42,13,19,158,43,15,44,189,44,17,43,082,40,1*66
$GPGSV,2,2,08,18,19,272,34,22,18,306,40,24,68,278,37,28,18,057,42,1*63
$GPRMC,114154.00,A,5522.4306779,N,01024.0773888,E,0.08,0.00,150515,0.0,E,D*3D
$GPGGA,114154.00,5522.4306779,N,01024.0773888,E,5,08,1.0,21.797,M,39.164,M,1.0,*7D
$GPGSA,A,3,12,13,15,17,18,22,24,28,,,,,1.9,0.9,1.6,1*2F
$GPGSV,2,1,08,12,32,227,42,13,19,158,43,15,44,189,44,17,43,082,40,1*66
$GPGSV,2,2,08,18,19,272,34,22,18,306,40,24,68,278,37,28,18,057,42,1*63
$GPRMC,114155.00,A,5522.4306869,N,01024.0773821,E,0.03,0.00,150515,0.0,E,D*3A
$GPGGA,114155.00,5522.4306869,N,01024.0773821,E,5,08,1.0,21.809,M,39.164,M,1.0,*79
$GPGSA,A,3,12,13,15,17,18,22,24,28,,,,,1.9,0.9,1.6,1*2F
$GPGSV,2,1,08,12,32,227,42,13,19,158,43,15,44,189,43,17,43,082,40,1*61
$GPGSV,2,2,08,18,19,272,34,22,18,306,40,24,68,278,38,28,18,057,42,1*6C
$GPRMC,114156.00,A,5522.4306957,N,01024.0773743,E,0.06,0.00,150515,0.0,E,D*3B
$GPGGA,114156.00,5522.4306957,N,01024.0773743,E,5,08,1.0,21.818,M,39.164,M,1.0,*7D
$GPGSA,A,3,12,13,15,17,18,22,24,28,,,,,1.9,0.9,1.6,1*2F
$GPGSV,2,1,08,12,32,227,42,13,19,158,43,15,44,189,43,17,43,082,40,1*61
$GPGSV,2,2,08,18,19,272,33,22,18,306,40,24,68,278,38,28,18,057,42,1*6B
$GPRMC,114157.00,A,5522.4307014,N,01024.0773712,E,0.21,0.00,150515,0.0,E,D*34
$GPGGA,114157.00,5522.4307014,N,01024.0773712,E,5,08,1.0,21.821,M,39.164,M,1.0,*7D
$GPGSA,A,3,12,13,15,17,18,22,24,28,,,,,1.9,0.9,1.6,1*2F
$GPGSV,2,1,08,12,32,227,42,13,19,158,43,15,44,189,43,17,43,082,41,1*60
$GPGSV,2,2,08,18,19,272,33,22,18,306,40,24,68,278,38,28,17,057,43,1*65
$GPRMC,114158.00,A,5522.4307087,N,01024.0773635,E,0.24,0.00,150515,0.0,E,D*30
$GPGGA,114158.00,5522.4307087,N,01024.0773635,E,5,08,1.0,21.825,M,39.164,M,1.0,*78
$GPGSA,A,3,12,13,15,17,18,22,24,28,,,,,1.9,0.9,1.6,1*2F
$GPGSV,2,1,08,12,32,227,42,13,19,158,43,15,44,189,43,17,43,082,40,1*61
$GPGSV,2,2,08,18,19,272,33,22,18,306,40,24,68,278,38,28,17,057,43,1*65
$GPRMC,114159.00,A,5522.4307166,N,01024.0773554,E,0.30,0.00,150515,0.0,E,D*3E
$GPGGA,114159.00,5522.4307166,N,01024.0773554,E,5,08,1.0,21.843,M,39.164,M,1.0,*73
$GPGSA,A,3,12,13,15,17,18,22,24,28,,,,,1.9,0.9,1.6,1*2F
$GPGSV,2,1,08,12,32,227,42,13,19,158,43,15,44,189,43,17,43,082,40,1*61
$GPGSV,2,2,08,18,19,272,33,22,18,306,40,24,68,278,37,28,17,057,43,1*6A
$GPRMC,114200.00,A,5522.4307197,N,01024.0773462,E,0.06,0.00,150515,0.0,E,D*3E
$GPGGA,114200.00,5522.4307197,N,01024.0773462,E,5,08,1.0,21.832,M,39.164,M,1.0,*70
$GPGSA,A,3,12,13,15,17,18,22,24,28,,,,,1.9,0.9,1.6,1*2F
$GPGSV,2,1,08,12,32,227,42,13,19,158,43,15,44,189,43,17,43,082,41,1*60
$GPGSV,2,2,08,18,19,272,33,22,18,306,41,24,68,278,37,28,17,057,43,1*6B
$GPRMC,114201.00,A,5522.4307215,N,01024.0773414,E,0.15,0.00,150515,0.0,E,D*35
$GPGGA,114201.00,5522.4307215,N,01024.0773414,E,5,08,1.0,21.820,M,39.164,M,1.0,*7A
$GPGSA,A,3,12,13,15,17,18,22,24,28,,,,,1.9,0.9,1.6,1*2F
$GPGSV,2,1,08,12,32,227,42,13,19,158,43,15,44,189,43,17,43,082,41,1*60
$GPGSV,2,2,08,18,19,272,33,22,18,306,41,24,68,278,37,28,17,057,43,1*6B
$GPRMC,114202.00,A,5522.4307257,N,01024.0773293,E,0.19,0.00,150515,0.0,E,D*35
$GPGGA,114202.00,5522.4307257,N,01024.0773293,E,5,08,1.0,21.817,M,39.164,M,1.0,*72
$GPGSA,A,3,12,13,15,17,18,22,24,28,,,,,1.9,0.9,1.6,1*2F
$GPGSV,2,1,08,12,32,227,41,13,19,158,43,15,44,189,43,17,43,082,41,1*63
$GPGSV,2,2,08,18,19,272,33,22,18,306,41,24,68,278,38,28,17,057,43,1*64
$GPRMC,114203.00,A,5522.4307253,N,01024.0773212,E,0.14,0.00,150515,0.0,E,D*34
$GPGGA,114203.00,5522.4307253,N,01024.0773212,E,5,08,1.0,21.802,M,39.164,M,1.0,*7A
$GPGSA,A,3,12,13,15,17,18,22,24,28,,,,,1.9,0.9,1.6,1*2F
$GPGSV,2,1,08,12,32,227,41,13,19,158,43,15,44,189,43,17,43,082,41,1*63
$GPGSV,2,2,08,18,19,272,33,22,18,306,41,24,68,278,38,28,17,057,43,1*64
$GPRMC,114204.00,A,5522.4307274,N,01024.0773122,E,0.08,0.00,150515,0.0,E,D*3B
$GPGGA,114204.00,5522.4307274,N,01024.0773122,E,5,08,1.0,21.810,M,39.164,M,1.0,*7B
$GPGSA,A,3,12,13,15,17,18,22,24,28,,,,,1.9,0.9,1.6,1*2F
$GPGSV,2,1,08,12,32,227,41,13,19,158,43,15,44,189,43,17,43,082,41,1*63
$GPGSV,2,2,08,18,19,272,33,22,18,306,41,24,68,278,38,28,17,057,43,1*64
$GPRMC,114205.00,A,5522.4307274,N,01024.0773072,E,0.15,0.00,150515,0.0,E,D*32
$GPGGA,114205.00,5522.4307274,N,01024.0773072,E,5,08,1.0,21.795,M,39.164,M,1.0,*7C
$GPGSA,A,3,12,13,15,17,18,22,24,28,,,,,1.9,0.9,1.6,1*2F
$GPGSV,2,1,08,12,32,227,41,13,19,158,43,15,44,189,43,17,43,082,41,1*63
$GPGSV,2,2,08,18,19,272,34,22,18,306,41,24,68,278,38,28,17,057,43,1*63
$GPRMC,114206.00,A,5522.4307290,N,01024.0772969,E,0.30,0.00,150515,0.0,E,D*3E
$GPGGA,114206.00,5522.4307290,N,01024.0772969,E,5,08,1.0,21.791,M,39.164,M,1.0,*73
$GPGSA,A,3,12,13,15,17,18,22,24,28,,,,,1.9,0.9,1.6,1*2F
$GPGSV,2,1,08,12,32,227,41,13,19,158,43,15,44,189,43,17,43,082,40,1*62
$GPGSV,2,2,08,18,19,272,34,22,18,306,41,24,68,278,38,28,17,057,43,1*63
$GPRMC,114207.00,A,5522.4307294,N,01024.0772884,E,0.08,0.00,150515,0.0,E,D*32
$GPGGA,114207.00,5522.4307294,N,01024.0772884,E,5,08,1.0,21.805,M,39.164,M,1.0,*76
$GPGSA,A,3,12,13,15,17,18,22,24,28,,,,,1.9,0.9,1.6,1*2F
$GPGSV,2,1,08,12,32,227,41,13,19,158,43,15,44,189,43,17,43,082,40,1*62
$GPGSV,2,2,08,18,19,272,35,22,18,306,41,24,68,278,38,28,17,057,43,1*62
$GPRMC,114208.00,A,5522.4307287,N,01024.0772840,E,0.11,0.00,150515,0.0,E,D*3F
$GPGGA,114208.00,5522.4307287,N,01024.0772840,E,5,08,1.0,21.799,M,39.164,M,1.0,*79
$GPGSA,A,3,12,13,15,17,18,22,24,28,,,,,1.9,0.9,1.6,1*2F
$GPGSV,2,1,08,12,32,227,39,13,19,158,41,15,44,189,42,17,43,082,38,1*61
$GPGSV,2,2,08,18,19,272,35,22,18,306,39,24,68,278,37,28,17,057,41,1*60
$GPRMC,114209.00,A,5522.4307263,N,01024.0772809,E,0.04,0.00,150515,0.0,E,D*3D
$GPGGA,114209.00,5522.4307263,N,01024.0772809,E,5,08,1.0,21.786,M,39.164,M,1.0,*71
$GPGSA,A,3,12,13,15,17,18,22,24,28,,,,,1.9,0.9,1.6,1*2F
$GPGSV,2,1,08,12,32,227,39,13,19,158,41,15,44,189,42,17,43,082,39,1*60
$GPGSV,2,2,08,18,19,272,34,22,18,306,40,24,68,278,36,28,17,057,41,1*6E
$GPRMC,114210.00,A,5522.4307287,N,01024.0772717,E,0.09,0.00,150515,0.0,E,D*32
$GPGGA,114210.00,5522.4307287,N,01024.0772717,E,5,08,1.0,21.798,M,39.164,M,1.0,*7C
$GPGSA,A,3,12,13,15,17,18,22,24,28,,,,,1.9,0.9,1.6,1*2F
$GPGSV,2,1,08,12,32,227,40,13,19,158,41,15,44,189,42,17,43,082,39,1*6E
$GPGSV,2,2,08,18,19,272,34,22,18,306,40,24,68,278,36,28,17,057,41,1*6E
$GPRMC,114211.00,A,5522.4307260,N,01024.0772695,E,0.12,0.00,150515,0.0,E,D*3B
$GPGGA,114211.00,5522.4307260,N,01024.0772695,E,5,08,1.0,21.790,M,39.164,M,1.0,*77
$GPGSA,A,3,12,13,15,17,18,22,24,28,,,,,1.9,0.9,1.6,1*2F
$GPGSV,2,1,08,12,32,227,40,13,19,158,42,15,44,189,43,17,43,082,39,1*6C
$GPGSV,2,2,08,18,19,272,34,22,18,306,40,24,68,278,37,28,17,057,42,1*6C
$GPRMC,114212.00,A,5522.4307293,N,01024.0772696,E,0.15,0.00,150515,0.0,E,D*30
$GPGGA,114212.00,5522.4307293,N,01024.0772696,E,5,08,1.0,21.807,M,39.164,M,1.0,*7A
$GPGSA,A,3,12,13,15,17,18,22,24,28,,,,,1.9,0.9,1.6,1*2F
$GPGSV,2,1,08,12,32,227,40,13,19,158,42,15,44,189,43,17,43,082,39,1*6C
$GPGSV,2,2,08,18,19,272,33,22,18,306,40,24,68,278,37,28,17,057,42,1*6B
$GPRMC,114213.00,A,5522.4307334,N,01024.0772706,E,0.07,0.00,150515,0.0,E,D*36
$GPGGA,114213.00,5522.4307334,N,01024.0772706,E,5,08,1.0,21.820,M,39.164,M,1.0,*7A
$GPGSA,A,3,12,13,15,17,18,22,24,28,,,,,1.9,0.9,1.6,1*2F
$GPGSV,2,1,08,12,32,227,40,13,19,158,42,15,44,189,43,17,43,082,39,1*6C
$GPGSV,2,2,08,18,19,272,33,22,18,306,41,24,68,278,37,28,17,057,42,1*6A
$GPRMC,114214.00,A,5522.4307335,N,01024.0772722,E,0.07,0.00,150515,0.0,E,D*36
$GPGGA,114214.00,5522.4307335,N,01024.0772722,E,5,08,1.0,21.814,M,39.164,M,1.0,*7D
$GPGSA,A,3,12,13,15,17,18,22,24,28,,,,,1.9,0.9,1.6,1*2F
$GPGSV,2,1,08,12,32,227,40,13,19,158,42,15,44,189,43,17,43,082,39,1*6C
$GPGSV,2,2,08,18,19,272,34,22,18,306,41,24,68,278,37,28,17,057,42,1*6D
$GPRMC,114215.00,A,5522.4307370,N,01024.0772754,E,0.15,0.00,150515,0.0,E,D*34
$GPGGA,114215.00,5522.4307370,N,01024.0772754,E,5,08,1.0,21.822,M,39.164,M,1.0,*79
$GPGSA,A,3,12,13,15,17,18,22,24,28,,,,,1.9,0.9,1.6,1*2F
$GPGSV,2,1,08,12,32,227,40,13,19,158,42,15,44,189,43,17,43,082,40,1*62
$GPGSV,2,2,08,18,19,272,34,22,18,306,41,24,68,278,36,28,17,057,42,1*6C
$GPRMC,114216.00,A,5522.4307396,N,01024.0772774,E,0.06,0.00,150515,0.0,E,D*3F
$GPGGA,114216.00,5522.4307396,N,01024.0772774,E,5,08,1.0,21.817,M,39.164,M,1.0,*76
$GPGSA,A,3,12,13,15,17,18,22,24,28,,,,,1.9,0.9,1.6,1*2F
$GPGSV,2,1,08,12,32,227,40,13,19,158,42,15,44,189,44,17,43,082,40,1*65
$GPGSV,2,2,08,18,19,272,34,22,18,306,41,24,68,278,36,28,17,057,42,1*6C
$GPRMC,114217.00,A,5522.4307414,N,01024.0772792,E,0.08,0.00,150515,0.0,E,D*35
$GPGGA,114217.00,5522.4307414,N,01024.0772792,E,5,08,1.0,21.818,M,39.164,M,1.0,*7D
$GPGSA,A,3,12,13,15,17,18,22,24,28,,,,,1.9,0.9,1.6,1*2F
$GPGSV,2,1,08,12,32,227,41,13,19,158,42,15,44,189,44,17,43,082,39,1*6A
$GPGSV,2,2,08,18,19,272,34,22,18,306,41,24,68,278,37,28,17,057,42,1*6D
$GPRMC,114218.00,A,5522.4307424,N,01024.0772791,E,0.03,0.00,150515,0.0,E,D*31
$GPGGA,114218.00,5522.4307424,N,01024.0772791,E,5,08,1.0,21.812,M,39.164,M,1.0,*78
$GPGSA,A,3,12,13,15,17,18,22,24,28,,,,,1.9,0.9,1.6,1*2F
$GPGSV,2,1,08,12,32,227,41,13,19,158,42,15,44,189,44,17,43,082,40,1*64
$GPGSV,2,2,08,18,19,272,34,22,18,306,41,24,68,278,37,28,17,057,42,1*6D
$GPRMC,114219.00,A,5522.4307411,N,01024.0772806,E,0.17,0.00,150515,0.0,E,D*32
$GPGGA,114219.00,5522.4307411,N,01024.0772806,E,5,08,1.0,21.804,M,39.164,M,1.0,*79
$GPGSA,A,3,12,13,15,17,18,22,24,28,,,,,1.9,0.9,1.6,1*2F
$GPGSV,2,1,08,12,32,227,41,13,19,158,42,15,44,189,43,17,43,082,40,1*63
$GPGSV,2,2,08,18,19,272,34,22,18,306,42,24,68,278,37,28,17,057,42,1*6E
$GPRMC,114220.00,A,5522.4307404,N,01024.0772822,E,0.10,0.00,150515,0.0,E,D*3D
$GPGGA,114220.00,5522.4307404,N,01024.0772822,E,5,08,1.0,21.803,M,39.164,M,1.0,*76
$GPGSA,A,3,12,13,15,17,18,22,24,28,,,,,1.9,0.9,1.6,1*2F
$GPGSV,2,1,08,12,32,227,40,13,19,158,42,15,44,189,43,17,43,082,40,1*62
$GPGSV,2,2,08,18,19,272,34,22,18,306,42,24,68,278,37,28,17,057,42,1*6E
$GPRMC,114221.00,A,5522.4307391,N,01024.0772860,E,0.13,0.00,150515,0.0,E,D*32
$GPGGA,114221.00,5522.4307391,N,01024.0772860,E,5,08,1.0,21.794,M,39.164,M,1.0,*7B
$GPGSA,A,3,12,13,15,17,18,22,24,28,,,,,1.9,0.9,1.6,1*2F
$GPGSV,2,1,08,12,32,227,40,13,19,158,42,15,44,189,43,17,43,082,39,1*6C
$GPGSV,2,2,08,18,19,272,34,22,18,306,42,24,68,278,37,28,17,057,42,1*6E
$GPRMC,114222.00,A,5522.4307373,N,01024.0772852,E,0.17,0.00,150515,0.0,E,D*38
$GPGGA,114222.00,5522.4307373,N,01024.0772852,E,5,08,1.0,21.799,M,39.164,M,1.0,*78
$GPGSA,A,3,12,13,15,17,18,22,24,28,,,,,1.9,0.9,1.6,1*2F
$GPGSV,2,1,08,12,32,227,41,13,19,158,42,15,44,189,43,17,43,082,39,1*6D
$GPGSV,2,2,08,18,19,272,34,22,18,306,42,24,68,278,37,28,17,057,42,1*6E
$GPRMC,114223.00,A,5522.4307335,N,01024.0772867,E,0.06,0.00,150515,0.0,E,D*3D
$GPGGA,114223.00,5522.4307335,N,01024.0772867,E,5,08,1.0,21.807,M,39.164,M,1.0,*75
$GPGSA,A,3,12,13,15,17,18,22,24,28,,,,,1.9,0.9,1.6,1*2F
$GPGSV,2,1,08,12,32,227,41,13,19,158,42,15,44,189,43,17,43,082,39,1*6D
$GPGSV,2,2,08,18,19,272,34,22,18,306,42,24,68,278,37,28,17,057,42,1*6E
$GPRMC,114224.00,A,5522.4307298,N,01024.0772880,E,0.11,0.00,150515,0.0,E,D*33
$GPGGA,114224.00,5522.4307298,N,01024.0772880,E,5,08,1.0,21.813,M,39.164,M,1.0,*78
$GPGSA,A,3,12,13,15,17,18,22,24,28,,,,,1.9,0.9,1.6,1*2F
$GPGSV,2,1,08,12,32,227,41,13,19,158,42,15,44,189,42,17,43,082,39,1*6C
$GPGSV,2,2,08,18,19,272,34,22,18,306,41,24,68,278,37,28,17,057,42,1*6D
$GPRMC,114225.00,A,5522.4307227,N,01024.0772926,E,0.11,0.00,150515,0.0,E,D*3B
$GPGGA,114225.00,5522.4307227,N,01024.0772926,E,5,08,1.0,21.831,M,39.164,M,1.0,*70
$GPGSA,A,3,12,13,15,17,18,22,24,28,,,,,1.9,0.9,1.6,1*2F
$GPGSV,2,1,08,12,32,227,41,13,19,158,42,15,44,189,42,17,43,081,39,1*6F
$GPGSV,2,2,08,18,19,272,34,22,18,306,41,24,68,278,37,28,17,057,42,1*6D
$GPRMC,114226.00,A,5522.4307213,N,01024.0772923,E,0.30,0.00,150515,0.0,E,D*39
$GPGGA,114226.00,5522.4307213,N,01024.0772923,E,5,08,1.0,21.855,M,39.164,M,1.0,*73
$GPGSA,A,3,12,13,15,17,18,22,24,28,,,,,1.9,0.9,1.6,1*2F
$GPGSV,2,1,08,12,32,227,41,13,19,158,42,15,44,189,42,17,43,081,39,1*6F
$GPGSV,2,2,08,18,19,272,34,22,18,306,41,24,68,278,37,28,17,057,42,1*6D
$GPRMC,114227.00,A,5522.4307113,N,01024.0772937,E,0.07,0.00,150515,0.0,E,D*3A
$GPGGA,114227.00,5522.4307113,N,01024.0772937,E,5,08,1.0,21.856,M,39.164,M,2.0,*74
$GPGSA,A,3,12,13,15,17,18,22,24,28,,,,,1.9,0.9,1.6,1*2F
