%  GPST                  latitude(deg) longitude(deg)  height(m)   Q  ns   sdn(m)   sde(m)   sdu(m)  sdne(m)  sdeu(m)  sdun(m) age(s)  ratio
2015/05/13 09:59:18.000   55.373751604   10.401014748    72.9638   5   7   3.1041   2.0327   5.0344   0.9700  -1.2952  -2.1985   0.00    0.0
2015/05/13 09:59:19.000   55.373754449   10.401015223    73.1547   5   7   3.1045   2.0327   5.0346   0.9700  -1.2948  -2.1989   0.00    0.0
2015/05/13 09:59:20.000   55.373750883   10.401009860    72.9415   5   7   3.1048   2.0327   5.0348   0.9701  -1.2943  -2.1992   0.00    0.0
2015/05/13 09:59:21.000   55.373752541   10.401004140    72.4989   5   7   3.1052   2.0327   5.0349   0.9701  -1.2938  -2.1996   0.00    0.0
2015/05/13 09:59:22.000   55.373753838   10.401002306    71.9287   5   7   3.1055   2.0326   5.0351   0.9701  -1.2933  -2.1999   0.00    0.0
2015/05/13 09:59:23.000   55.373755157   10.401000898    71.0665   5   7   3.1058   2.0326   5.0353   0.9701  -1.2928  -2.2002   0.00    0.0
2015/05/13 09:59:24.000   55.373755055   10.400996936    71.2560   5   7   3.1062   2.0326   5.0354   0.9701  -1.2923  -2.2006   0.00    0.0
2015/05/13 09:59:25.000   55.373752820   10.400994446    71.5190   5   7   3.1065   2.0326   5.0356   0.9701  -1.2918  -2.2009   0.00    0.0
2015/05/13 09:59:26.000   55.373753557   10.400995409    70.7211   5   7   3.1068   2.0326   5.0357   0.9702  -1.2913  -2.2013   0.00    0.0
2015/05/13 09:59:27.000   55.373751083   10.400995562    70.7571   5   7   3.1072   2.0325   5.0359   0.9702  -1.2908  -2.2016   0.00    0.0
2015/05/13 09:59:28.000   55.373751525   10.400996939    70.1366   5   7   3.1075   2.0325   5.0361   0.9702  -1.2903  -2.2019   0.00    0.0
2015/05/13 09:59:29.000   55.373753942   10.400998290    70.1503   5   7   3.1079   2.0325   5.0362   0.9702  -1.2898  -2.2023   0.00    0.0
2015/05/13 09:59:30.000   55.373760659   10.400999846    70.6153   5   7   3.1082   2.0325   5.0364   0.9702  -1.2893  -2.2026   0.00    0.0
2015/05/13 09:59:31.000   55.373745777   10.400995297    70.1603   5   7   3.1085   2.0325   5.0365   0.9702  -1.2888  -2.2029   0.00    0.0
2015/05/13 09:59:32.000   55.373781319   10.401003747    71.0163   5   7   3.1089   2.0325   5.0367   0.9703  -1.2884  -2.2033   0.00    0.0
2015/05/13 09:59:33.000   55.373766021   10.400996039    70.4920   5   7   3.1092   2.0324   5.0369   0.9703  -1.2879  -2.2036   0.00    0.0
2015/05/13 09:59:34.000   55.373771687   10.400999021    71.0596   5   7   3.1095   2.0324   5.0370   0.9703  -1.2874  -2.2039   0.00    0.0
2015/05/13 09:59:35.000   55.373766488   10.400999854    70.6306   5   7   3.1099   2.0324   5.0372   0.9703  -1.2869  -2.2043   0.00    0.0
2015/05/13 09:59:36.000   55.373756880   10.401001563    69.6762   5   7   3.1102   2.0324   5.0374   0.9703  -1.2864  -2.2046   0.00    0.0
2015/05/13 09:59:37.000   55.373751459   10.400998282    69.6543   5   7   3.1106   2.0324   5.0375   0.9703  -1.2859  -2.2050   0.00    0.0
2015/05/13 09:59:38.000   55.373756656   10.400998797    69.0332   5   7   3.1109   2.0323   5.0377   0.9704  -1.2854  -2.2053   0.00    0.0
2015/05/13 09:59:39.000   55.373755532   10.401002474    68.7655   5   7   3.1112   2.0323   5.0378   0.9704  -1.2849  -2.2056   0.00    0.0
2015/05/13 09:59:40.000   55.373758716   10.401002369    68.1524   5   7   3.1116   2.0323   5.0380   0.9704  -1.2844  -2.2060   0.00    0.0
2015/05/13 09:59:41.000   55.373759334   10.401002618    68.1288   5   7   3.1119   2.0323   5.0382   0.9704  -1.2839  -2.2063   0.00    0.0
2015/05/13 09:59:42.000   55.373761566   10.401004538    67.2361   5   7   3.1122   2.0323   5.0383   0.9704  -1.2834  -2.2066   0.00    0.0
2015/05/13 09:59:43.000   55.373762957   10.401002303    66.1251   5   7   3.1126   2.0323   5.0385   0.9704  -1.2829  -2.2070   0.00    0.0
2015/05/13 09:59:44.000   55.373763068   10.401006006    65.7010   5   7   3.1129   2.0322   5.0387   0.9704  -1.2824  -2.2073   0.00    0.0
2015/05/13 09:59:45.000   55.373765583   10.401009164    65.1996   5   7   3.1133   2.0322   5.0388   0.9705  -1.2819  -2.2076   0.00    0.0
2015/05/13 09:59:46.000   55.373764546   10.401010982    65.2345   5   7   3.1136   2.0322   5.0390   0.9705  -1.2814  -2.2080   0.00    0.0
2015/05/13 09:59:47.000   55.373766973   10.401013312    65.1589   5   7   3.1139   2.0322   5.0391   0.9705  -1.2809  -2.2083   0.00    0.0
2015/05/13 09:59:48.000   55.373768277   10.401013287    65.5231   5   8   2.9102   2.0321   4.1319   0.9595  -1.2587  -1.2960   0.00    0.0
2015/05/13 09:59:49.000   55.373775429   10.401013747    63.4650   5   8   2.9104   2.0321   4.1321   0.9597  -1.2585  -1.2960   0.00    0.0
2015/05/13 09:59:50.000   55.373775320   10.401011784    63.5769   5   8   2.9106   2.0320   4.1323   0.9598  -1.2582  -1.2961   0.00    0.0
2015/05/13 09:59:51.000   55.373785130   10.401011068    60.8553   5   8   2.9108   2.0320   4.1325   0.9599  -1.2579  -1.2962   0.00    0.0
2015/05/13 09:59:52.000   55.373783077   10.401011984    61.8024   5   8   2.9110   2.0320   4.1327   0.9600  -1.2576  -1.2962   0.00    0.0
2015/05/13 09:59:53.000   55.373768863   10.401008385    66.4350   5   8   2.9111   2.0320   4.1329   0.9602  -1.2574  -1.2963   0.00    0.0
2015/05/13 09:59:54.000   55.373802780   10.401009696    56.5879   5   8   2.9113   2.0320   4.1332   0.9603  -1.2571  -1.2963   0.00    0.0
2015/05/13 09:59:55.000   55.373807077   10.401008047    56.1844   5   8   2.9115   2.0320   4.1334   0.9604  -1.2568  -1.2964   0.00    0.0
2015/05/13 09:59:56.000   55.373785054   10.401010994    63.4212   5   8   2.9117   2.0320   4.1336   0.9605  -1.2565  -1.2964   0.00    0.0
2015/05/13 10:00:00.000   55.373805504   10.401015664    59.5376   5   8   2.9124   2.0319   4.1344   0.9610  -1.2554  -1.2967   0.00    0.0
2015/05/13 10:00:01.000   55.373777155   10.401014154    68.0127   5   8   2.9126   2.0319   4.1346   0.9612  -1.2552  -1.2967   0.00    0.0
2015/05/13 10:00:02.000   55.373773837   10.401008901    68.4279   5   8   2.9128   2.0319   4.1349   0.9613  -1.2549  -1.2968   0.00    0.0
2015/05/13 10:00:03.000   55.373786755   10.401005743    64.7082   5   8   2.9130   2.0318   4.1351   0.9614  -1.2546  -1.2968   0.00    0.0
2015/05/13 10:00:04.000   55.373782667   10.401001195    66.1577   5   8   2.9132   2.0318   4.1353   0.9616  -1.2543  -1.2969   0.00    0.0
2015/05/13 10:00:05.000   55.373778189   10.401003789    67.2772   5   8   2.9134   2.0318   4.1355   0.9617  -1.2541  -1.2969   0.00    0.0
2015/05/13 10:00:06.000   55.373775448   10.401004398    68.0190   5   8   2.9136   2.0318   4.1357   0.9618  -1.2538  -1.2970   0.00    0.0
2015/05/13 10:00:07.000   55.373766581   10.401003435    70.2781   5   8   2.9137   2.0318   4.1359   0.9619  -1.2535  -1.2970   0.00    0.0
2015/05/13 10:00:08.000   55.373758367   10.401004679    72.6980   5   8   2.9139   2.0318   4.1361   0.9621  -1.2532  -1.2971   0.00    0.0
2015/05/13 10:00:09.000   55.373756056   10.401002031    72.6429   5   8   2.9141   2.0318   4.1364   0.9622  -1.2529  -1.2971   0.00    0.0
2015/05/13 10:00:10.000   55.373786227   10.401001454    63.8260   5   8   2.9143   2.0317   4.1366   0.9623  -1.2527  -1.2972   0.00    0.0
2015/05/13 10:00:11.000   55.373775571   10.401003649    67.1782   5   8   2.9145   2.0317   4.1368   0.9624  -1.2524  -1.2972   0.00    0.0
2015/05/13 10:00:12.000   55.373792006   10.401002267    61.9727   5   8   2.9147   2.0317   4.1370   0.9626  -1.2521  -1.2973   0.00    0.0
2015/05/13 10:00:13.000   55.373783666   10.400998530    64.3862   5   8   2.9148   2.0317   4.1372   0.9627  -1.2518  -1.2974   0.00    0.0
2015/05/13 10:00:14.000   55.373780720   10.400996932    64.2942   5   8   2.9150   2.0317   4.1374   0.9628  -1.2516  -1.2974   0.00    0.0
2015/05/13 10:00:15.000   55.373802858   10.400998725    58.1385   5   8   2.9152   2.0317   4.1376   0.9629  -1.2513  -1.2975   0.00    0.0
2015/05/13 10:00:16.000   55.373789209   10.401000042    61.3736   5   8   2.9154   2.0317   4.1379   0.9631  -1.2510  -1.2975   0.00    0.0
2015/05/13 10:00:17.000   55.373795158   10.400996496    58.5713   5   8   2.9156   2.0316   4.1381   0.9632  -1.2507  -1.2976   0.00    0.0
2015/05/13 10:00:18.000   55.373779109   10.400999532    63.2861   5   8   2.9158   2.0316   4.1383   0.9633  -1.2504  -1.2976   0.00    0.0
2015/05/13 10:00:19.000   55.373780593   10.400998006    62.4605   5   8   2.9160   2.0316   4.1385   0.9634  -1.2502  -1.2977   0.00    0.0
2015/05/13 10:00:20.000   55.373787335   10.400999488    59.9959   5   8   2.9161   2.0316   4.1387   0.9636  -1.2499  -1.2977   0.00    0.0
2015/05/13 10:00:21.000   55.373796481   10.400998324    58.5095   5   8   2.9163   2.0316   4.1389   0.9637  -1.2496  -1.2978   0.00    0.0
2015/05/13 10:00:22.000   55.373763282   10.400998493    69.0810   5   8   2.9165   2.0316   4.1391   0.9638  -1.2493  -1.2978   0.00    0.0
2015/05/13 10:00:23.000   55.373745791   10.400998363    74.2008   5   8   2.9167   2.0315   4.1394   0.9639  -1.2491  -1.2978   0.00    0.0
2015/05/13 10:00:24.000   55.373752066   10.401002724    74.1884   5   8   2.9169   2.0315   4.1396   0.9641  -1.2488  -1.2979   0.00    0.0
2015/05/13 10:00:25.000   55.373754543   10.401003221    73.4913   5   8   2.9171   2.0315   4.1398   0.9642  -1.2485  -1.2979   0.00    0.0
2015/05/13 10:00:26.000   55.373752945   10.401003842    73.9836   5   8   2.9172   2.0315   4.1400   0.9643  -1.2482  -1.2980   0.00    0.0
2015/05/13 10:00:27.000   55.373760842   10.401006713    71.5312   5   8   2.9174   2.0315   4.1402   0.9644  -1.2479  -1.2980   0.00    0.0
2015/05/13 10:00:28.000   55.373733211   10.401009916    78.1881   5   8   2.9176   2.0315   4.1404   0.9646  -1.2477  -1.2981   0.00    0.0
2015/05/13 10:00:29.000   55.373738471   10.401008662    76.6369   5   8   2.9178   2.0315   4.1407   0.9647  -1.2474  -1.2981   0.00    0.0
2015/05/13 10:00:30.000   55.373752034   10.401012034    72.8751   5   8   2.9180   2.0315   4.1409   0.9648  -1.2471  -1.2982   0.00    0.0
2015/05/13 10:00:32.000   55.373808355   10.401016029    57.2462   5   8   2.9184   2.0314   4.1413   0.9651  -1.2466  -1.2983   0.00    0.0
2015/05/13 10:00:33.000   55.373805537   10.401013646    58.0706   5   8   2.9185   2.0314   4.1415   0.9652  -1.2463  -1.2983   0.00    0.0
2015/05/13 10:00:34.000   55.373804535   10.401013127    58.5069   5   8   2.9187   2.0314   4.1417   0.9653  -1.2460  -1.2984   0.00    0.0
2015/05/13 10:00:37.000   55.373807221   10.401010877    56.4089   5   8   2.9193   2.0314   4.1424   0.9657  -1.2452  -1.2985   0.00    0.0
2015/05/13 10:00:38.000   55.373769221   10.401013537    67.2410   5   8   2.9195   2.0313   4.1426   0.9658  -1.2449  -1.2985   0.00    0.0
2015/05/13 10:00:39.000   55.373751505   10.401012893    72.2149   5   8   2.9196   2.0313   4.1428   0.9659  -1.2446  -1.2986   0.00    0.0
2015/05/13 10:00:40.000   55.373737382   10.401016094    75.7084   5   8   2.9198   2.0313   4.1430   0.9661  -1.2443  -1.2986   0.00    0.0
2015/05/13 10:00:41.000   55.373736508   10.401015583    75.6186   5   8   2.9200   2.0313   4.1433   0.9662  -1.2440  -1.2987   0.00    0.0
2015/05/13 10:00:43.000   55.373730535   10.401007503    77.8057   5   8   2.9204   2.0313   4.1437   0.9664  -1.2435  -1.2987   0.00    0.0
2015/05/13 10:00:44.000   55.373746721   10.401004072    72.7635   5   8   2.9206   2.0313   4.1439   0.9666  -1.2432  -1.2988   0.00    0.0
2015/05/13 10:00:45.000   55.373736692   10.401002660    75.0959   5   8   2.9208   2.0312   4.1441   0.9667  -1.2429  -1.2988   0.00    0.0
2015/05/13 10:00:46.000   55.373749785   10.401003110    71.2648   5   8   2.9209   2.0312   4.1444   0.9668  -1.2426  -1.2989   0.00    0.0
2015/05/13 10:00:47.000   55.373761566   10.400998943    67.9238   5   8   2.9211   2.0312   4.1446   0.9669  -1.2424  -1.2989   0.00    0.0
2015/05/13 10:00:48.000   55.373780944   10.401001768    61.7843   5   8   2.9213   2.0312   4.1448   0.9671  -1.2421  -1.2990   0.00    0.0
2015/05/13 10:00:49.000   55.373782048   10.400999984    61.2980   5   8   2.9215   2.0312   4.1450   0.9672  -1.2418  -1.2990   0.00    0.0
2015/05/13 10:00:50.000   55.373780884   10.400999741    61.5431   5   8   2.9217   2.0312   4.1452   0.9673  -1.2415  -1.2990   0.00    0.0
2015/05/13 10:00:51.000   55.373767725   10.400996548    65.1230   5   8   2.9219   2.0312   4.1455   0.9674  -1.2412  -1.2991   0.00    0.0
2015/05/13 10:00:52.000   55.373769934   10.400999359    63.5930   5   8   2.9220   2.0311   4.1457   0.9676  -1.2410  -1.2991   0.00    0.0
2015/05/13 10:00:53.000   55.373759846   10.400997956    65.1692   5   8   2.9222   2.0311   4.1459   0.9677  -1.2407  -1.2992   0.00    0.0
2015/05/13 10:00:54.000   55.373774937   10.400998362    60.3187   5   8   2.9224   2.0311   4.1461   0.9678  -1.2404  -1.2992   0.00    0.0
2015/05/13 10:00:55.000   55.373762317   10.400999635    63.1948   5   8   2.9226   2.0311   4.1463   0.9679  -1.2401  -1.2992   0.00    0.0
2015/05/13 10:00:56.000   55.373750856   10.400996507    66.5222   5   8   2.9228   2.0311   4.1465   0.9681  -1.2398  -1.2993   0.00    0.0
2015/05/13 10:00:58.000   55.373724378   10.400995828    73.2028   5   8   2.9232   2.0311   4.1470   0.9683  -1.2393  -1.2993   0.00    0.0
2015/05/13 10:00:59.000   55.373727951   10.401000053    72.2042   5   8   2.9233   2.0311   4.1472   0.9684  -1.2390  -1.2994   0.00    0.0
2015/05/13 10:01:00.000   55.373707676   10.401000432    77.2124   5   8   2.9235   2.0310   4.1474   0.9686  -1.2387  -1.2994   0.00    0.0
2015/05/13 10:01:01.000   55.373729166   10.401004017    71.7514   5   8   2.9237   2.0310   4.1476   0.9687  -1.2384  -1.2995   0.00    0.0
2015/05/13 10:01:02.000   55.373728545   10.401006652    71.6700   5   8   2.9239   2.0310   4.1479   0.9688  -1.2381  -1.2995   0.00    0.0
2015/05/13 10:01:03.000   55.373718382   10.401009229    74.3798   5   8   2.9241   2.0310   4.1481   0.9689  -1.2379  -1.2995   0.00    0.0
2015/05/13 10:01:04.000   55.373706486   10.401006887    77.9101   5   8   2.9243   2.0310   4.1483   0.9691  -1.2376  -1.2996   0.00    0.0
2015/05/13 10:01:05.000   55.373717508   10.401004997    75.6274   5   8   2.9244   2.0310   4.1485   0.9692  -1.2373  -1.2996   0.00    0.0
2015/05/13 10:01:06.000   55.373723858   10.401006215    74.7938   5   8   2.9246   2.0310   4.1487   0.9693  -1.2370  -1.2996   0.00    0.0
2015/05/13 10:01:07.000   55.373728574   10.401005408    74.2218   5   8   2.9248   2.0310   4.1490   0.9694  -1.2367  -1.2997   0.00    0.0
2015/05/13 10:01:08.000   55.373726728   10.401001973    75.5055   5   8   2.9250   2.0309   4.1492   0.9696  -1.2365  -1.2997   0.00    0.0
2015/05/13 10:01:09.000   55.373734492   10.401002764    73.8664   5   8   2.9252   2.0309   4.1494   0.9697  -1.2362  -1.2997   0.00    0.0
2015/05/13 10:01:10.000   55.373746878   10.400999499    71.4234   5   8   2.9254   2.0309   4.1496   0.9698  -1.2359  -1.2998   0.00    0.0
2015/05/13 10:01:11.000   55.373753983   10.401000024    69.6732   5   8   2.9255   2.0309   4.1499   0.9699  -1.2356  -1.2998   0.00    0.0
2015/05/13 10:01:12.000   55.373738340   10.400997653    73.1670   5   8   2.9257   2.0309   4.1501   0.9701  -1.2353  -1.2998   0.00    0.0
2015/05/13 10:01:13.000   55.373758399   10.400997463    67.9833   5   8   2.9259   2.0309   4.1503   0.9702  -1.2350  -1.2999   0.00    0.0
2015/05/13 10:01:14.000   55.373747346   10.400995024    71.7419   5   8   2.9261   2.0309   4.1505   0.9703  -1.2348  -1.2999   0.00    0.0
2015/05/13 10:01:15.000   55.373735366   10.400992240    75.2362   5   8   2.9263   2.0309   4.1507   0.9704  -1.2345  -1.2999   0.00    0.0
2015/05/13 10:01:16.000   55.373741663   10.400994507    73.8378   5   8   2.9265   2.0308   4.1510   0.9706  -1.2342  -1.3000   0.00    0.0
2015/05/13 10:01:17.000   55.373760392   10.400994542    69.0981   5   8   2.9267   2.0308   4.1512   0.9707  -1.2339  -1.3000   0.00    0.0
2015/05/13 10:01:18.000   55.373750501   10.400991444    70.9968   5   8   2.9268   2.0308   4.1514   0.9708  -1.2336  -1.3000   0.00    0.0
2015/05/13 10:01:19.000   55.373746211   10.400992164    71.9022   5   8   2.9270   2.0308   4.1516   0.9709  -1.2333  -1.3000   0.00    0.0
2015/05/13 10:01:20.000   55.373762927   10.400990195    67.0580   5   8   2.9272   2.0308   4.1518   0.9711  -1.2331  -1.3001   0.00    0.0
2015/05/13 10:01:21.000   55.373746861   10.400987050    71.3060   5   8   2.9274   2.0308   4.1521   0.9712  -1.2328  -1.3001   0.00    0.0
2015/05/13 10:01:22.000   55.373723472   10.400982529    77.2552   5   8   2.9276   2.0308   4.1523   0.9713  -1.2325  -1.3001   0.00    0.0
2015/05/13 10:01:23.000   55.373774085   10.400982923    62.2354   5   8   2.9278   2.0308   4.1525   0.9714  -1.2322  -1.3002   0.00    0.0
2015/05/13 10:01:24.000   55.373690754   10.400986581    69.7379   5   8   4.9941   3.2741   6.5523   1.6218  -1.8825   0.6681   0.00    0.0
2015/05/13 10:01:25.000   55.373696100   10.400986839    68.5190   5   8   4.9943   3.2741   6.5527   1.6219  -1.8820   0.6688   0.00    0.0
2015/05/13 10:01:26.000   55.373768813   10.400987063    54.7718   5   8   4.9945   3.2740   6.5531   1.6221  -1.8816   0.6696   0.00    0.0
2015/05/13 10:01:27.000   55.373788019   10.400989771    51.1548   5   8   4.9946   3.2739   6.5535   1.6222  -1.8812   0.6703   0.00    0.0
2015/05/13 10:01:28.000   55.373808158   10.400988089    46.8560   5   8   4.9948   3.2739   6.5538   1.6223  -1.8807   0.6710   0.00    0.0
2015/05/13 10:01:29.000   55.373809822   10.400991036    46.4756   5   8   4.9950   3.2738   6.5542   1.6225  -1.8803   0.6717   0.00    0.0
2015/05/13 10:01:30.000   55.373776876   10.400989421    52.2984   5   8   4.9952   3.2737   6.5546   1.6226  -1.8798   0.6724   0.00    0.0
2015/05/13 10:01:31.000   55.373749966   10.400995299    58.7063   5   8   4.9954   3.2737   6.5550   1.6227  -1.8794   0.6731   0.00    0.0
2015/05/13 10:01:32.000   55.373758665   10.401001180    57.1368   5   8   4.9956   3.2736   6.5553   1.6229  -1.8789   0.6738   0.00    0.0
2015/05/13 10:01:33.000   55.373754094   10.401002974    58.6103   5   8   4.9958   3.2736   6.5557   1.6230  -1.8785   0.6745   0.00    0.0
2015/05/13 10:01:34.000   55.373752772   10.401004704    58.2655   5   8   4.9960   3.2735   6.5561   1.6232  -1.8780   0.6752   0.00    0.0
2015/05/13 10:01:35.000   55.373737893   10.401010316    61.1547   5   8   4.9961   3.2734   6.5565   1.6233  -1.8776   0.6759   0.00    0.0
2015/05/13 10:01:36.000   55.373714520   10.401013813    65.9849   5   8   4.9963   3.2734   6.5568   1.6234  -1.8771   0.6766   0.00    0.0
2015/05/13 10:01:37.000   55.373707135   10.401017547    67.5391   5   8   4.9965   3.2733   6.5572   1.6236  -1.8767   0.6773   0.00    0.0
2015/05/13 10:01:38.000   55.373699602   10.401018431    68.9208   5   8   4.9967   3.2733   6.5576   1.6237  -1.8762   0.6781   0.00    0.0
2015/05/13 10:01:39.000   55.373678761   10.401021297    72.9494   5   8   4.9969   3.2732   6.5580   1.6238  -1.8758   0.6788   0.00    0.0
2015/05/13 10:01:40.000   55.373652436   10.401024211    77.2345   5   8   4.9971   3.2731   6.5583   1.6240  -1.8753   0.6795   0.00    0.0
2015/05/13 10:01:45.000   55.373690792   10.401021237    70.1927   5   8   4.9980   3.2728   6.5602   1.6246  -1.8731   0.6831   0.00    0.0
2015/05/13 10:01:46.000   55.373696318   10.401023480    68.7415   5   8   4.9982   3.2728   6.5606   1.6248  -1.8726   0.6838   0.00    0.0
2015/05/13 10:01:47.000   55.373734824   10.401018434    61.2619   5   8   4.9984   3.2727   6.5610   1.6249  -1.8722   0.6845   0.00    0.0
2015/05/13 10:01:48.000   55.373717651   10.401018741    64.5672   5   8   4.9986   3.2726   6.5614   1.6250  -1.8717   0.6852   0.00    0.0
2015/05/13 10:01:49.000   55.373731932   10.401014356    61.6318   5   8   4.9987   3.2726   6.5618   1.6252  -1.8713   0.6860   0.00    0.0
2015/05/13 10:01:50.000   55.373725642   10.401015314    63.1724   5   8   4.9989   3.2725   6.5621   1.6253  -1.8708   0.6867   0.00    0.0
2015/05/13 10:01:51.000   55.373733941   10.401014573    61.5638   5   8   4.9991   3.2724   6.5625   1.6254  -1.8704   0.6874   0.00    0.0
2015/05/13 10:01:52.000   55.373736486   10.401017636    60.9186   5   8   4.9993   3.2724   6.5629   1.6256  -1.8699   0.6881   0.00    0.0
2015/05/13 10:01:53.000   55.373722094   10.401014209    63.6280   5   8   4.9995   3.2723   6.5633   1.6257  -1.8695   0.6889   0.00    0.0
2015/05/13 10:01:54.000   55.373722760   10.401007467    62.9657   5   8   4.9997   3.2723   6.5637   1.6258  -1.8690   0.6896   0.00    0.0
2015/05/13 10:01:55.000   55.373721171   10.401006600    62.7543   5   8   4.9999   3.2722   6.5640   1.6260  -1.8686   0.6903   0.00    0.0
2015/05/13 10:01:56.000   55.373721098   10.401009505    62.4891   5   8   5.0000   3.2721   6.5644   1.6261  -1.8681   0.6911   0.00    0.0
2015/05/13 10:01:57.000   55.373711140   10.401008100    64.9907   5   8   5.0002   3.2721   6.5648   1.6262  -1.8677   0.6918   0.00    0.0
2015/05/13 10:01:58.000   55.373701618   10.401004964    66.3096   5   8   5.0004   3.2720   6.5652   1.6264  -1.8672   0.6925   0.00    0.0
2015/05/13 10:01:59.000   55.373710396   10.401008891    64.4357   5   8   5.0006   3.2720   6.5656   1.6265  -1.8668   0.6932   0.00    0.0
2015/05/13 10:02:00.000   55.373712641   10.401010156    64.6934   5   8   5.0008   3.2719   6.5660   1.6266  -1.8663   0.6940   0.00    0.0
2015/05/13 10:02:01.000   55.373654919   10.401012216    76.4282   5   8   5.0010   3.2718   6.5664   1.6268  -1.8659   0.6947   0.00    0.0
2015/05/13 10:02:02.000   55.373650158   10.401011664    77.8380   5   8   5.0011   3.2718   6.5667   1.6269  -1.8654   0.6954   0.00    0.0
2015/05/13 10:02:03.000   55.373667106   10.401016818    74.1240   5   8   5.0013   3.2717   6.5671   1.6270  -1.8649   0.6962   0.00    0.0
2015/05/13 10:02:04.000   55.373722416   10.401018260    63.6518   5   8   5.0015   3.2716   6.5675   1.6272  -1.8645   0.6969   0.00    0.0
2015/05/13 10:02:05.000   55.373704112   10.401025527    66.8617   5   8   5.0017   3.2716   6.5679   1.6273  -1.8640   0.6977   0.00    0.0
2015/05/13 10:02:06.000   55.373701558   10.401021266    67.4045   5   8   5.0019   3.2715   6.5683   1.6274  -1.8636   0.6984   0.00    0.0
2015/05/13 10:02:07.000   55.373746021   10.401014000    58.0626   5   8   5.0020   3.2715   6.5687   1.6276  -1.8631   0.6991   0.00    0.0
2015/05/13 10:02:08.000   55.373749686   10.401010997    56.7580   5   8   5.0022   3.2714   6.5691   1.6277  -1.8627   0.6999   0.00    0.0
2015/05/13 10:02:09.000   55.373779933   10.401007224    50.3113   5   8   5.0024   3.2713   6.5694   1.6278  -1.8622   0.7006   0.00    0.0
2015/05/13 10:02:10.000   55.373744034   10.401008519    57.3207   5   8   5.0026   3.2713   6.5698   1.6280  -1.8618   0.7014   0.00    0.0
2015/05/13 10:02:11.000   55.373734684   10.401005335    58.5961   5   8   5.0028   3.2712   6.5702   1.6281  -1.8613   0.7021   0.00    0.0
2015/05/13 10:02:12.000   55.373732879   10.401001904    58.6446   5   8   5.0030   3.2712   6.5706   1.6282  -1.8609   0.7028   0.00    0.0
2015/05/13 10:02:13.000   55.373722904   10.400998788    60.3261   5   8   5.0031   3.2711   6.5710   1.6284  -1.8604   0.7036   0.00    0.0
2015/05/13 10:02:14.000   55.373694584   10.400998731    65.4024   5   8   5.0033   3.2710   6.5714   1.6285  -1.8599   0.7043   0.00    0.0
2015/05/13 10:02:15.000   55.373700404   10.401000516    63.9620   5   8   5.0035   3.2710   6.5718   1.6286  -1.8595   0.7051   0.00    0.0
2015/05/13 10:02:16.000   55.373705084   10.400998204    62.2972   5   8   5.0037   3.2709   6.5722   1.6288  -1.8590   0.7058   0.00    0.0
2015/05/13 10:02:17.000   55.373715383   10.400998231    59.7720   5   8   5.0039   3.2708   6.5725   1.6289  -1.8586   0.7066   0.00    0.0
2015/05/13 10:02:18.000   55.373735686   10.401000961    55.7671   5   8   5.0040   3.2708   6.5729   1.6290  -1.8581   0.7073   0.00    0.0
2015/05/13 10:02:19.000   55.373718608   10.401001628    59.3826   5   8   5.0042   3.2707   6.5733   1.6292  -1.8577   0.7081   0.00    0.0
2015/05/13 10:02:20.001   55.373699681   10.401000773    62.8269   5   8   5.0044   3.2707   6.5737   1.6293  -1.8572   0.7088   0.00    0.0
2015/05/13 10:02:21.000   55.373696323   10.401004264    64.2297   5   8   5.0046   3.2706   6.5741   1.6294  -1.8567   0.7096   0.00    0.0
2015/05/13 10:02:22.000   55.373744074   10.401001772    55.7061   5   8   5.0048   3.2705   6.5745   1.6296  -1.8563   0.7103   0.00    0.0
2015/05/13 10:02:23.000   55.373717985   10.401002363    60.3829   5   8   5.0049   3.2705   6.5749   1.6297  -1.8558   0.7111   0.00    0.0
2015/05/13 10:02:24.000   55.373727112   10.400998358    58.2816   5   8   5.0051   3.2704   6.5753   1.6298  -1.8554   0.7118   0.00    0.0
2015/05/13 10:02:25.000   55.373713209   10.400992557    60.3646   5   8   5.0053   3.2704   6.5757   1.6300  -1.8549   0.7126   0.00    0.0
2015/05/13 10:02:26.000   55.373713521   10.400990238    59.2707   5   8   5.0055   3.2703   6.5761   1.6301  -1.8544   0.7133   0.00    0.0
2015/05/13 10:02:27.000   55.373714743   10.400991089    58.6400   5   8   5.0057   3.2702   6.5765   1.6302  -1.8540   0.7141   0.00    0.0
2015/05/13 10:02:28.000   55.373709538   10.400988081    60.2462   5   8   5.0058   3.2702   6.5769   1.6304  -1.8535   0.7148   0.00    0.0
2015/05/13 10:02:29.000   55.373737952   10.400987125    54.2851   5   8   5.0060   3.2701   6.5772   1.6305  -1.8531   0.7156   0.00    0.0
2015/05/13 10:02:30.000   55.373757059   10.400986977    51.0763   5   8   5.0062   3.2700   6.5776   1.6306  -1.8526   0.7163   0.00    0.0
2015/05/13 10:02:31.000   55.373742137   10.400986643    53.4244   5   8   5.0064   3.2700   6.5780   1.6308  -1.8521   0.7171   0.00    0.0
2015/05/13 10:02:32.000   55.373728191   10.400990597    56.1275   5   8   5.0066   3.2699   6.5784   1.6309  -1.8517   0.7179   0.00    0.0
2015/05/13 10:02:33.000   55.373738282   10.400990457    54.7144   5   8   5.0067   3.2699   6.5788   1.6310  -1.8512   0.7186   0.00    0.0
2015/05/13 10:02:34.000   55.373688347   10.400992142    65.1517   5   8   5.0069   3.2698   6.5792   1.6311  -1.8508   0.7194   0.00    0.0
2015/05/13 10:02:35.000   55.373694838   10.400992402    64.5551   5   8   5.0071   3.2697   6.5796   1.6313  -1.8503   0.7201   0.00    0.0
2015/05/13 10:02:36.000   55.373688268   10.400995799    66.0709   5   8   5.0073   3.2697   6.5800   1.6314  -1.8498   0.7209   0.00    0.0
2015/05/13 10:02:37.000   55.373686090   10.401000126    66.6458   5   8   5.0075   3.2696   6.5804   1.6315  -1.8494   0.7217   0.00    0.0
2015/05/13 10:02:38.000   55.373691535   10.401001114    65.9613   5   8   5.0076   3.2696   6.5808   1.6317  -1.8489   0.7224   0.00    0.0
2015/05/13 10:02:39.000   55.373690360   10.401000724    66.1587   5   8   5.0078   3.2695   6.5812   1.6318  -1.8484   0.7232   0.00    0.0
2015/05/13 10:02:40.000   55.373720954   10.401000665    59.6955   5   8   5.0080   3.2694   6.5816   1.6319  -1.8480   0.7240   0.00    0.0
2015/05/13 10:02:41.000   55.373708853   10.401000064    62.0672   5   8   5.0082   3.2694   6.5820   1.6321  -1.8475   0.7247   0.00    0.0
2015/05/13 10:02:42.000   55.373723998   10.401000774    59.0312   5   8   5.0083   3.2693   6.5824   1.6322  -1.8471   0.7255   0.00    0.0
2015/05/13 10:02:43.000   55.373723424   10.400998237    58.7591   5   8   5.0085   3.2693   6.5828   1.6323  -1.8466   0.7263   0.00    0.0
2015/05/13 10:02:44.000   55.373744018   10.400997751    54.6401   5   8   5.0087   3.2692   6.5832   1.6325  -1.8461   0.7270   0.00    0.0
2015/05/13 10:02:45.000   55.373741590   10.400990900    54.7987   5   8   5.0089   3.2691   6.5836   1.6326  -1.8457   0.7278   0.00    0.0
2015/05/13 10:02:46.000   55.373718218   10.400991103    59.1266   5   8   5.0091   3.2691   6.5840   1.6327  -1.8452   0.7286   0.00    0.0
2015/05/13 10:02:47.000   55.373718264   10.400990093    58.6170   5   8   5.0092   3.2690   6.5844   1.6329  -1.8447   0.7293   0.00    0.0
2015/05/13 10:02:48.000   55.373723378   10.400991841    58.4856   5   8   5.0094   3.2689   6.5848   1.6330  -1.8443   0.7301   0.00    0.0
2015/05/13 10:02:49.000   55.373747224   10.400993258    54.5766   5   8   5.0096   3.2689   6.5852   1.6331  -1.8438   0.7309   0.00    0.0
2015/05/13 10:02:50.000   55.373725074   10.400993733    58.7480   5   8   5.0098   3.2688   6.5856   1.6333  -1.8433   0.7316   0.00    0.0
2015/05/13 10:02:51.000   55.373719337   10.400995584    60.0179   5   8   5.0099   3.2688   6.5860   1.6334  -1.8429   0.7324   0.00    0.0
2015/05/13 10:02:52.000   55.373716956   10.400997700    61.0000   5   8   5.0101   3.2687   6.5864   1.6335  -1.8424   0.7332   0.00    0.0
2015/05/13 10:02:53.000   55.373736410   10.400995448    57.1707   5   8   5.0103   3.2686   6.5868   1.6337  -1.8419   0.7340   0.00    0.0
2015/05/13 10:02:54.000   55.373693973   10.400996846    65.2950   5   8   5.0105   3.2686   6.5872   1.6338  -1.8415   0.7347   0.00    0.0
2015/05/13 10:02:55.000   55.373709758   10.400990891    61.8069   5   8   5.0106   3.2685   6.5876   1.6339  -1.8410   0.7355   0.00    0.0
2015/05/13 10:02:56.000   55.373694483   10.400988714    64.7034   5   8   5.0108   3.2685   6.5880   1.6340  -1.8405   0.7363   0.00    0.0
2015/05/13 10:02:57.000   55.373711200   10.400986261    61.4229   5   8   5.0110   3.2684   6.5884   1.6342  -1.8401   0.7371   0.00    0.0
2015/05/13 10:02:58.000   55.373727155   10.400985737    58.7664   5   8   5.0112   3.2683   6.5888   1.6343  -1.8396   0.7378   0.00    0.0
2015/05/13 10:02:59.000   55.373703278   10.400981225    63.4289   5   8   5.0113   3.2683   6.5892   1.6344  -1.8391   0.7386   0.00    0.0
2015/05/13 10:03:00.000   55.373702827   10.400974422    63.6836   5   8   5.0115   3.2682   6.5896   1.6346  -1.8387   0.7394   0.00    0.0
2015/05/13 10:03:01.000   55.373672069   10.400972079    69.0331   5   8   5.0117   3.2682   6.5900   1.6347  -1.8382   0.7402   0.00    0.0
2015/05/13 10:03:02.000   55.373717020   10.400969297    59.8254   5   8   5.0119   3.2681   6.5904   1.6348  -1.8377   0.7410   0.00    0.0
2015/05/13 10:03:03.000   55.373709498   10.400972803    61.5862   5   8   5.0120   3.2680   6.5908   1.6350  -1.8373   0.7417   0.00    0.0
2015/05/13 10:03:04.000   55.373677356   10.400972483    67.1023   5   8   5.0122   3.2680   6.5912   1.6351  -1.8368   0.7425   0.00    0.0
2015/05/13 10:03:05.000   55.373712724   10.400971957    60.5489   5   8   5.0124   3.2679   6.5916   1.6352  -1.8363   0.7433   0.00    0.0
2015/05/13 10:03:06.000   55.373719001   10.400977008    59.9288   5   8   5.0126   3.2679   6.5920   1.6354  -1.8359   0.7441   0.00    0.0
2015/05/13 10:03:07.000   55.373730798   10.400979098    57.9866   5   8   5.0127   3.2678   6.5924   1.6355  -1.8354   0.7449   0.00    0.0
2015/05/13 10:03:08.000   55.373732257   10.400984286    58.3504   5   8   5.0129   3.2677   6.5928   1.6356  -1.8349   0.7457   0.00    0.0
2015/05/13 10:03:09.000   55.373719924   10.400989606    61.3694   5   8   5.0131   3.2677   6.5932   1.6357  -1.8345   0.7465   0.00    0.0
2015/05/13 10:03:10.000   55.373729311   10.400989823    59.3254   5   8   5.0133   3.2676   6.5937   1.6359  -1.8340   0.7472   0.00    0.0
2015/05/13 10:03:11.000   55.373699524   10.400995983    64.8609   5   8   5.0134   3.2675   6.5941   1.6360  -1.8335   0.7480   0.00    0.0
2015/05/13 10:03:12.000   55.373694082   10.400999060    65.7750   5   8   5.0136   3.2675   6.5945   1.6361  -1.8331   0.7488   0.00    0.0
2015/05/13 10:03:13.000   55.373705984   10.401000585    63.4372   5   8   5.0138   3.2674   6.5949   1.6363  -1.8326   0.7496   0.00    0.0
2015/05/13 10:03:14.000   55.373732327   10.401000504    58.6315   5   8   5.0140   3.2674   6.5953   1.6364  -1.8321   0.7504   0.00    0.0
2015/05/13 10:03:15.000   55.373735177   10.401002012    58.4974   5   8   5.0141   3.2673   6.5957   1.6365  -1.8316   0.7512   0.00    0.0
2015/05/13 10:03:16.000   55.373703204   10.401005500    64.9298   5   8   5.0143   3.2672   6.5961   1.6367  -1.8312   0.7520   0.00    0.0
2015/05/13 10:03:17.000   55.373692170   10.401007417    66.6986   5   8   5.0145   3.2672   6.5965   1.6368  -1.8307   0.7528   0.00    0.0
2015/05/13 10:03:18.000   55.373691231   10.401008234    66.4008   5   8   5.0147   3.2671   6.5969   1.6369  -1.8302   0.7536   0.00    0.0
2015/05/13 10:03:19.000   55.373664146   10.401011494    72.1732   5   8   5.0148   3.2671   6.5973   1.6371  -1.8298   0.7543   0.00    0.0
2015/05/13 10:03:20.000   55.373720921   10.401012514    61.9843   5   8   5.0150   3.2670   6.5977   1.6372  -1.8293   0.7551   0.00    0.0
2015/05/13 10:03:21.000   55.373699677   10.401014575    66.6445   5   8   5.0152   3.2669   6.5981   1.6373  -1.8288   0.7559   0.00    0.0
2015/05/13 10:03:22.000   55.373699297   10.401014726    67.5222   5   8   5.0153   3.2669   6.5986   1.6374  -1.8283   0.7567   0.00    0.0
2015/05/13 10:03:23.000   55.373694852   10.401013700    68.9607   5   8   5.0155   3.2668   6.5990   1.6376  -1.8279   0.7575   0.00    0.0
2015/05/13 10:03:24.000   55.373738148   10.401015074    61.5132   5   8   5.0157   3.2668   6.5994   1.6377  -1.8274   0.7583   0.00    0.0
2015/05/13 10:03:25.000   55.373765704   10.401013349    56.5336   5   8   5.0159   3.2667   6.5998   1.6378  -1.8269   0.7591   0.00    0.0
2015/05/13 10:03:26.000   55.373739805   10.401011583    61.7169   5   8   5.0160   3.2666   6.6002   1.6380  -1.8264   0.7599   0.00    0.0
2015/05/13 10:03:27.000   55.373739707   10.401010164    61.8497   5   8   5.0162   3.2666   6.6006   1.6381  -1.8260   0.7607   0.00    0.0
2015/05/13 10:03:28.000   55.373728613   10.401005407    64.1664   5   8   5.0164   3.2665   6.6010   1.6382  -1.8255   0.7615   0.00    0.0
2015/05/13 10:03:29.000   55.373716034   10.401005102    66.3462   5   8   5.0165   3.2665   6.6014   1.6384  -1.8250   0.7623   0.00    0.0
2015/05/13 10:03:30.000   55.373690365   10.401005170    71.1821   5   8   5.0167   3.2664   6.6018   1.6385  -1.8245   0.7631   0.00    0.0
2015/05/13 10:03:31.000   55.373689146   10.401005705    70.8065   5   8   5.0169   3.2663   6.6023   1.6386  -1.8241   0.7639   0.00    0.0
2015/05/13 10:03:32.000   55.373710719   10.401005785    66.4058   5   8   5.0171   3.2663   6.6027   1.6387  -1.8236   0.7647   0.00    0.0
2015/05/13 10:03:33.000   55.373735778   10.401003900    61.8499   5   8   5.0172   3.2662   6.6031   1.6389  -1.8231   0.7655   0.00    0.0
2015/05/13 10:03:34.000   55.373742926   10.401001691    60.1572   5   8   5.0174   3.2662   6.6035   1.6390  -1.8226   0.7663   0.00    0.0
2015/05/13 10:03:35.000   55.373744188   10.401001421    59.2017   5   8   5.0176   3.2661   6.6039   1.6391  -1.8222   0.7671   0.00    0.0
2015/05/13 10:03:36.000   55.373745778   10.401000555    58.0192   5   8   5.0177   3.2660   6.6043   1.6393  -1.8217   0.7679   0.00    0.0
2015/05/13 10:03:37.000   55.373741123   10.401000120    58.1359   5   8   5.0179   3.2660   6.6047   1.6394  -1.8212   0.7687   0.00    0.0
2015/05/13 10:03:38.000   55.373741226   10.400999645    57.6141   5   8   5.0181   3.2659   6.6052   1.6395  -1.8207   0.7695   0.00    0.0
2015/05/13 10:03:39.000   55.373743112   10.400998061    57.4503   5   8   5.0182   3.2659   6.6056   1.6397  -1.8203   0.7703   0.00    0.0
2015/05/13 10:03:40.000   55.373745627   10.400998676    57.0474   5   8   5.0184   3.2658   6.6060   1.6398  -1.8198   0.7712   0.00    0.0
2015/05/13 10:03:41.000   55.373745846   10.400997620    56.8998   5   8   5.0186   3.2657   6.6064   1.6399  -1.8193   0.7720   0.00    0.0
2015/05/13 10:03:42.000   55.373744330   10.400996606    57.2196   5   8   5.0188   3.2657   6.6068   1.6400  -1.8188   0.7728   0.00    0.0
2015/05/13 10:03:43.000   55.373741330   10.400990230    57.5233   5   8   5.0189   3.2656   6.6072   1.6402  -1.8183   0.7736   0.00    0.0
2015/05/13 10:03:44.000   55.373736362   10.400989696    57.7749   5   8   5.0191   3.2656   6.6077   1.6403  -1.8179   0.7744   0.00    0.0
2015/05/13 10:03:45.000   55.373731694   10.400991631    58.6162   5   8   5.0193   3.2655   6.6081   1.6404  -1.8174   0.7752   0.00    0.0
2015/05/13 10:03:46.000   55.373720154   10.400987374    59.9572   5   8   5.0194   3.2654   6.6085   1.6406  -1.8169   0.7760   0.00    0.0
2015/05/13 10:03:47.000   55.373720027   10.400985110    59.4108   5   8   5.0196   3.2654   6.6089   1.6407  -1.8164   0.7768   0.00    0.0
2015/05/13 10:03:48.000   55.373692588   10.400989037    64.3775   5   8   5.0198   3.2653   6.6093   1.6408  -1.8159   0.7776   0.00    0.0
2015/05/13 10:03:49.000   55.373729341   10.400989455    57.9573   5   8   5.0199   3.2653   6.6098   1.6409  -1.8155   0.7784   0.00    0.0
2015/05/13 10:03:50.000   55.373755015   10.400992537    53.3812   5   8   5.0201   3.2652   6.6102   1.6411  -1.8150   0.7793   0.00    0.0
2015/05/13 10:03:51.000   55.373720268   10.400997591    59.7413   5   8   5.0203   3.2651   6.6106   1.6412  -1.8145   0.7801   0.00    0.0
2015/05/13 10:03:52.000   55.373678219   10.401005167    67.8682   5   8   5.0204   3.2651   6.6110   1.6413  -1.8140   0.7809   0.00    0.0
2015/05/13 10:03:53.000   55.373648664   10.401009645    73.3354   5   8   5.0206   3.2650   6.6114   1.6415  -1.8135   0.7817   0.00    0.0
2015/05/13 10:04:05.000   55.373660939   10.401006046    75.8287   5   8   5.0226   3.2643   6.6165   1.6430  -1.8077   0.7915   0.00    0.0
2015/05/13 10:04:06.000   55.373735649   10.401000566    62.5758   5   8   5.0228   3.2642   6.6169   1.6431  -1.8073   0.7923   0.00    0.0
2015/05/13 10:04:07.000   55.373764024   10.401002876    58.3518   5   8   5.0230   3.2642   6.6174   1.6433  -1.8068   0.7932   0.00    0.0
2015/05/13 10:04:08.000   55.373762354   10.401005058    58.6007   5   8   5.0231   3.2641   6.6178   1.6434  -1.8063   0.7940   0.00    0.0
2015/05/13 10:04:09.000   55.373749384   10.401005251    60.8112   5   8   5.0233   3.2641   6.6182   1.6435  -1.8058   0.7948   0.00    0.0
2015/05/13 10:04:10.000   55.373745457   10.401006637    61.4134   5   8   5.0235   3.2640   6.6186   1.6436  -1.8053   0.7956   0.00    0.0
2015/05/13 10:04:11.000   55.373744671   10.401005233    61.9266   5   8   5.0236   3.2639   6.6191   1.6438  -1.8048   0.7965   0.00    0.0
2015/05/13 10:04:12.000   55.373757700   10.401004301    59.8767   5   8   5.0238   3.2639   6.6195   1.6439  -1.8043   0.7973   0.00    0.0
2015/05/13 10:04:13.000   55.373787081   10.401005047    54.8332   5   8   5.0239   3.2638   6.6199   1.6440  -1.8039   0.7981   0.00    0.0
2015/05/13 10:04:14.000   55.373766268   10.401005589    59.6182   5   8   5.0241   3.2638   6.6203   1.6442  -1.8034   0.7990   0.00    0.0
2015/05/13 10:04:15.000   55.373745949   10.401008153    63.4864   5   8   5.0243   3.2637   6.6208   1.6443  -1.8029   0.7998   0.00    0.0
2015/05/13 10:04:16.000   55.373736035   10.401010401    64.4243   5   8   5.0244   3.2636   6.6212   1.6444  -1.8024   0.8006   0.00    0.0
2015/05/13 10:04:17.000   55.373729144   10.401006466    65.2735   5   8   5.0246   3.2636   6.6216   1.6445  -1.8019   0.8014   0.00    0.0
2015/05/13 10:04:18.000   55.373711437   10.401009822    68.1489   5   8   5.0248   3.2635   6.6221   1.6447  -1.8014   0.8023   0.00    0.0
2015/05/13 10:04:19.000   55.373675580   10.401015754    74.7955   5   8   5.0249   3.2635   6.6225   1.6448  -1.8009   0.8031   0.00    0.0
2015/05/13 10:04:20.000   55.373665234   10.401016742    76.0822   5   8   5.0251   3.2634   6.6229   1.6449  -1.8005   0.8039   0.00    0.0
2015/05/13 10:04:21.000   55.373681794   10.401017453    72.6301   5   8   5.0253   3.2633   6.6233   1.6451  -1.8000   0.8048   0.00    0.0
2015/05/13 10:04:22.000   55.373720611   10.401017116    65.7607   5   8   5.0254   3.2633   6.6238   1.6452  -1.7995   0.8056   0.00    0.0
2015/05/13 10:04:23.000   55.373734265   10.401016781    62.8686   5   8   5.0256   3.2632   6.6242   1.6453  -1.7990   0.8064   0.00    0.0
2015/05/13 10:04:24.000   55.373720088   10.401018037    65.0923   5   8   5.0258   3.2632   6.6246   1.6454  -1.7985   0.8073   0.00    0.0
2015/05/13 10:04:25.000   55.373703703   10.401020235    68.2868   5   8   5.0259   3.2631   6.6251   1.6456  -1.7980   0.8081   0.00    0.0
2015/05/13 10:04:26.000   55.373719501   10.401021671    65.0434   5   8   5.0261   3.2630   6.6255   1.6457  -1.7975   0.8089   0.00    0.0
2015/05/13 10:04:27.000   55.373742841   10.401021056    60.5534   5   8   5.0263   3.2630   6.6259   1.6458  -1.7970   0.8098   0.00    0.0
2015/05/13 10:04:28.000   55.373704488   10.401022050    67.0109   5   8   5.0264   3.2629   6.6264   1.6460  -1.7965   0.8106   0.00    0.0
2015/05/13 10:04:29.000   55.373716997   10.401019452    64.7676   5   8   5.0266   3.2629   6.6268   1.6461  -1.7960   0.8114   0.00    0.0
2015/05/13 10:04:30.000   55.373721985   10.401020886    63.0868   5   8   5.0267   3.2628   6.6272   1.6462  -1.7956   0.8123   0.00    0.0
2015/05/13 10:04:31.000   55.373729500   10.401017937    61.1794   5   8   5.0269   3.2627   6.6277   1.6463  -1.7951   0.8131   0.00    0.0
2015/05/13 10:04:32.000   55.373695508   10.401014545    67.2153   5   8   5.0271   3.2627   6.6281   1.6465  -1.7946   0.8139   0.00    0.0
2015/05/13 10:04:33.000   55.373688575   10.401014913    68.1699   5   8   5.0272   3.2626   6.6285   1.6466  -1.7941   0.8148   0.00    0.0
2015/05/13 10:04:34.000   55.373649848   10.401014904    74.7923   5   8   5.0274   3.2626   6.6290   1.6467  -1.7936   0.8156   0.00    0.0
2015/05/13 10:04:35.000   55.373652903   10.401010364    73.5589   5   8   5.0276   3.2625   6.6294   1.6468  -1.7931   0.8165   0.00    0.0
2015/05/13 10:04:36.000   55.373677560   10.401009521    69.3819   5   8   5.0277   3.2624   6.6298   1.6470  -1.7926   0.8173   0.00    0.0
2015/05/13 10:04:37.000   55.373736357   10.401005766    59.0105   5   8   5.0279   3.2624   6.6303   1.6471  -1.7921   0.8181   0.00    0.0
2015/05/13 10:04:38.000   55.373728783   10.401005874    60.4336   5   8   5.0280   3.2623   6.6307   1.6472  -1.7916   0.8190   0.00    0.0
2015/05/13 10:04:39.000   55.373739173   10.401005035    58.7099   5   8   5.0282   3.2623   6.6311   1.6474  -1.7911   0.8198   0.00    0.0
2015/05/13 10:04:40.000   55.373728433   10.401008105    60.2695   5   8   5.0284   3.2622   6.6316   1.6475  -1.7906   0.8207   0.00    0.0
2015/05/13 10:04:41.000   55.373723786   10.401005726    61.4368   5   8   5.0285   3.2621   6.6320   1.6476  -1.7901   0.8215   0.00    0.0
2015/05/13 10:04:42.000   55.373740249   10.401004662    57.9535   5   8   5.0287   3.2621   6.6325   1.6477  -1.7896   0.8224   0.00    0.0
2015/05/13 10:04:43.000   55.373727268   10.401006319    60.6584   5   8   5.0289   3.2620   6.6329   1.6479  -1.7891   0.8232   0.00    0.0
2015/05/13 10:04:44.000   55.373733522   10.400997923    59.3005   5   8   5.0290   3.2620   6.6333   1.6480  -1.7886   0.8240   0.00    0.0
2015/05/13 10:04:45.000   55.373729734   10.401000344    60.5055   5   8   5.0292   3.2619   6.6338   1.6481  -1.7882   0.8249   0.00    0.0
2015/05/13 10:04:46.000   55.373741850   10.400997391    58.6833   5   8   5.0293   3.2619   6.6342   1.6482  -1.7877   0.8257   0.00    0.0
2015/05/13 10:04:47.000   55.373737599   10.400997503    58.5816   5   8   5.0295   3.2618   6.6346   1.6484  -1.7872   0.8266   0.00    0.0
2015/05/13 10:04:48.000   55.373728042   10.401004016    60.3873   5   8   5.0297   3.2617   6.6351   1.6485  -1.7867   0.8274   0.00    0.0
2015/05/13 10:04:49.000   55.373728046   10.401003146    59.9210   5   8   5.0298   3.2617   6.6355   1.6486  -1.7862   0.8283   0.00    0.0
2015/05/13 10:04:50.000   55.373731145   10.401008294    59.3971   5   8   5.0300   3.2616   6.6360   1.6488  -1.7857   0.8291   0.00    0.0
2015/05/13 10:04:51.000   55.373734377   10.401007948    59.0595   5   8   5.0301   3.2616   6.6364   1.6489  -1.7852   0.8300   0.00    0.0
2015/05/13 10:04:52.000   55.373732971   10.401003009    58.8749   5   8   5.0303   3.2615   6.6368   1.6490  -1.7847   0.8308   0.00    0.0
2015/05/13 10:04:53.000   55.373732445   10.401003682    58.5949   5   8   5.0305   3.2614   6.6373   1.6491  -1.7842   0.8317   0.00    0.0
2015/05/13 10:04:54.000   55.373731718   10.401003164    58.4714   5   8   5.0306   3.2614   6.6377   1.6493  -1.7837   0.8325   0.00    0.0
2015/05/13 10:04:55.000   55.373730154   10.401005497    58.2665   5   8   5.0308   3.2613   6.6382   1.6494  -1.7832   0.8334   0.00    0.0
2015/05/13 10:04:56.000   55.373731016   10.401005681    58.1421   5   8   5.0309   3.2613   6.6386   1.6495  -1.7827   0.8342   0.00    0.0
2015/05/13 10:04:57.000   55.373732714   10.401007811    57.9748   5   8   5.0311   3.2612   6.6390   1.6496  -1.7822   0.8351   0.00    0.0
2015/05/13 10:04:58.000   55.373735154   10.401007167    58.0498   5   8   5.0313   3.2611   6.6395   1.6498  -1.7817   0.8359   0.00    0.0
2015/05/13 10:04:59.000   55.373734101   10.401006805    58.1052   5   8   5.0314   3.2611   6.6399   1.6499  -1.7812   0.8368   0.00    0.0
2015/05/13 10:05:00.000   55.373734366   10.401005456    58.0529   5   8   5.0316   3.2610   6.6404   1.6500  -1.7807   0.8376   0.00    0.0
2015/05/13 10:05:01.000   55.373737210   10.401005315    57.8601   5   8   5.0317   3.2610   6.6408   1.6501  -1.7802   0.8385   0.00    0.0
2015/05/13 10:05:02.000   55.373738697   10.401007744    57.5337   5   8   5.0319   3.2609   6.6413   1.6503  -1.7797   0.8394   0.00    0.0
2015/05/13 10:05:03.000   55.373738231   10.401008878    57.5563   5   8   5.0321   3.2608   6.6417   1.6504  -1.7792   0.8402   0.00    0.0
2015/05/13 10:05:04.000   55.373738112   10.401005395    57.7575   5   8   5.0322   3.2608   6.6421   1.6505  -1.7787   0.8411   0.00    0.0
2015/05/13 10:05:05.000   55.373736073   10.401002254    57.7369   5   8   5.0324   3.2607   6.6426   1.6506  -1.7782   0.8419   0.00    0.0
2015/05/13 10:05:06.000   55.373734924   10.401002779    57.4187   5   8   5.0325   3.2607   6.6430   1.6508  -1.7777   0.8428   0.00    0.0
2015/05/13 10:05:07.000   55.373733100   10.401001769    57.9602   5   8   5.0327   3.2606   6.6435   1.6509  -1.7772   0.8436   0.00    0.0
2015/05/13 10:05:08.000   55.373720182   10.401003055    60.3808   5   8   5.0329   3.2606   6.6439   1.6510  -1.7767   0.8445   0.00    0.0
2015/05/13 10:05:09.000   55.373707967   10.401004999    62.7893   5   8   5.0330   3.2605   6.6444   1.6512  -1.7762   0.8453   0.00    0.0
2015/05/13 10:05:10.000   55.373676163   10.401004541    68.6138   5   8   5.0332   3.2604   6.6448   1.6513  -1.7757   0.8462   0.00    0.0
2015/05/13 10:05:11.000   55.373682273   10.401002561    67.5632   5   8   5.0333   3.2604   6.6453   1.6514  -1.7752   0.8471   0.00    0.0
2015/05/13 10:05:12.000   55.373715384   10.401000031    61.9992   5   8   5.0335   3.2603   6.6457   1.6515  -1.7747   0.8479   0.00    0.0
2015/05/13 10:05:13.000   55.373715415   10.401001859    62.0413   5   8   5.0336   3.2603   6.6462   1.6517  -1.7742   0.8488   0.00    0.0
2015/05/13 10:05:14.000   55.373711505   10.401004114    63.5435   5   8   5.0338   3.2602   6.6466   1.6518  -1.7737   0.8496   0.00    0.0
2015/05/13 10:05:15.000   55.373713215   10.401012036    63.7753   5   8   5.0340   3.2601   6.6471   1.6519  -1.7732   0.8505   0.00    0.0
2015/05/13 10:05:16.000   55.373724848   10.401016208    61.8830   5   8   5.0341   3.2601   6.6475   1.6520  -1.7727   0.8514   0.00    0.0
2015/05/13 10:05:17.000   55.373723088   10.401018546    62.3739   5   8   5.0343   3.2600   6.6480   1.6522  -1.7721   0.8522   0.00    0.0
2015/05/13 10:05:18.000   55.373723072   10.401019578    62.2955   5   8   5.0344   3.2600   6.6484   1.6523  -1.7716   0.8531   0.00    0.0
2015/05/13 10:05:19.000   55.373699177   10.401022681    66.4602   5   8   5.0346   3.2599   6.6489   1.6524  -1.7711   0.8540   0.00    0.0
2015/05/13 10:05:20.000   55.373683664   10.401026407    68.5424   5   8   5.0347   3.2599   6.6493   1.6525  -1.7706   0.8548   0.00    0.0
2015/05/13 10:05:21.000   55.373653221   10.401029712    73.7574   5   8   5.0349   3.2598   6.6498   1.6527  -1.7701   0.8557   0.00    0.0
2015/05/13 10:05:24.000   55.373674779   10.401026522    69.4334   5   8   5.0354   3.2596   6.6511   1.6530  -1.7686   0.8583   0.00    0.0
2015/05/13 10:05:25.000   55.373716169   10.401022808    62.0928   5   8   5.0355   3.2596   6.6516   1.6532  -1.7681   0.8592   0.00    0.0
2015/05/13 10:05:26.000   55.373714770   10.401025741    62.2947   5   8   5.0357   3.2595   6.6520   1.6533  -1.7676   0.8600   0.00    0.0
2015/05/13 10:05:27.000   55.373702339   10.401026279    64.6352   5   8   5.0358   3.2594   6.6525   1.6534  -1.7671   0.8609   0.00    0.0
2015/05/13 10:05:28.000   55.373727346   10.401025765    60.4705   5   8   5.0360   3.2594   6.6529   1.6535  -1.7666   0.8618   0.00    0.0
2015/05/13 10:05:29.000   55.373709305   10.401030889    63.1527   5   8   5.0362   3.2593   6.6534   1.6537  -1.7661   0.8626   0.00    0.0
2015/05/13 10:05:30.000   55.373737304   10.401030713    57.7018   5   8   5.0363   3.2593   6.6538   1.6538  -1.7656   0.8635   0.00    0.0
2015/05/13 10:05:31.000   55.373767357   10.401025627    52.0007   5   8   5.0365   3.2592   6.6543   1.6539  -1.7651   0.8644   0.00    0.0
2015/05/13 10:05:32.000   55.373782647   10.401023610    49.1371   5   8   5.0366   3.2591   6.6547   1.6540  -1.7645   0.8652   0.00    0.0
2015/05/13 10:05:33.000   55.373743338   10.401027381    55.9630   5   8   5.0368   3.2591   6.6552   1.6542  -1.7640   0.8661   0.00    0.0
2015/05/13 10:05:34.000   55.373728921   10.401028863    58.6089   5   8   5.0369   3.2590   6.6556   1.6543  -1.7635   0.8670   0.00    0.0
2015/05/13 10:05:35.000   55.373730827   10.401023524    57.5815   5   8   5.0371   3.2590   6.6561   1.6544  -1.7630   0.8678   0.00    0.0
2015/05/13 10:05:36.000   55.373727754   10.401022759    58.1519   5   8   5.0372   3.2589   6.6565   1.6545  -1.7625   0.8687   0.00    0.0
2015/05/13 10:05:37.000   55.373727374   10.401020418    58.1188   5   8   5.0374   3.2589   6.6570   1.6547  -1.7620   0.8696   0.00    0.0
2015/05/13 10:05:38.000   55.373731133   10.401015799    57.6038   5   8   5.0375   3.2588   6.6575   1.6548  -1.7615   0.8705   0.00    0.0
2015/05/13 10:05:39.000   55.373733683   10.401011570    57.4403   5   8   5.0377   3.2587   6.6579   1.6549  -1.7610   0.8713   0.00    0.0
2015/05/13 10:05:40.000   55.373735801   10.401006453    57.1212   5   8   5.0379   3.2587   6.6584   1.6550  -1.7605   0.8722   0.00    0.0
2015/05/13 10:05:41.000   55.373737637   10.401002493    57.6038   5   8   5.0380   3.2586   6.6588   1.6552  -1.7599   0.8731   0.00    0.0
2015/05/13 10:05:42.000   55.373737760   10.401004975    57.2727   5   8   5.0382   3.2586   6.6593   1.6553  -1.7594   0.8740   0.00    0.0
2015/05/13 10:05:43.000   55.373735605   10.401003876    57.4737   5   8   5.0383   3.2585   6.6597   1.6554  -1.7589   0.8748   0.00    0.0
2015/05/13 10:05:44.000   55.373736781   10.401002585    57.7597   5   8   5.0385   3.2584   6.6602   1.6555  -1.7584   0.8757   0.00    0.0
2015/05/13 10:05:45.000   55.373737484   10.401006337    57.9090   5   8   5.0386   3.2584   6.6607   1.6557  -1.7579   0.8766   0.00    0.0
2015/05/13 10:05:46.000   55.373737302   10.401009560    58.0854   5   8   5.0388   3.2583   6.6611   1.6558  -1.7574   0.8775   0.00    0.0
2015/05/13 10:05:47.000   55.373735613   10.401012256    58.0782   5   8   5.0389   3.2583   6.6616   1.6559  -1.7569   0.8783   0.00    0.0
2015/05/13 10:05:48.000   55.373734277   10.401014533    58.1572   5   8   5.0391   3.2582   6.6620   1.6560  -1.7564   0.8792   0.00    0.0
2015/05/13 10:05:49.000   55.373730364   10.401014347    58.7182   5   8   5.0392   3.2582   6.6625   1.6562  -1.7558   0.8801   0.00    0.0
2015/05/13 10:05:50.000   55.373725484   10.401018353    59.3592   5   8   5.0394   3.2581   6.6630   1.6563  -1.7553   0.8810   0.00    0.0
2015/05/13 10:05:51.000   55.373723965   10.401018917    58.8915   5   8   5.0395   3.2580   6.6634   1.6564  -1.7548   0.8819   0.00    0.0
2015/05/13 10:05:52.000   55.373727159   10.401018718    58.5915   5   8   5.0397   3.2580   6.6639   1.6565  -1.7543   0.8827   0.00    0.0
2015/05/13 10:05:53.000   55.373728882   10.401017070    58.8527   5   8   5.0399   3.2579   6.6643   1.6567  -1.7538   0.8836   0.00    0.0
2015/05/13 10:05:54.000   55.373726648   10.401016101    59.3277   5   8   5.0400   3.2579   6.6648   1.6568  -1.7533   0.8845   0.00    0.0
2015/05/13 10:05:55.000   55.373729826   10.401017461    59.4350   5   8   5.0402   3.2578   6.6653   1.6569  -1.7527   0.8854   0.00    0.0
2015/05/13 10:05:56.000   55.373737113   10.401018231    59.2456   5   8   5.0403   3.2577   6.6657   1.6570  -1.7522   0.8863   0.00    0.0
2015/05/13 10:05:57.000   55.373750548   10.401017517    57.5602   5   8   5.0405   3.2577   6.6662   1.6572  -1.7517   0.8871   0.00    0.0
2015/05/13 10:05:58.000   55.373776005   10.401018903    53.8230   5   8   5.0406   3.2576   6.6666   1.6573  -1.7512   0.8880   0.00    0.0
2015/05/13 10:05:59.000   55.373761312   10.401016070    56.3559   5   8   5.0408   3.2576   6.6671   1.6574  -1.7507   0.8889   0.00    0.0
2015/05/13 10:06:00.000   55.373766038   10.401017235    55.5798   5   8   5.0409   3.2575   6.6676   1.6575  -1.7502   0.8898   0.00    0.0
2015/05/13 10:06:01.000   55.373765695   10.401020902    55.6598   5   8   5.0411   3.2575   6.6680   1.6577  -1.7496   0.8907   0.00    0.0
2015/05/13 10:06:02.000   55.373750141   10.401021025    58.7402   5   8   5.0412   3.2574   6.6685   1.6578  -1.7491   0.8916   0.00    0.0
2015/05/13 10:06:03.000   55.373749226   10.401022133    59.1135   5   8   5.0414   3.2573   6.6690   1.6579  -1.7486   0.8924   0.00    0.0
2015/05/13 10:06:04.000   55.373742267   10.401022679    59.3888   5   8   5.0415   3.2573   6.6694   1.6580  -1.7481   0.8933   0.00    0.0
2015/05/13 10:06:05.000   55.373740419   10.401018312    59.2761   5   8   5.0417   3.2572   6.6699   1.6582  -1.7476   0.8942   0.00    0.0
2015/05/13 10:06:06.000   55.373740935   10.401014326    58.8178   5   8   5.0418   3.2572   6.6704   1.6583  -1.7470   0.8951   0.00    0.0
2015/05/13 10:06:07.000   55.373741417   10.401013250    58.2604   5   8   5.0420   3.2571   6.6708   1.6584  -1.7465   0.8960   0.00    0.0
2015/05/13 10:06:08.000   55.373738823   10.401007929    58.6068   5   8   5.0421   3.2571   6.6713   1.6585  -1.7460   0.8969   0.00    0.0
2015/05/13 10:06:09.000   55.373739259   10.401003656    58.7462   5   8   5.0423   3.2570   6.6718   1.6587  -1.7455   0.8978   0.00    0.0
2015/05/13 10:06:10.000   55.373737933   10.401001376    58.9498   5   8   5.0424   3.2569   6.6722   1.6588  -1.7450   0.8987   0.00    0.0
2015/05/13 10:06:11.000   55.373736673   10.400999842    59.7703   5   8   5.0426   3.2569   6.6727   1.6589  -1.7444   0.8995   0.00    0.0
2015/05/13 10:06:12.000   55.373712166   10.400997923    63.4877   5   8   5.0427   3.2568   6.6732   1.6590  -1.7439   0.9004   0.00    0.0
2015/05/13 10:06:13.000   55.373706656   10.400999897    64.2056   5   8   5.0429   3.2568   6.6736   1.6591  -1.7434   0.9013   0.00    0.0
2015/05/13 10:06:14.000   55.373698459   10.400996972    65.1310   5   8   5.0430   3.2567   6.6741   1.6593  -1.7429   0.9022   0.00    0.0
2015/05/13 10:06:15.000   55.373709017   10.400997402    63.3654   5   8   5.0432   3.2566   6.6746   1.6594  -1.7424   0.9031   0.00    0.0
2015/05/13 10:06:16.000   55.373722847   10.400998115    61.0472   5   8   5.0433   3.2566   6.6750   1.6595  -1.7418   0.9040   0.00    0.0
2015/05/13 10:06:17.000   55.373720254   10.401001015    61.6395   5   8   5.0435   3.2565   6.6755   1.6596  -1.7413   0.9049   0.00    0.0
2015/05/13 10:06:18.000   55.373738532   10.400998250    58.4105   5   8   5.0436   3.2565   6.6760   1.6598  -1.7408   0.9058   0.00    0.0
2015/05/13 10:06:19.000   55.373738674   10.401003477    58.1833   5   8   5.0438   3.2564   6.6764   1.6599  -1.7403   0.9067   0.00    0.0
2015/05/13 10:06:20.000   55.373738915   10.401005613    58.4788   5   8   5.0439   3.2564   6.6769   1.6600  -1.7397   0.9076   0.00    0.0
2015/05/13 10:06:21.000   55.373737285   10.401008216    58.1635   5   8   5.0441   3.2563   6.6774   1.6601  -1.7392   0.9085   0.00    0.0
2015/05/13 10:06:22.000   55.373736471   10.401014322    58.2363   5   8   5.0442   3.2562   6.6779   1.6603  -1.7387   0.9093   0.00    0.0
2015/05/13 10:06:23.000   55.373738366   10.401015630    58.5574   5   8   5.0444   3.2562   6.6783   1.6604  -1.7382   0.9102   0.00    0.0
2015/05/13 10:06:24.000   55.373738634   10.401016156    58.5502   5   8   5.0445   3.2561   6.6788   1.6605  -1.7376   0.9111   0.00    0.0
2015/05/13 10:06:25.000   55.373739683   10.401019456    58.9408   5   8   5.0447   3.2561   6.6793   1.6606  -1.7371   0.9120   0.00    0.0
2015/05/13 10:06:26.000   55.373741791   10.401027478    58.3032   5   8   5.0448   3.2560   6.6797   1.6608  -1.7366   0.9129   0.00    0.0
2015/05/13 10:06:27.000   55.373746566   10.401033072    58.1280   5   8   5.0450   3.2560   6.6802   1.6609  -1.7361   0.9138   0.00    0.0
2015/05/13 10:06:28.000   55.373746736   10.401039448    57.7263   5   8   5.0451   3.2559   6.6807   1.6610  -1.7355   0.9147   0.00    0.0
2015/05/13 10:06:29.000   55.373746648   10.401039330    57.8598   5   8   5.0453   3.2558   6.6812   1.6611  -1.7350   0.9156   0.00    0.0
2015/05/13 10:06:30.000   55.373749095   10.401040608    57.6665   5   8   5.0454   3.2558   6.6816   1.6613  -1.7345   0.9165   0.00    0.0
2015/05/13 10:06:31.000   55.373745242   10.401036658    57.9595   5   8   5.0456   3.2557   6.6821   1.6614  -1.7339   0.9174   0.00    0.0
2015/05/13 10:06:32.000   55.373745680   10.401035923    57.9063   5   8   5.0457   3.2557   6.6826   1.6615  -1.7334   0.9183   0.00    0.0
2015/05/13 10:06:33.000   55.373743672   10.401036855    57.7087   5   8   5.0459   3.2556   6.6831   1.6616  -1.7329   0.9192   0.00    0.0
2015/05/13 10:06:34.000   55.373737402   10.401030730    57.8613   5   8   5.0460   3.2556   6.6835   1.6617  -1.7324   0.9201   0.00    0.0
2015/05/13 10:06:35.000   55.373734031   10.401025973    57.9025   5   8   5.0462   3.2555   6.6840   1.6619  -1.7318   0.9210   0.00    0.0
2015/05/13 10:06:36.000   55.373732301   10.401020633    57.8989   5   8   5.0463   3.2554   6.6845   1.6620  -1.7313   0.9219   0.00    0.0
2015/05/13 10:06:37.000   55.373729787   10.401016634    58.2996   5   8   5.0465   3.2554   6.6850   1.6621  -1.7308   0.9228   0.00    0.0
2015/05/13 10:06:38.000   55.373728851   10.401014597    58.3986   5   8   5.0466   3.2553   6.6854   1.6622  -1.7302   0.9237   0.00    0.0
2015/05/13 10:06:39.000   55.373728056   10.401007978    58.3490   5   8   5.0467   3.2553   6.6859   1.6624  -1.7297   0.9246   0.00    0.0
2015/05/13 10:06:40.000   55.373725111   10.401000908    58.6189   5   8   5.0469   3.2552   6.6864   1.6625  -1.7292   0.9255   0.00    0.0
2015/05/13 10:06:41.000   55.373727507   10.401001402    58.8015   5   8   5.0470   3.2552   6.6869   1.6626  -1.7286   0.9264   0.00    0.0
2015/05/13 10:06:42.000   55.373732064   10.401004599    58.9107   5   8   5.0472   3.2551   6.6873   1.6627  -1.7281   0.9273   0.00    0.0
2015/05/13 10:06:43.000   55.373729479   10.401007716    59.7373   5   8   5.0473   3.2550   6.6878   1.6628  -1.7276   0.9282   0.00    0.0
2015/05/13 10:06:44.000   55.373720601   10.401013930    62.1852   5   8   5.0475   3.2550   6.6883   1.6630  -1.7270   0.9291   0.00    0.0
2015/05/13 10:06:45.000   55.373785486   10.401009639    51.3643   5   8   5.0476   3.2549   6.6888   1.6631  -1.7265   0.9300   0.00    0.0
2015/05/13 10:06:46.000   55.373801169   10.401007035    49.6671   5   8   5.0478   3.2549   6.6893   1.6632  -1.7260   0.9309   0.00    0.0
