%  GPST                  latitude(deg) longitude(deg)  height(m)   Q  ns   sdn(m)   sde(m)   sdu(m)  sdne(m)  sdeu(m)  sdun(m) age(s)  ratio
2015/05/14 09:15:19.000   55.373802062   10.401374909    65.8715   2   8   0.7914   0.6115   1.4471  -0.3651   0.1710  -0.4046   1.00    1.6
2015/05/14 09:15:20.000   55.373804471   10.401375168    65.3202   2   8   0.5650   0.4348   1.0335  -0.2582   0.1145  -0.2962   1.00    1.3
2015/05/14 09:15:21.000   55.373804160   10.401376710    65.2392   2   8   0.4629   0.3557   0.8466  -0.2108   0.0918  -0.2448   1.00    1.2
2015/05/14 09:15:22.000   55.373803267   10.401378330    65.1733   2   8   0.4015   0.3083   0.7344  -0.1826   0.0788  -0.2134   1.00    1.1
2015/05/14 09:15:23.000   55.373801790   10.401380862    65.0405   2   8   0.3595   0.2759   0.6574  -0.1633   0.0703  -0.1917   1.00    1.0
2015/05/14 09:15:24.000   55.373799557   10.401382494    65.1554   2   8   0.3284   0.2520   0.6004  -0.1491   0.0641  -0.1756   1.00    1.1
2015/05/14 09:15:25.000   55.373796432   10.401384352    65.3847   2   8   0.3042   0.2334   0.5561  -0.1380   0.0594  -0.1631   1.00    1.2
2015/05/14 09:15:26.000   55.373794492   10.401384941    65.4541   2   8   0.2847   0.2184   0.5202  -0.1291   0.0557  -0.1529   1.00    1.1
2015/05/14 09:15:27.000   55.373792833   10.401385886    65.5304   2   8   0.2685   0.2059   0.4905  -0.1217   0.0527  -0.1446   1.00    1.1
2015/05/14 09:15:28.000   55.373792401   10.401386298    65.4451   2   8   0.2547   0.1954   0.4653  -0.1155   0.0502  -0.1375   1.00    1.0
2015/05/14 09:15:29.000   55.373792434   10.401385666    65.3703   2   8   0.2429   0.1863   0.4436  -0.1101   0.0481  -0.1314   1.00    1.1
2015/05/14 09:15:30.000   55.373792745   10.401384951    65.3239   2   8   0.2326   0.1784   0.4247  -0.1054   0.0463  -0.1261   1.00    1.2
2015/05/14 09:15:31.000   55.373793104   10.401384158    65.2531   2   8   0.2235   0.1714   0.4080  -0.1012   0.0447  -0.1214   2.00    1.2
2015/05/14 09:15:32.000   55.373793561   10.401382778    65.2252   2   8   0.2153   0.1652   0.3930  -0.0975   0.0433  -0.1172   1.00    1.2
2015/05/14 09:15:33.000   55.373794165   10.401381799    65.1771   2   8   0.2080   0.1596   0.3796  -0.0942   0.0421  -0.1135   1.00    1.2
2015/05/14 09:15:34.000   55.373795160   10.401380746    65.1490   2   8   0.2014   0.1545   0.3674  -0.0911   0.0411  -0.1102   1.00    1.2
2015/05/14 09:15:35.000   55.373796504   10.401379871    65.1228   2   8   0.1954   0.1499   0.3563  -0.0884   0.0401  -0.1072   1.00    1.2
2015/05/14 09:15:36.000   55.373797883   10.401378748    65.1161   2   8   0.1898   0.1457   0.3461  -0.0858   0.0393  -0.1045   1.00    1.3
2015/05/14 09:15:37.000   55.373798944   10.401377851    65.0843   2   8   0.1848   0.1418   0.3368  -0.0835   0.0385  -0.1019   1.00    1.3
2015/05/14 09:15:38.000   55.373800158   10.401376969    65.0928   2   8   0.1800   0.1382   0.3281  -0.0813   0.0379  -0.0996   1.00    1.2
2015/05/14 09:15:39.000   55.373801238   10.401376235    65.1146   2   8   0.1757   0.1349   0.3201  -0.0793   0.0373  -0.0975   1.00    1.2
2015/05/14 09:15:40.000   55.373802219   10.401375519    65.1547   2   8   0.1716   0.1318   0.3125  -0.0775   0.0367  -0.0955   1.00    1.1
2015/05/14 09:15:41.000   55.373802948   10.401375098    65.2114   2   8   0.1678   0.1289   0.3055  -0.0757   0.0362  -0.0937   1.00    1.0
2015/05/14 09:15:42.000   55.373803289   10.401374923    65.2548   2   8   0.1642   0.1262   0.2989  -0.0741   0.0358  -0.0920   1.00    1.1
2015/05/14 09:15:43.000   55.373803698   10.401374727    65.3219   2   8   0.1609   0.1236   0.2927  -0.0725   0.0354  -0.0904   1.00    1.1
2015/05/14 09:15:44.000   55.373803921   10.401374773    65.4200   2   8   0.1577   0.1212   0.2869  -0.0710   0.0350  -0.0889   1.00    1.1
2015/05/14 09:15:45.000   55.373804062   10.401375194    65.5053   2   8   0.1547   0.1189   0.2814  -0.0697   0.0347  -0.0875   1.00    1.0
2015/05/14 09:15:46.000   55.373804003   10.401375704    65.6132   2   8   0.1519   0.1168   0.2761  -0.0683   0.0343  -0.0862   1.00    1.0
2015/05/14 09:15:47.000   55.373803952   10.401376287    65.6897   2   8   0.1492   0.1147   0.2712  -0.0671   0.0341  -0.0850   1.00    1.0
2015/05/14 09:15:48.000   55.373803911   10.401376589    65.7670   2   8   0.1466   0.1128   0.2664  -0.0659   0.0338  -0.0838   1.00    1.1
2015/05/14 09:15:49.000   55.373803914   10.401376884    65.7827   2   8   0.1442   0.1109   0.2619  -0.0648   0.0336  -0.0827   1.00    1.1
2015/05/14 09:15:50.000   55.373803995   10.401377213    65.7653   2   8   0.1418   0.1092   0.2576  -0.0637   0.0334  -0.0817   1.00    1.1
2015/05/14 09:15:51.000   55.373804286   10.401377467    65.7239   2   8   0.1396   0.1075   0.2535  -0.0626   0.0332  -0.0807   1.00    1.1
2015/05/14 09:15:52.000   55.373804509   10.401377811    65.6833   2   8   0.1375   0.1059   0.2496  -0.0616   0.0330  -0.0798   1.00    1.1
2015/05/14 09:15:53.000   55.373804841   10.401377815    65.6289   2   8   0.1355   0.1044   0.2458  -0.0607   0.0328  -0.0789   1.00    1.1
2015/05/14 09:15:54.000   55.373805095   10.401377947    65.5604   2   8   0.1335   0.1029   0.2422  -0.0598   0.0327  -0.0781   1.00    1.1
2015/05/14 09:15:55.000   55.373805432   10.401378079    65.4670   2   8   0.1316   0.1015   0.2387  -0.0589   0.0325  -0.0773   1.00    1.1
2015/05/14 09:15:56.000   55.373805721   10.401378141    65.3923   2   8   0.1298   0.1001   0.2354  -0.0580   0.0324  -0.0766   1.00    1.1
2015/05/14 09:15:57.000   55.373805950   10.401378578    65.3279   2   8   0.1281   0.0988   0.2322  -0.0572   0.0323  -0.0758   1.00    1.1
2015/05/14 09:15:58.000   55.373806089   10.401378975    65.2894   2   8   0.1264   0.0975   0.2291  -0.0564   0.0322  -0.0752   1.00    1.1
2015/05/14 09:15:59.000   55.373806271   10.401379268    65.2482   2   8   0.1248   0.0963   0.2261  -0.0556   0.0321  -0.0745   1.00    1.1
2015/05/14 09:16:00.000   55.373806466   10.401379537    65.2132   2   8   0.1233   0.0952   0.2233  -0.0549   0.0320  -0.0739   2.00    1.1
2015/05/14 09:16:01.000   55.373806596   10.401379804    65.2157   2   8   0.1217   0.0940   0.2204  -0.0542   0.0319  -0.0732   1.00    1.1
2015/05/14 09:16:02.000   55.373806710   10.401380036    65.2141   2   8   0.1203   0.0929   0.2177  -0.0535   0.0318  -0.0727   1.00    1.1
2015/05/14 09:16:03.000   55.373806764   10.401380374    65.2089   2   8   0.1189   0.0919   0.2151  -0.0528   0.0318  -0.0721   1.00    1.1
2015/05/14 09:16:04.000   55.373806747   10.401380484    65.2427   2   8   0.1175   0.0908   0.2125  -0.0522   0.0317  -0.0716   1.00    1.1
2015/05/14 09:16:05.000   55.373806818   10.401380557    65.2674   2   8   0.1162   0.0899   0.2101  -0.0515   0.0317  -0.0711   1.00    1.1
2015/05/14 09:16:06.000   55.373806876   10.401380476    65.2850   2   8   0.1149   0.0889   0.2077  -0.0509   0.0316  -0.0706   1.00    1.1
2015/05/14 09:16:07.000   55.373806944   10.401380406    65.3013   2   8   0.1136   0.0880   0.2054  -0.0503   0.0316  -0.0702   1.00    1.1
2015/05/14 09:16:08.000   55.373807088   10.401380171    65.2959   2   8   0.1124   0.0871   0.2031  -0.0497   0.0316  -0.0697   1.00    1.1
2015/05/14 09:16:09.000   55.373807115   10.401380016    65.3021   2   8   0.1113   0.0862   0.2009  -0.0491   0.0315  -0.0693   1.00    1.2
2015/05/14 09:16:10.000   55.373807199   10.401379805    65.2943   2   8   0.1101   0.0854   0.1989  -0.0486   0.0315  -0.0689   2.00    1.2
2015/05/14 09:16:11.000   55.373807434   10.401379340    65.2965   2   8   0.1090   0.0845   0.1967  -0.0480   0.0314  -0.0685   1.00    1.2
2015/05/14 09:16:12.000   55.373807743   10.401378735    65.3039   2   8   0.1079   0.0837   0.1947  -0.0475   0.0314  -0.0681   1.00    1.2
2015/05/14 09:16:13.000   55.373808195   10.401377822    65.2944   2   8   0.1069   0.0829   0.1927  -0.0470   0.0314  -0.0677   1.00    1.2
2015/05/14 09:16:14.000   55.373808535   10.401377170    65.2688   2   8   0.1058   0.0821   0.1908  -0.0465   0.0314  -0.0674   1.00    1.2
2015/05/14 09:16:15.000   55.373808883   10.401376602    65.2453   2   8   0.1048   0.0814   0.1889  -0.0460   0.0314  -0.0670   1.00    1.2
2015/05/14 09:16:16.000   55.373809258   10.401376072    65.2056   2   8   0.1038   0.0807   0.1871  -0.0455   0.0313  -0.0667   1.00    1.2
2015/05/14 09:16:17.000   55.373809724   10.401375452    65.1641   2   8   0.1029   0.0800   0.1853  -0.0450   0.0313  -0.0664   1.00    1.2
2015/05/14 09:16:18.000   55.373810051   10.401374982    65.1016   2   8   0.1019   0.0793   0.1836  -0.0445   0.0313  -0.0661   1.00    1.1
2015/05/14 09:16:19.000   55.373810403   10.401374658    65.0551   2   8   0.1010   0.0786   0.1819  -0.0441   0.0313  -0.0658   1.00    1.1
2015/05/14 09:16:20.000   55.373810761   10.401374364    65.0025   2   8   0.1001   0.0779   0.1802  -0.0436   0.0313  -0.0655   1.00    1.1
2015/05/14 09:16:21.000   55.373811234   10.401373995    64.9538   2   8   0.0993   0.0773   0.1786  -0.0432   0.0313  -0.0652   1.00    1.0
2015/05/14 09:16:22.000   55.373811668   10.401373661    64.9206   2   8   0.0984   0.0767   0.1770  -0.0428   0.0313  -0.0649   1.00    1.0
2015/05/14 09:16:23.000   55.373812048   10.401373384    64.8935   2   8   0.0976   0.0761   0.1754  -0.0424   0.0313  -0.0647   1.00    1.1
2015/05/14 09:16:24.000   55.373812444   10.401373341    64.8455   2   8   0.0968   0.0755   0.1739  -0.0420   0.0313  -0.0644   1.00    1.2
2015/05/14 09:16:25.000   55.373812909   10.401373327    64.7737   2   8   0.0960   0.0749   0.1724  -0.0416   0.0313  -0.0642   1.00    1.2
2015/05/14 09:16:33.000   55.373813228   10.401373259    64.7374   2   8   0.0952   0.0743   0.1706  -0.0412   0.0316  -0.0642   1.00    1.2
2015/05/14 09:16:34.000   55.373813414   10.401372969    64.7179   2   8   0.0943   0.0737   0.1691  -0.0408   0.0318  -0.0641   1.00    1.1
2015/05/14 09:16:35.000   55.373813439   10.401372486    64.7294   2   8   0.0935   0.0731   0.1676  -0.0403   0.0319  -0.0640   1.00    1.1
2015/05/14 09:16:36.000   55.373813553   10.401371967    64.7294   2   8   0.0927   0.0726   0.1661  -0.0399   0.0320  -0.0638   1.00    1.1
2015/05/14 09:16:37.000   55.373813622   10.401371332    64.7278   2   8   0.0920   0.0721   0.1648  -0.0395   0.0320  -0.0637   2.00    1.1
2015/05/14 09:16:38.000   55.373813619   10.401370755    64.7285   2   8   0.0912   0.0715   0.1633  -0.0391   0.0321  -0.0635   1.00    1.1
2015/05/14 09:16:39.000   55.373813676   10.401370051    64.7359   2   8   0.0905   0.0710   0.1620  -0.0387   0.0322  -0.0634   1.00    1.0
2015/05/14 09:16:40.000   55.373813794   10.401369334    64.7376   2   8   0.0898   0.0705   0.1606  -0.0383   0.0322  -0.0633   1.00    1.0
2015/05/14 09:16:41.000   55.373813918   10.401368517    64.7386   2   8   0.0891   0.0700   0.1593  -0.0379   0.0323  -0.0631   1.00    1.0
2015/05/14 09:16:42.000   55.373814172   10.401367587    64.7283   2   8   0.0884   0.0695   0.1580  -0.0375   0.0324  -0.0630   1.00    1.0
2015/05/14 09:16:43.000   55.373814353   10.401366758    64.7367   2   8   0.0877   0.0690   0.1568  -0.0371   0.0324  -0.0629   1.00    1.0
2015/05/14 09:16:44.000   55.373814529   10.401366109    64.7206   2   8   0.0871   0.0685   0.1555  -0.0368   0.0325  -0.0627   1.00    1.0
2015/05/14 09:16:45.000   55.373814774   10.401365472    64.7166   2   8   0.0864   0.0681   0.1543  -0.0364   0.0325  -0.0626   1.00    1.0
2015/05/14 09:16:46.000   55.373815094   10.401364682    64.7175   2   8   0.0858   0.0676   0.1531  -0.0361   0.0325  -0.0625   1.00    1.1
2015/05/14 09:16:47.000   55.373815354   10.401364144    64.7143   2   8   0.0852   0.0672   0.1520  -0.0357   0.0326  -0.0623   1.00    1.1
2015/05/14 09:16:48.000   55.373815725   10.401363288    64.7182   2   8   0.0845   0.0667   0.1508  -0.0354   0.0326  -0.0622   1.00    1.1
2015/05/14 09:16:49.000   55.373816007   10.401362672    64.7113   2   8   0.0840   0.0663   0.1497  -0.0351   0.0326  -0.0620   1.00    1.2
2015/05/14 09:16:50.000   55.373816344   10.401361974    64.7079   2   8   0.0834   0.0659   0.1486  -0.0347   0.0326  -0.0619   1.00    1.1
2015/05/14 09:16:51.000   55.373816625   10.401361399    64.6886   2   8   0.0828   0.0655   0.1476  -0.0344   0.0326  -0.0618   1.00    1.1
2015/05/14 09:16:52.000   55.373816984   10.401360872    64.6796   2   8   0.0822   0.0651   0.1465  -0.0341   0.0326  -0.0616   1.00    1.1
2015/05/14 09:16:53.000   55.373817256   10.401360576    64.6488   2   8   0.0817   0.0647   0.1455  -0.0338   0.0326  -0.0615   1.00    1.2
2015/05/14 09:16:54.000   55.373817559   10.401360274    64.6303   2   8   0.0811   0.0643   0.1444  -0.0335   0.0326  -0.0613   1.00    1.2
2015/05/14 09:16:55.000   55.373817818   10.401360192    64.6046   2   8   0.0806   0.0639   0.1434  -0.0332   0.0326  -0.0612   1.00    1.2
2015/05/14 09:16:56.000   55.373818006   10.401360056    64.5829   2   8   0.0801   0.0635   0.1425  -0.0329   0.0326  -0.0610   1.00    1.2
2015/05/14 09:16:57.000   55.373818288   10.401359949    64.5531   2   8   0.0795   0.0631   0.1415  -0.0326   0.0326  -0.0609   1.00    1.3
2015/05/14 09:16:58.000   55.373818460   10.401359983    64.5381   2   8   0.0790   0.0628   0.1405  -0.0324   0.0326  -0.0608   1.00    1.3
2015/05/14 09:16:59.000   55.373818632   10.401359967    64.5198   2   8   0.0785   0.0624   0.1396  -0.0321   0.0326  -0.0606   1.00    1.3
2015/05/14 09:17:00.000   55.373818731   10.401359813    64.5126   2   8   0.0780   0.0620   0.1387  -0.0318   0.0326  -0.0605   1.00    1.3
2015/05/14 09:17:01.000   55.373818898   10.401359634    64.5048   2   8   0.0775   0.0617   0.1378  -0.0315   0.0326  -0.0603   1.00    1.3
2015/05/14 09:17:02.000   55.373819108   10.401359387    64.4818   2   8   0.0771   0.0613   0.1369  -0.0313   0.0326  -0.0602   1.00    1.3
2015/05/14 09:17:03.000   55.373819208   10.401359223    64.4772   2   8   0.0766   0.0610   0.1360  -0.0310   0.0326  -0.0601   1.00    1.3
2015/05/14 09:17:04.000   55.373819372   10.401358848    64.4726   2   8   0.0761   0.0607   0.1351  -0.0308   0.0326  -0.0599   1.00    1.3
2015/05/14 09:17:05.000   55.373819498   10.401358645    64.4590   2   8   0.0757   0.0604   0.1343  -0.0305   0.0325  -0.0598   1.00    1.3
2015/05/14 09:17:06.000   55.373819583   10.401358442    64.4603   2   8   0.0752   0.0600   0.1335  -0.0303   0.0325  -0.0597   1.00    1.2
2015/05/14 09:17:07.000   55.373819725   10.401358131    64.4437   2   8   0.0748   0.0597   0.1327  -0.0301   0.0325  -0.0595   2.00    1.2
2015/05/14 09:17:08.000   55.373819843   10.401357798    64.4486   2   8   0.0743   0.0594   0.1319  -0.0298   0.0325  -0.0594   1.00    1.2
2015/05/14 09:17:09.000   55.373819894   10.401357562    64.4421   2   8   0.0739   0.0591   0.1311  -0.0296   0.0324  -0.0592   1.00    1.2
2015/05/14 09:17:10.000   55.373819971   10.401357124    64.4451   2   8   0.0735   0.0588   0.1303  -0.0293   0.0324  -0.0591   1.00    1.2
2015/05/14 09:17:11.000   55.373820056   10.401356779    64.4455   2   8   0.0731   0.0585   0.1295  -0.0291   0.0324  -0.0589   1.00    1.2
2015/05/14 09:17:12.000   55.373820115   10.401356451    64.4534   2   8   0.0727   0.0582   0.1287  -0.0289   0.0324  -0.0588   1.00    1.2
2015/05/14 09:17:13.000   55.373820216   10.401355944    64.4709   2   8   0.0723   0.0579   0.1280  -0.0287   0.0323  -0.0587   1.00    1.2
2015/05/14 09:17:14.000   55.373820245   10.401355698    64.4886   2   8   0.0719   0.0576   0.1272  -0.0284   0.0323  -0.0585   1.00    1.1
2015/05/14 09:17:15.000   55.373820239   10.401355425    64.5186   2   8   0.0715   0.0573   0.1265  -0.0282   0.0323  -0.0584   1.00    1.1
2015/05/14 09:17:16.000   55.373820197   10.401355161    64.5497   2   8   0.0711   0.0570   0.1258  -0.0280   0.0322  -0.0583   1.00    1.0
2015/05/14 09:17:17.000   55.373820151   10.401354903    64.5850   2   8   0.0707   0.0568   0.1251  -0.0278   0.0322  -0.0582   1.00    1.0
2015/05/14 09:17:18.000   55.373820089   10.401354627    64.6165   2   8   0.0703   0.0565   0.1244  -0.0276   0.0322  -0.0580   1.00    1.1
2015/05/14 09:17:19.000   55.373819980   10.401354359    64.6521   2   8   0.0700   0.0562   0.1237  -0.0274   0.0321  -0.0579   1.00    1.2
2015/05/14 09:17:20.000   55.373819912   10.401354175    64.6829   2   8   0.0696   0.0560   0.1230  -0.0272   0.0321  -0.0578   1.00    1.2
2015/05/14 09:17:21.000   55.373819864   10.401353975    64.7158   2   8   0.0692   0.0557   0.1223  -0.0270   0.0321  -0.0576   1.00    1.2
2015/05/14 09:17:22.000   55.373819894   10.401353748    64.7447   2   8   0.0689   0.0554   0.1217  -0.0268   0.0321  -0.0575   1.00    1.2
2015/05/14 09:17:23.000   55.373819958   10.401353462    64.7709   2   8   0.0685   0.0552   0.1210  -0.0266   0.0320  -0.0574   1.00    1.2
2015/05/14 09:17:24.000   55.373819938   10.401353217    64.8006   2   8   0.0682   0.0549   0.1203  -0.0264   0.0320  -0.0573   1.00    1.3
2015/05/14 09:17:25.000   55.373820021   10.401352846    64.8259   2   8   0.0678   0.0547   0.1197  -0.0262   0.0319  -0.0571   1.00    1.3
2015/05/14 09:17:26.000   55.373820053   10.401352544    64.8483   2   8   0.0675   0.0544   0.1191  -0.0260   0.0319  -0.0570   1.00    1.3
2015/05/14 09:17:27.000   55.373820100   10.401352175    64.8680   2   8   0.0671   0.0542   0.1185  -0.0258   0.0319  -0.0569   1.00    1.3
2015/05/14 09:17:28.000   55.373820190   10.401351788    64.8934   2   8   0.0668   0.0539   0.1178  -0.0257   0.0318  -0.0568   1.00    1.3
2015/05/14 09:17:29.000   55.373820223   10.401351511    64.9205   2   8   0.0665   0.0537   0.1172  -0.0255   0.0318  -0.0566   1.00    1.3
2015/05/14 09:17:30.000   55.373820314   10.401351249    64.9516   2   8   0.0661   0.0535   0.1166  -0.0253   0.0317  -0.0565   1.00    1.3
2015/05/14 09:17:31.000   55.373820366   10.401351085    64.9780   2   8   0.0658   0.0532   0.1160  -0.0251   0.0317  -0.0564   1.00    1.4
2015/05/14 09:17:32.000   55.373820408   10.401350914    65.0045   2   8   0.0655   0.0530   0.1155  -0.0249   0.0317  -0.0563   1.00    1.4
2015/05/14 09:17:33.000   55.373820537   10.401350844    65.0218   2   8   0.0652   0.0528   0.1149  -0.0248   0.0316  -0.0561   1.00    1.4
2015/05/14 09:17:34.000   55.373820632   10.401350813    65.0399   2   8   0.0649   0.0526   0.1143  -0.0246   0.0316  -0.0560   1.00    1.4
2015/05/14 09:17:35.000   55.373820787   10.401350687    65.0568   2   8   0.0646   0.0523   0.1137  -0.0244   0.0316  -0.0559   1.00    1.4
2015/05/14 09:17:36.000   55.373820907   10.401350575    65.0791   2   8   0.0643   0.0521   0.1132  -0.0242   0.0315  -0.0558   1.00    1.4
2015/05/14 09:17:37.000   55.373820925   10.401350501    65.1090   2   8   0.0640   0.0519   0.1126  -0.0241   0.0315  -0.0557   1.00    1.4
2015/05/14 09:17:38.000   55.373821109   10.401350279    65.1242   2   8   0.0637   0.0517   0.1121  -0.0239   0.0314  -0.0555   1.00    1.4
2015/05/14 09:17:39.000   55.373821167   10.401350154    65.1506   2   8   0.0634   0.0515   0.1116  -0.0238   0.0314  -0.0554   1.00    1.4
2015/05/14 09:17:40.000   55.373821287   10.401349955    65.1785   2   8   0.0631   0.0513   0.1110  -0.0236   0.0313  -0.0553   1.00    1.4
2015/05/14 09:17:41.000   55.373821280   10.401349789    65.2104   2   8   0.0628   0.0511   0.1105  -0.0234   0.0313  -0.0552   1.00    1.5
2015/05/14 09:17:42.000   55.373821316   10.401349622    65.2255   2   8   0.0626   0.0509   0.1100  -0.0233   0.0312  -0.0551   1.00    1.5
2015/05/14 09:17:43.000   55.373821423   10.401349378    65.2393   2   8   0.0623   0.0507   0.1095  -0.0231   0.0312  -0.0550   1.00    1.5
2015/05/14 09:17:44.000   55.373821445   10.401349301    65.2435   2   8   0.0620   0.0505   0.1090  -0.0230   0.0312  -0.0548   1.00    1.4
2015/05/14 09:17:45.000   55.373821492   10.401349076    65.2542   2   8   0.0617   0.0503   0.1085  -0.0228   0.0311  -0.0547   1.00    1.4
2015/05/14 09:17:46.000   55.373821521   10.401349002    65.2785   2   8   0.0615   0.0501   0.1080  -0.0227   0.0311  -0.0546   1.00    1.4
2015/05/14 09:17:47.000   55.373821598   10.401348830    65.2802   2   8   0.0612   0.0499   0.1075  -0.0225   0.0310  -0.0545   1.00    1.4
2015/05/14 09:17:48.000   55.373821663   10.401348760    65.2839   2   8   0.0609   0.0497   0.1070  -0.0224   0.0310  -0.0544   1.00    1.4
2015/05/14 09:17:49.000   55.373821735   10.401348603    65.2924   2   8   0.0607   0.0495   0.1065  -0.0222   0.0309  -0.0543   1.00    1.4
2015/05/14 09:17:50.000   55.373821771   10.401348595    65.2860   2   8   0.0604   0.0493   0.1060  -0.0221   0.0309  -0.0541   1.00    1.4
2015/05/14 09:17:51.000   55.373821863   10.401348533    65.2760   2   8   0.0602   0.0491   0.1056  -0.0220   0.0308  -0.0540   1.00    1.4
2015/05/14 09:17:52.000   55.373821951   10.401348474    65.2769   2   8   0.0599   0.0490   0.1051  -0.0218   0.0308  -0.0539   1.00    1.4
2015/05/14 09:17:53.000   55.373822033   10.401348506    65.2791   2   8   0.0597   0.0488   0.1046  -0.0217   0.0307  -0.0538   1.00    1.3
2015/05/14 09:17:54.000   55.373822213   10.401348572    65.2653   2   8   0.0594   0.0486   0.1042  -0.0216   0.0306  -0.0537   1.00    1.2
2015/05/14 09:17:55.000   55.373822854   10.401349650    64.9694   2   8   0.0592   0.0484   0.1037  -0.0215   0.0306  -0.0536   1.00    1.2
2015/05/14 09:17:56.000   55.373822871   10.401349311    65.0730   2   8   0.0590   0.0483   0.1033  -0.0214   0.0306  -0.0535   1.00    1.2
2015/05/14 09:17:57.000   55.373822882   10.401349203    65.1291   2   8   0.0587   0.0481   0.1029  -0.0213   0.0306  -0.0534   1.00    1.2
2015/05/14 09:17:58.000   55.373822903   10.401349177    65.1647   2   8   0.0585   0.0479   0.1024  -0.0212   0.0306  -0.0533   1.00    1.2
2015/05/14 09:17:59.000   55.373823018   10.401349156    65.1934   2   8   0.0583   0.0478   0.1020  -0.0211   0.0306  -0.0533   1.00    1.2
2015/05/14 09:18:00.000   55.373823098   10.401349245    65.2173   2   8   0.0581   0.0476   0.1016  -0.0210   0.0306  -0.0532   1.00    1.2
2015/05/14 09:18:01.000   55.373823231   10.401349382    65.2311   2   8   0.0579   0.0474   0.1012  -0.0209   0.0306  -0.0531   1.00    1.2
2015/05/14 09:18:02.000   55.373823260   10.401349468    65.2617   2   8   0.0577   0.0473   0.1008  -0.0208   0.0306  -0.0530   1.00    1.2
2015/05/14 09:18:03.000   55.373823176   10.401349473    65.3441   2   7   0.0575   0.0471   0.1006  -0.0206   0.0304  -0.0531   1.00    1.2
2015/05/14 09:18:04.000   55.373823234   10.401349633    65.3692   2   8   0.0573   0.0470   0.1003  -0.0205   0.0304  -0.0530   1.00    1.2
2015/05/14 09:18:05.000   55.373823235   10.401349719    65.3927   2   8   0.0571   0.0468   0.0998  -0.0204   0.0304  -0.0529   1.00    1.2
2015/05/14 09:18:06.000   55.373823186   10.401349838    65.4161   2   8   0.0569   0.0467   0.0994  -0.0203   0.0304  -0.0528   1.00    1.2
2015/05/14 09:18:07.000   55.373823137   10.401350139    65.4216   2   7   0.0568   0.0466   0.0993  -0.0203   0.0303  -0.0528   2.00    1.2
2015/05/14 09:18:08.000   55.373823092   10.401350316    65.4544   2   7   0.0565   0.0464   0.0988  -0.0201   0.0302  -0.0527   1.00    1.1
2015/05/14 09:18:09.000   55.373823020   10.401350623    65.4802   2   7   0.0564   0.0462   0.0985  -0.0200   0.0302  -0.0527   1.00    1.1
2015/05/14 09:18:10.000   55.373822931   10.401350951    65.5209   2   7   0.0562   0.0461   0.0982  -0.0199   0.0301  -0.0526   1.00    1.1
2015/05/14 09:18:11.000   55.373822823   10.401351262    65.5524   2   7   0.0560   0.0459   0.0978  -0.0198   0.0301  -0.0526   1.00    1.1
2015/05/14 09:18:12.000   55.373822769   10.401351533    65.5847   2   7   0.0558   0.0458   0.0975  -0.0197   0.0300  -0.0525   1.00    1.1
2015/05/14 09:18:13.000   55.373822773   10.401351741    65.6074   2   7   0.0557   0.0457   0.0972  -0.0196   0.0300  -0.0525   1.00    1.1
2015/05/14 09:18:14.000   55.373822723   10.401352094    65.6380   2   7   0.0555   0.0455   0.0969  -0.0195   0.0300  -0.0524   1.00    1.1
2015/05/14 09:18:15.000   55.373822727   10.401352212    65.6648   2   7   0.0553   0.0454   0.0966  -0.0194   0.0299  -0.0524   1.00    1.1
2015/05/14 09:18:16.000   55.373822707   10.401352512    65.6801   2   7   0.0551   0.0452   0.0962  -0.0193   0.0299  -0.0523   1.00    1.1
2015/05/14 09:18:17.000   55.373822751   10.401352570    65.6997   2   7   0.0550   0.0451   0.0959  -0.0192   0.0298  -0.0523   1.00    1.1
2015/05/14 09:18:18.000   55.373822826   10.401352597    65.7045   2   7   0.0548   0.0450   0.0956  -0.0191   0.0298  -0.0522   1.00    1.1
2015/05/14 09:18:19.000   55.373822869   10.401352616    65.7173   2   7   0.0546   0.0448   0.0953  -0.0190   0.0298  -0.0522   1.00    1.1
2015/05/14 09:18:20.000   55.373822936   10.401352561    65.7208   2   7   0.0545   0.0447   0.0950  -0.0189   0.0297  -0.0521   1.00    1.1
2015/05/14 09:18:21.000   55.373822974   10.401352585    65.7424   2   7   0.0543   0.0446   0.0947  -0.0188   0.0297  -0.0521   1.00    1.1
2015/05/14 09:18:22.000   55.373823033   10.401352568    65.7474   2   7   0.0541   0.0444   0.0944  -0.0187   0.0296  -0.0520   1.00    1.1
2015/05/14 09:18:23.000   55.373823115   10.401352459    65.7504   2   7   0.0540   0.0443   0.0941  -0.0186   0.0296  -0.0519   1.00    1.0
2015/05/14 09:18:24.000   55.373823239   10.401352423    65.7649   2   7   0.0538   0.0442   0.0938  -0.0185   0.0296  -0.0519   1.00    1.0
2015/05/14 09:18:25.000   55.373823260   10.401352464    65.7883   2   7   0.0537   0.0440   0.0935  -0.0184   0.0295  -0.0518   1.00    1.0
2015/05/14 09:18:26.000   55.373823354   10.401352343    65.7926   2   7   0.0535   0.0439   0.0932  -0.0183   0.0295  -0.0518   1.00    1.0
2015/05/14 09:18:27.000   55.373823387   10.401352360    65.8160   2   7   0.0533   0.0438   0.0929  -0.0182   0.0294  -0.0517   1.00    1.0
2015/05/14 09:18:28.000   55.373823516   10.401352331    65.8208   2   7   0.0532   0.0436   0.0927  -0.0182   0.0294  -0.0517   1.00    1.1
2015/05/14 09:18:29.000   55.373823499   10.401352433    65.8353   2   7   0.0530   0.0435   0.0924  -0.0181   0.0294  -0.0516   1.00    1.1
2015/05/14 09:18:30.000   55.373823611   10.401352370    65.8578   2   7   0.0529   0.0434   0.0921  -0.0180   0.0293  -0.0516   1.00    1.1
2015/05/14 09:18:31.000   55.373823620   10.401352431    65.8771   2   7   0.0527   0.0433   0.0918  -0.0179   0.0293  -0.0515   1.00    1.2
2015/05/14 09:18:32.000   55.373823757   10.401352508    65.8782   2   7   0.0526   0.0432   0.0916  -0.0178   0.0292  -0.0515   1.00    1.2
2015/05/14 09:18:33.000   55.373823792   10.401352456    65.8856   2   7   0.0524   0.0430   0.0913  -0.0177   0.0292  -0.0514   1.00    1.2
2015/05/14 09:18:34.000   55.373823868   10.401352430    65.8682   2   7   0.0523   0.0429   0.0910  -0.0177   0.0292  -0.0513   1.00    1.3
2015/05/14 09:18:35.000   55.373825362   10.401352000    65.3573   1   7   0.0091   0.0087   0.0182   0.0025  -0.0073  -0.0077   1.00    3.1
2015/05/14 09:18:36.000   55.373824864   10.401353335    65.3608   1   7   0.0088   0.0077   0.0172  -0.0018  -0.0054  -0.0068   1.00    3.3
2015/05/14 09:18:37.000   55.373823800   10.401353824    65.8014   2   5   0.0527   0.0432   0.0970  -0.0163   0.0252  -0.0542   1.00    2.7
2015/05/14 09:18:38.000   55.373825885   10.401353180    65.5721   1   7   0.0236   0.0175   0.0764   0.0183  -0.0344  -0.0405   1.00    3.0
2015/05/14 09:18:39.000   55.373826707   10.401352678    65.7480   1   6   0.0261   0.0247   0.0810   0.0205  -0.0354  -0.0442   1.00    3.5
2015/05/14 09:18:40.000   55.373821117   10.401362698    66.8955   1   6   0.0259   0.0245   0.0807   0.0207  -0.0357  -0.0439   1.00    3.8
2015/05/14 09:18:41.000   55.373836614   10.401382583    63.0596   1   6   0.0294   0.0282   0.0866   0.0251  -0.0416  -0.0487   1.00    5.7
2015/05/14 09:18:42.000   55.373836056   10.401382165    63.0813   1   6   0.0278   0.0275   0.0839   0.0240  -0.0401  -0.0465   1.00    5.1
2015/05/14 09:18:44.000   55.373836166   10.401382381    63.2227   2   7   0.0536   0.0445   0.1008  -0.0126   0.0215  -0.0563   1.00   48.4
2015/05/14 09:18:45.000   55.373836043   10.401381722    63.2480   2   7   0.0535   0.0442   0.1007  -0.0130   0.0217  -0.0566   1.00   42.3
2015/05/14 09:18:46.000   55.373835930   10.401381177    63.2415   2   7   0.0531   0.0440   0.0998  -0.0136   0.0223  -0.0559   1.00   27.2
2015/05/14 09:18:47.000   55.373835798   10.401380512    63.2466   2   7   0.0528   0.0438   0.0992  -0.0139   0.0226  -0.0554   1.00   21.9
2015/05/14 09:18:48.000   55.373835739   10.401379824    63.2524   2   7   0.0526   0.0437   0.0988  -0.0142   0.0227  -0.0551   1.00   13.8
2015/05/14 09:18:49.000   55.373835741   10.401378998    63.2022   2   7   0.0529   0.0441   0.1063  -0.0152   0.0253  -0.0572   1.00    1.5
2015/05/14 09:18:50.000   55.373835995   10.401378323    63.1516   2   6   0.0538   0.0439   0.1107  -0.0154   0.0255  -0.0601   1.00    1.4
2015/05/14 09:18:51.000   55.373836050   10.401377789    63.0979   2   6   0.0537   0.0437   0.1105  -0.0154   0.0254  -0.0600   1.00    1.1
2015/05/14 09:18:52.000   55.373836099   10.401377285    63.1102   2   6   0.0536   0.0436   0.1102  -0.0154   0.0253  -0.0599   1.00    1.2
2015/05/14 09:18:53.000   55.373837530   10.401381512    62.6307   2   5   0.0553   0.0452   0.1148  -0.0080   0.0152  -0.0635   1.00    1.5
2015/05/14 09:18:54.000   55.373838757   10.401379171    62.5900   2   6   0.2519   0.0494   0.3585  -0.0706   0.0839  -0.2958   1.00    2.3
2015/05/14 09:18:55.000   55.373817491   10.401326011    67.7434   2   6   0.3943   0.5554   0.8209   0.4107  -0.6351  -0.5602   1.00    1.6
2015/05/14 09:18:56.000   55.373817378   10.401318174    68.0588   2   6   0.3125   0.3983   0.6133   0.2799  -0.4414  -0.4280   1.00    1.2
2015/05/14 09:19:00.000   55.373823922   10.401330592    66.6212   2   5   0.2785   0.3372   0.5239   0.2180  -0.3562  -0.3708   1.00   48.5
2015/05/14 09:19:01.000   55.373829187   10.401340096    65.4098   2   6   0.2577   0.2929   0.4695   0.1797  -0.3008  -0.3367   2.00   16.3
2015/05/14 09:19:02.000   55.373844995   10.401348296    66.6348   2   6   0.7271   0.5393   0.8898  -0.5470   0.5450  -0.7942   1.00    0.0
2015/05/14 09:19:03.000   55.373858471   10.401333410    64.8356   2   6   0.5418   0.3946   0.6971  -0.3677   0.3492  -0.6041   1.00    0.0
2015/05/14 09:19:04.000   55.373851979   10.401338904    65.7252   2   6   0.4579   0.3295   0.6066  -0.2876   0.2606  -0.5167   1.00    0.0
2015/05/14 09:19:05.000   55.373854314   10.401333273    65.6013   2   4   0.4774   0.3455   0.6113  -0.3236   0.3058  -0.5300   1.00    0.0
2015/05/14 09:19:06.000   55.373971815   10.401185427    53.4617   2   4   1.9009   1.3248   1.8046  -1.5697   1.5091  -1.8458   1.00    0.0
2015/05/14 09:19:07.000   55.373896298   10.401295816    60.6539   2   5   0.9903   0.5673   1.3535  -0.3035  -0.2781  -1.1347   1.00  177.1
2015/05/14 09:19:08.000   55.373913010   10.401278045    58.6936   2   6   0.6905   0.4259   0.9468  -0.2229  -0.2159  -0.7884   1.00   30.0
2015/05/14 09:19:09.000   55.373865388   10.401293599    65.4082   2   7   0.5047   0.3550   0.6877  -0.1956  -0.1648  -0.5684   1.00  104.9
2015/05/14 09:19:10.000   55.373854537   10.401303463    66.6149   2   6   0.4414   0.3343   0.5799  -0.2186  -0.0721  -0.4840   1.00   12.9
2015/05/14 09:19:11.000   55.373845204   10.401310912    67.7992   2   7   0.3825   0.2963   0.5066  -0.1878  -0.0846  -0.4189   1.00    5.9
2015/05/14 09:19:12.000   55.373845972   10.401307901    67.7898   2   6   0.3550   0.2690   0.4748  -0.1668  -0.0872  -0.3905   1.00    1.6
2015/05/14 09:19:13.000   55.373851922   10.401295214    67.3589   2   7   0.3212   0.2482   0.4312  -0.1521  -0.0846  -0.3520   1.00    2.4
2015/05/14 09:19:14.000   55.373853164   10.401291633    67.2921   1   7   0.2500   0.1750   0.2330  -0.2090   0.2015  -0.2410   1.00    3.1
2015/05/14 09:19:15.000   55.373852669   10.401289622    67.4388   1   6   0.2364   0.1654   0.2204  -0.1976   0.1905  -0.2279   1.00    7.1
2015/05/14 09:19:16.000   55.373853039   10.401285749    67.4589   2   6   0.2718   0.2064   0.3704  -0.1227  -0.0788  -0.2983   1.00    1.8
2015/05/14 09:19:17.000   55.373853045   10.401284010    67.4945   2   6   0.2616   0.1966   0.3582  -0.1158  -0.0770  -0.2874   1.00    1.2
2015/05/14 09:19:18.000   55.373851750   10.401284655    67.6147   2   6   0.2525   0.1880   0.3471  -0.1100  -0.0752  -0.2776   1.00    1.4
2015/05/14 09:19:19.000   55.373692461   10.401480163    84.1517   2   4   9.3640   6.5703   8.6899  -7.8416   7.5515  -9.0197   1.00    1.0
2015/05/14 09:19:20.000   55.373806752   10.401334061    72.4680   2   6   0.9522   0.6381   1.3000  -0.3314  -0.3279  -1.0829   1.00    1.4
2015/05/14 09:19:21.000   55.373806208   10.401325970    72.8129   2   6   0.6780   0.4536   0.9281  -0.2348  -0.2340  -0.7704   1.00   23.8
2015/05/14 09:19:22.000   55.373825599   10.401304512    70.6606   2   6   0.5550   0.3711   0.7615  -0.1920  -0.1915  -0.6301   1.00  421.3
2015/05/14 09:19:23.000   55.373839689   10.401291470    68.9822   2   6   0.4813   0.3217   0.6620  -0.1664  -0.1659  -0.5460   1.00  136.0
2015/05/14 09:19:24.000   55.373844350   10.401286294    68.4290   2   7   0.4038   0.2876   0.5535  -0.1547  -0.1396  -0.4540   1.00   44.0
2015/05/14 09:19:25.000   55.373845954   10.401282618    68.3177   2   7   0.3574   0.2626   0.4895  -0.1434  -0.1240  -0.3995   1.00   15.1
2015/05/14 09:19:26.000   55.373851427   10.401279328    67.6070   2   7   0.3226   0.2431   0.4416  -0.1345  -0.1119  -0.3586   1.00   13.5
2015/05/14 09:19:27.000   55.373856233   10.401275483    67.0127   2   7   0.2976   0.2274   0.4078  -0.1265  -0.1033  -0.3295   1.00    9.4
2015/05/14 09:19:28.000   55.373861270   10.401272430    66.3565   2   7   0.2777   0.2144   0.3810  -0.1198  -0.0964  -0.3064   1.00    6.2
2015/05/14 09:19:29.000   55.373863760   10.401269994    66.0766   2   7   0.2614   0.2035   0.3591  -0.1141  -0.0907  -0.2875   1.00    4.7
2015/05/14 09:19:30.000   55.373865566   10.401269067    65.8547   2   7   0.2477   0.1940   0.3408  -0.1090  -0.0859  -0.2717   1.00    3.4
2015/05/14 09:19:31.000   55.373866317   10.401269528    65.7248   2   7   0.3803   0.6327   0.3261  -0.4373   0.0875  -0.2714   1.00    1.1
2015/05/14 09:19:32.000   55.373864218   10.401272272    65.8452   2   7   0.3037   0.4497   0.3121  -0.3065   0.0179  -0.2526   1.00    1.7
2015/05/14 09:19:33.000   55.373863009   10.401274577    65.8546   2   6   0.2725   0.3679   0.3051  -0.2481  -0.0395  -0.2445   1.00    1.8
2015/05/14 09:19:34.000   55.373858237   10.401286947    66.0499   2   6   0.2535   0.3191   0.2984  -0.2131  -0.0487  -0.2377   1.00    1.3
2015/05/14 09:19:35.000   55.373853051   10.401290852    66.6195   1   7   0.0102   0.0066   0.0195  -0.0034  -0.0029  -0.0096   1.00    3.2
2015/05/14 09:19:36.000   55.373858983   10.401276899    66.2842   2   7   0.2248   0.2610   0.2783  -0.1712  -0.0547  -0.2188   1.00    1.4
2015/05/14 09:19:37.000   55.373861111   10.401269642    66.1656   2   7   0.2146   0.2418   0.2700  -0.1574  -0.0552  -0.2111   2.00    1.1
2015/05/14 09:19:38.000   55.373863756   10.401264650    66.0348   2   7   0.2059   0.2263   0.2625  -0.1463  -0.0552  -0.2043   1.00    1.0
2015/05/14 09:19:39.000   55.373862791   10.401266095    66.0968   2   7   0.1987   0.2136   0.2557  -0.1376  -0.0544  -0.1981   1.00    1.1
2015/05/14 09:19:40.000   55.373862401   10.401266989    66.0905   2   7   0.1920   0.2027   0.2494  -0.1298  -0.0539  -0.1924   1.00    1.2
2015/05/14 09:19:41.000   55.373861930   10.401267682    66.1157   2   7   0.1860   0.1933   0.2437  -0.1231  -0.0532  -0.1871   1.00    1.3
2015/05/14 09:19:42.000   55.373861377   10.401269569    66.1243   2   7   0.1807   0.1851   0.2383  -0.1174  -0.0525  -0.1822   1.00    1.1
2015/05/14 09:19:43.000   55.373859844   10.401271864    66.2666   2   7   0.1758   0.1779   0.2333  -0.1124  -0.0513  -0.1777   1.00    1.1
2015/05/14 09:19:44.000   55.373859645   10.401272591    66.2465   2   7   0.1714   0.1715   0.2286  -0.1080  -0.0505  -0.1734   1.00    1.1
2015/05/14 09:19:45.000   55.373858808   10.401275182    66.2622   2   7   0.1673   0.1657   0.2242  -0.1040  -0.0497  -0.1695   1.00    1.1
2015/05/14 09:19:46.000   55.373858021   10.401277362    66.2807   2   8   0.1622   0.1602   0.2190  -0.0995  -0.0510  -0.1644   1.00    1.2
2015/05/14 09:19:47.000   55.373857299   10.401279437    66.3021   2   8   0.1578   0.1553   0.2143  -0.0955  -0.0517  -0.1599   1.00    1.3
2015/05/14 09:19:48.000   55.373856817   10.401281595    66.2792   2   8   0.1538   0.1508   0.2099  -0.0920  -0.0521  -0.1558   1.00    1.2
2015/05/14 09:19:49.000   55.373856040   10.401283734    66.3155   2   8   0.1504   0.1470   0.2058  -0.0894  -0.0520  -0.1519   1.00    1.2
2015/05/14 09:19:50.000   55.373855573   10.401285011    66.3231   2   8   0.1468   0.1430   0.2020  -0.0862  -0.0522  -0.1482   1.00    1.2
2015/05/14 09:19:51.000   55.373855495   10.401285721    66.3064   2   8   0.1435   0.1395   0.1985  -0.0834  -0.0522  -0.1449   1.00    1.1
2015/05/14 09:19:52.000   55.373855305   10.401286130    66.3051   2   8   0.1405   0.1362   0.1951  -0.0810  -0.0520  -0.1417   1.00    1.1
2015/05/14 09:19:53.000   55.373855216   10.401286606    66.2840   2   8   0.1377   0.1331   0.1920  -0.0787  -0.0518  -0.1387   1.00    1.0
2015/05/14 09:19:54.000   55.373855068   10.401286731    66.2645   2   8   0.1351   0.1303   0.1890  -0.0766  -0.0515  -0.1359   1.00    1.0
2015/05/14 09:19:55.000   55.373855430   10.401286641    66.2642   2   8   0.1326   0.1276   0.1862  -0.0746  -0.0512  -0.1333   1.00    1.0
2015/05/14 09:19:56.000   55.373855506   10.401286341    66.2652   2   8   0.1303   0.1251   0.1835  -0.0728  -0.0508  -0.1308   1.00    1.0
2015/05/14 09:19:57.000   55.373855617   10.401286013    66.2625   2   8   0.1281   0.1227   0.1810  -0.0711  -0.0505  -0.1284   1.00    1.0
2015/05/14 09:19:58.000   55.373856262   10.401285743    66.2275   2   8   0.1260   0.1204   0.1786  -0.0695  -0.0501  -0.1261   1.00    1.1
2015/05/14 09:20:00.000   55.373856441   10.401285196    66.2026   2   8   0.1241   0.1183   0.1763  -0.0680  -0.0497  -0.1239   1.00    1.1
2015/05/14 09:20:01.000   55.373856764   10.401284637    66.1413   2   8   0.1222   0.1163   0.1741  -0.0665  -0.0493  -0.1219   1.00    1.1
2015/05/14 09:20:02.000   55.373856719   10.401284007    66.1255   2   8   0.1204   0.1144   0.1720  -0.0652  -0.0488  -0.1199   1.00    1.0
2015/05/14 09:20:03.000   55.373856806   10.401283340    66.1105   2   8   0.1187   0.1125   0.1699  -0.0639  -0.0484  -0.1180   1.00    1.0
2015/05/14 09:20:04.000   55.373856894   10.401282846    66.0819   2   8   0.1170   0.1108   0.1680  -0.0627  -0.0480  -0.1162   1.00    1.1
2015/05/14 09:20:05.000   55.373856939   10.401282390    66.0733   2   8   0.1154   0.1091   0.1661  -0.0615  -0.0476  -0.1145   1.00    1.2
2015/05/14 09:20:06.000   55.373856989   10.401282121    66.0536   2   8   0.1139   0.1075   0.1643  -0.0605  -0.0472  -0.1128   1.00    1.2
2015/05/14 09:20:07.000   55.373857199   10.401281796    66.0063   2   8   0.1125   0.1060   0.1626  -0.0594  -0.0468  -0.1112   1.00    1.2
2015/05/14 09:20:08.000   55.373857399   10.401281337    65.9617   2   8   0.1111   0.1045   0.1610  -0.0584  -0.0464  -0.1096   1.00    1.3
2015/05/14 09:20:09.000   55.373857531   10.401281088    65.9008   2   8   0.1098   0.1031   0.1594  -0.0574  -0.0459  -0.1082   1.00    1.3
2015/05/14 09:20:10.000   55.373857500   10.401280937    65.8481   2   8   0.1085   0.1017   0.1578  -0.0565  -0.0455  -0.1067   1.00    1.4
2015/05/14 09:20:11.000   55.373857393   10.401280895    65.8020   2   8   0.1072   0.1004   0.1563  -0.0557  -0.0451  -0.1053   1.00    1.4
2015/05/14 09:20:12.000   55.373857222   10.401281252    65.7915   2   8   0.1061   0.0992   0.1549  -0.0548  -0.0447  -0.1040   1.00    1.5
2015/05/14 09:20:13.000   55.373856966   10.401281868    65.7746   2   8   0.1049   0.0980   0.1535  -0.0540  -0.0444  -0.1027   1.00    1.5
2015/05/14 09:20:14.000   55.373856775   10.401282549    65.7561   2   8   0.1038   0.0968   0.1521  -0.0532  -0.0440  -0.1015   1.00    1.6
2015/05/14 09:20:15.000   55.373856570   10.401283105    65.7269   2   8   0.1027   0.0957   0.1508  -0.0525  -0.0436  -0.1002   1.00    1.7
2015/05/14 09:20:16.000   55.373856267   10.401283869    65.6890   2   8   0.1017   0.0946   0.1495  -0.0518  -0.0432  -0.0991   1.00    1.8
2015/05/14 09:20:17.000   55.373856166   10.401284279    65.6858   2   8   0.1006   0.0935   0.1483  -0.0511  -0.0428  -0.0979   1.00    1.8
2015/05/14 09:20:18.000   55.373856085   10.401284898    65.6706   2   8   0.0997   0.0925   0.1471  -0.0504  -0.0425  -0.0968   1.00    1.9
2015/05/14 09:20:19.000   55.373855806   10.401285426    65.6392   2   8   0.0987   0.0915   0.1459  -0.0497  -0.0421  -0.0958   1.00    2.0
2015/05/14 09:20:20.000   55.373855650   10.401286005    65.6044   2   8   0.0978   0.0905   0.1448  -0.0491  -0.0418  -0.0947   1.00    2.0
2015/05/14 09:20:21.000   55.373855552   10.401286429    65.5712   2   8   0.0969   0.0896   0.1437  -0.0485  -0.0414  -0.0937   1.00    2.1
2015/05/14 09:20:22.000   55.373855407   10.401286881    65.5533   2   8   0.0960   0.0887   0.1426  -0.0479  -0.0410  -0.0927   1.00    2.2
2015/05/14 09:20:23.000   55.373855228   10.401287510    65.5279   2   8   0.0952   0.0878   0.1416  -0.0473  -0.0407  -0.0918   1.00    2.2
2015/05/14 09:20:24.000   55.373855001   10.401288234    65.5042   2   8   0.0943   0.0869   0.1405  -0.0467  -0.0404  -0.0909   1.00    2.3
2015/05/14 09:20:25.000   55.373854825   10.401288815    65.4824   2   8   0.0935   0.0861   0.1395  -0.0462  -0.0400  -0.0900   1.00    2.4
2015/05/14 09:20:26.000   55.373854658   10.401289456    65.4537   2   8   0.0927   0.0852   0.1386  -0.0456  -0.0397  -0.0891   1.00    2.5
2015/05/14 09:20:27.000   55.373854513   10.401290141    65.4237   2   8   0.0920   0.0845   0.1377  -0.0451  -0.0394  -0.0882   2.00    2.5
2015/05/14 09:20:28.000   55.373854402   10.401290821    65.3871   2   8   0.0912   0.0837   0.1367  -0.0446  -0.0390  -0.0874   1.00    2.5
2015/05/14 09:20:29.000   55.373854356   10.401291479    65.3524   2   8   0.0905   0.0829   0.1358  -0.0441  -0.0387  -0.0866   1.00    2.5
2015/05/14 09:20:30.000   55.373854347   10.401292013    65.3153   2   8   0.0898   0.0822   0.1349  -0.0436  -0.0384  -0.0858   1.00    2.5
2015/05/14 09:20:31.000   55.373854414   10.401292584    65.2727   2   8   0.0891   0.0815   0.1340  -0.0432  -0.0381  -0.0850   1.00    2.4
2015/05/14 09:20:32.000   55.373854504   10.401292982    65.2435   2   8   0.0884   0.0808   0.1332  -0.0427  -0.0378  -0.0843   1.00    2.4
2015/05/14 09:20:33.000   55.373854499   10.401293531    65.2023   2   8   0.0877   0.0801   0.1324  -0.0423  -0.0374  -0.0835   1.00    2.3
2015/05/14 09:20:34.000   55.373854511   10.401293998    65.1632   2   8   0.0871   0.0794   0.1316  -0.0418  -0.0371  -0.0828   1.00    2.3
2015/05/14 09:20:35.000   55.373854595   10.401294401    65.1168   2   8   0.0865   0.0787   0.1308  -0.0414  -0.0368  -0.0821   1.00    2.2
2015/05/14 09:20:36.000   55.373854649   10.401294743    65.0700   2   8   0.0858   0.0781   0.1300  -0.0410  -0.0365  -0.0814   1.00    2.0
2015/05/14 09:20:37.000   55.373854654   10.401295243    65.0259   2   8   0.0852   0.0775   0.1292  -0.0406  -0.0362  -0.0808   1.00    1.7
2015/05/14 09:20:38.000   55.373854708   10.401295650    64.9736   2   8   0.0846   0.0769   0.1285  -0.0402  -0.0359  -0.0801   1.00    1.5
2015/05/14 09:20:39.000   55.373854742   10.401296211    64.9195   2   8   0.0840   0.0763   0.1277  -0.0398  -0.0356  -0.0795   1.00    1.3
2015/05/14 09:20:40.000   55.373854745   10.401296601    64.8777   2   8   0.0835   0.0757   0.1270  -0.0394  -0.0354  -0.0789   1.00    1.2
2015/05/14 09:20:41.000   55.373854696   10.401297066    64.8272   2   8   0.0829   0.0751   0.1263  -0.0390  -0.0351  -0.0782   1.00    1.0
2015/05/14 09:20:42.000   55.373854664   10.401297605    64.7852   2   8   0.0824   0.0745   0.1256  -0.0386  -0.0348  -0.0776   1.00    1.1
2015/05/14 09:20:43.000   55.373854614   10.401297959    64.7396   2   8   0.0818   0.0740   0.1250  -0.0383  -0.0345  -0.0771   2.00    1.2
2015/05/14 09:20:44.000   55.373854585   10.401298252    64.7030   2   8   0.0813   0.0734   0.1243  -0.0379  -0.0342  -0.0765   1.00    1.4
2015/05/14 09:20:45.000   55.373854550   10.401298602    64.6704   2   8   0.0808   0.0729   0.1236  -0.0376  -0.0339  -0.0759   1.00    1.5
2015/05/14 09:20:46.000   55.373854519   10.401298862    64.6370   2   8   0.0803   0.0724   0.1229  -0.0372  -0.0337  -0.0754   1.00    1.5
2015/05/14 09:20:47.000   55.373854382   10.401299085    64.5957   2   8   0.0797   0.0719   0.1223  -0.0368  -0.0334  -0.0749   1.00    1.4
2015/05/14 09:20:48.000   55.373854510   10.401299437    64.6102   2   8   0.0793   0.0714   0.1217  -0.0365  -0.0331  -0.0743   1.00    1.4
2015/05/14 09:20:49.000   55.373854186   10.401299526    64.5720   2   8   0.0788   0.0709   0.1211  -0.0362  -0.0328  -0.0738   1.00    1.3
2015/05/14 09:20:50.000   55.373854230   10.401299635    64.5772   2   8   0.0783   0.0704   0.1205  -0.0358  -0.0326  -0.0733   1.00    1.2
2015/05/14 09:20:51.000   55.373854028   10.401299708    64.5819   2   8   0.0778   0.0699   0.1199  -0.0355  -0.0323  -0.0728   1.00    1.2
2015/05/14 09:20:52.000   55.373853902   10.401299698    64.5706   2   8   0.0774   0.0694   0.1193  -0.0352  -0.0320  -0.0723   1.00    1.1
2015/05/14 09:20:53.000   55.373853697   10.401299654    64.5260   2   8   0.0769   0.0690   0.1187  -0.0349  -0.0318  -0.0719   1.00    1.0
2015/05/14 09:20:54.000   55.373853592   10.401299480    64.5123   2   8   0.0765   0.0685   0.1181  -0.0346  -0.0315  -0.0714   1.00    1.1
2015/05/14 09:20:55.000   55.373853490   10.401299460    64.5066   2   8   0.0760   0.0681   0.1176  -0.0343  -0.0312  -0.0710   1.00    1.1
2015/05/14 09:20:56.000   55.373853426   10.401299350    64.4808   2   8   0.0756   0.0676   0.1170  -0.0340  -0.0310  -0.0705   1.00    1.2
2015/05/14 09:20:57.000   55.373853522   10.401299296    64.4531   2   8   0.0752   0.0672   0.1165  -0.0337  -0.0307  -0.0701   1.00    1.3
2015/05/14 09:20:58.000   55.373853508   10.401299074    64.4251   2   8   0.0747   0.0668   0.1159  -0.0334  -0.0305  -0.0696   1.00    1.4
2015/05/14 09:20:59.000   55.373853463   10.401299070    64.3914   2   8   0.0743   0.0663   0.1154  -0.0331  -0.0302  -0.0692   1.00    1.5
2015/05/14 09:21:00.000   55.373853439   10.401299028    64.3502   2   8   0.0739   0.0659   0.1149  -0.0328  -0.0300  -0.0688   1.00    1.6
2015/05/14 09:21:01.000   55.373853309   10.401298895    64.3122   2   8   0.0735   0.0655   0.1143  -0.0325  -0.0297  -0.0684   1.00    1.8
2015/05/14 09:21:02.000   55.373853344   10.401299067    64.2720   2   8   0.0731   0.0651   0.1138  -0.0323  -0.0295  -0.0680   1.00    1.9
2015/05/14 09:21:03.000   55.373853390   10.401298664    64.2393   2   8   0.0727   0.0647   0.1133  -0.0320  -0.0292  -0.0676   1.00    2.1
2015/05/14 09:21:04.000   55.373853306   10.401298768    64.2667   2   8   0.0724   0.0643   0.1128  -0.0317  -0.0290  -0.0672   1.00    2.2
2015/05/14 09:21:05.000   55.373853242   10.401298886    64.2349   2   8   0.0720   0.0640   0.1123  -0.0315  -0.0287  -0.0669   1.00    2.3
2015/05/14 09:21:06.000   55.373853323   10.401298617    64.2391   2   8   0.0716   0.0636   0.1119  -0.0312  -0.0285  -0.0665   1.00    2.3
2015/05/14 09:21:07.000   55.373853277   10.401298451    64.2460   2   8   0.0712   0.0632   0.1114  -0.0309  -0.0282  -0.0661   1.00    2.4
2015/05/14 09:21:08.000   55.373853318   10.401298332    64.2341   2   8   0.0709   0.0628   0.1109  -0.0307  -0.0280  -0.0658   1.00    2.4
2015/05/14 09:21:09.000   55.373853447   10.401298171    64.2370   2   8   0.0705   0.0625   0.1104  -0.0304  -0.0277  -0.0654   1.00    2.4
2015/05/14 09:21:10.000   55.373853341   10.401298073    64.2191   2   8   0.0702   0.0621   0.1100  -0.0302  -0.0275  -0.0651   1.00    2.5
2015/05/14 09:21:11.000   55.373853330   10.401297868    64.1988   2   8   0.0698   0.0618   0.1095  -0.0299  -0.0273  -0.0648   1.00    2.6
2015/05/14 09:21:12.000   55.373853339   10.401297780    64.1944   2   8   0.0695   0.0614   0.1091  -0.0297  -0.0270  -0.0644   1.00    2.6
2015/05/14 09:21:13.000   55.373853290   10.401297744    64.1858   2   8   0.0692   0.0611   0.1087  -0.0294  -0.0268  -0.0641   2.00    2.6
2015/05/14 09:21:14.000   55.373853278   10.401297671    64.1935   2   8   0.0688   0.0608   0.1082  -0.0292  -0.0266  -0.0638   1.00    2.7
2015/05/14 09:21:15.000   55.373853335   10.401297638    64.1845   2   8   0.0685   0.0604   0.1078  -0.0289  -0.0263  -0.0635   1.00    2.7
2015/05/14 09:21:16.000   55.373853291   10.401297684    64.1690   2   8   0.0681   0.0601   0.1073  -0.0287  -0.0261  -0.0632   1.00    2.8
2015/05/14 09:21:17.000   55.373853206   10.401297791    64.1532   2   8   0.0678   0.0598   0.1069  -0.0285  -0.0259  -0.0629   1.00    2.8
2015/05/14 09:21:18.000   55.373853151   10.401297968    64.1489   2   8   0.0675   0.0595   0.1065  -0.0282  -0.0256  -0.0626   1.00    2.8
2015/05/14 09:21:19.000   55.373853059   10.401298106    64.1306   2   8   0.0672   0.0591   0.1061  -0.0280  -0.0254  -0.0623   1.00    2.9
2015/05/14 09:21:20.000   55.373852979   10.401298400    64.1108   2   8   0.0669   0.0588   0.1057  -0.0278  -0.0251  -0.0620   1.00    2.9
2015/05/14 09:21:21.000   55.373854892   10.401300145    63.3551   1   8   0.0079   0.0065   0.0146  -0.0032  -0.0033  -0.0035   1.00    3.0
2015/05/14 09:21:22.000   55.373854896   10.401300149    63.3552   1   8   0.0080   0.0065   0.0146  -0.0032  -0.0033  -0.0036   1.00    3.0
2015/05/14 09:21:23.000   55.373852773   10.401299058    64.0363   2   8   0.0659   0.0579   0.1045  -0.0271  -0.0244  -0.0611   1.00    3.0
2015/05/14 09:21:24.000   55.373852736   10.401299151    64.0080   2   8   0.0656   0.0576   0.1041  -0.0269  -0.0242  -0.0609   1.00    2.9
2015/05/14 09:21:25.000   55.373852727   10.401299292    63.9821   2   8   0.0653   0.0573   0.1037  -0.0266  -0.0240  -0.0606   1.00    2.9
2015/05/14 09:21:26.000   55.373852697   10.401299431    63.9492   2   8   0.0650   0.0571   0.1033  -0.0264  -0.0238  -0.0603   1.00    2.8
2015/05/14 09:21:27.000   55.373852703   10.401299436    63.9237   2   8   0.0648   0.0568   0.1029  -0.0262  -0.0235  -0.0601   1.00    2.7
2015/05/14 09:21:28.000   55.373852712   10.401299474    63.8914   2   8   0.0645   0.0565   0.1025  -0.0260  -0.0233  -0.0598   1.00    2.6
2015/05/14 09:21:29.000   55.373852706   10.401299474    63.8740   2   8   0.0642   0.0562   0.1022  -0.0258  -0.0231  -0.0596   1.00    2.6
2015/05/14 09:21:30.000   55.373852747   10.401299469    63.8431   2   8   0.0639   0.0559   0.1018  -0.0256  -0.0229  -0.0593   1.00    2.5
2015/05/14 09:21:31.000   55.373852718   10.401299504    63.8182   2   8   0.0636   0.0557   0.1014  -0.0254  -0.0226  -0.0591   1.00    2.4
2015/05/14 09:21:32.000   55.373852725   10.401299518    63.8011   2   8   0.0634   0.0554   0.1010  -0.0252  -0.0224  -0.0589   1.00    2.3
2015/05/14 09:21:33.000   55.373852714   10.401299484    63.7750   2   8   0.0631   0.0551   0.1007  -0.0250  -0.0222  -0.0586   1.00    2.3
2015/05/14 09:21:34.000   55.373852713   10.401299450    63.7707   2   8   0.0628   0.0549   0.1003  -0.0247  -0.0220  -0.0584   1.00    2.2
2015/05/14 09:21:35.000   55.373852720   10.401299313    63.7421   2   8   0.0626   0.0546   0.1000  -0.0245  -0.0217  -0.0582   1.00    2.1
2015/05/14 09:21:36.000   55.373852812   10.401299178    63.7286   2   8   0.0623   0.0544   0.0996  -0.0244  -0.0215  -0.0579   1.00    2.1
2015/05/14 09:21:37.000   55.373852806   10.401299116    63.7049   2   8   0.0620   0.0541   0.0993  -0.0241  -0.0213  -0.0577   1.00    2.0
2015/05/14 09:21:38.000   55.373852856   10.401298934    63.6733   2   8   0.0618   0.0538   0.0989  -0.0239  -0.0211  -0.0575   1.00    1.9
2015/05/14 09:21:39.000   55.373852899   10.401298828    63.6524   2   8   0.0615   0.0536   0.0986  -0.0238  -0.0209  -0.0573   1.00    1.8
2015/05/14 09:21:40.000   55.373852920   10.401298772    63.6332   2   8   0.0613   0.0534   0.0982  -0.0236  -0.0206  -0.0571   1.00    1.7
2015/05/14 09:21:41.000   55.373852970   10.401298566    63.6128   2   8   0.0610   0.0531   0.0979  -0.0234  -0.0204  -0.0569   1.00    1.6
2015/05/14 09:21:42.000   55.373853045   10.401298407    63.5898   2   8   0.0608   0.0529   0.0976  -0.0232  -0.0202  -0.0567   1.00    1.6
2015/05/14 09:21:43.000   55.373853106   10.401298213    63.5733   2   8   0.0605   0.0526   0.0973  -0.0230  -0.0200  -0.0565   1.00    1.5
2015/05/14 09:21:44.000   55.373853106   10.401298105    63.5599   2   8   0.0603   0.0524   0.0969  -0.0228  -0.0197  -0.0563   1.00    1.4
2015/05/14 09:21:45.000   55.373853147   10.401297976    63.5477   2   8   0.0600   0.0522   0.0966  -0.0226  -0.0195  -0.0561   1.00    1.4
2015/05/14 09:21:46.000   55.373853215   10.401297873    63.5312   2   8   0.0598   0.0519   0.0963  -0.0224  -0.0193  -0.0559   1.00    1.4
2015/05/14 09:21:47.000   55.373853288   10.401297720    63.5118   2   8   0.0596   0.0517   0.0960  -0.0222  -0.0191  -0.0557   1.00    1.3
2015/05/14 09:21:48.000   55.373853319   10.401297554    63.4964   2   8   0.0593   0.0515   0.0956  -0.0220  -0.0189  -0.0555   1.00    1.2
2015/05/14 09:21:49.000   55.373853379   10.401297243    63.4870   2   8   0.0591   0.0513   0.0953  -0.0219  -0.0187  -0.0553   1.00    1.2
2015/05/14 09:21:50.000   55.373853470   10.401297022    63.4667   2   8   0.0589   0.0511   0.0950  -0.0217  -0.0184  -0.0551   1.00    1.1
2015/05/14 09:21:51.000   55.373853487   10.401296756    63.4573   2   8   0.0586   0.0508   0.0947  -0.0215  -0.0182  -0.0549   1.00    1.1
2015/05/14 09:21:52.000   55.373853487   10.401296441    63.4510   2   8   0.0584   0.0506   0.0944  -0.0213  -0.0180  -0.0548   1.00    1.1
2015/05/14 09:21:53.000   55.373853535   10.401296180    63.4422   2   8   0.0582   0.0504   0.0941  -0.0211  -0.0178  -0.0546   1.00    1.0
2015/05/14 09:21:54.000   55.373853569   10.401295965    63.4307   2   8   0.0580   0.0502   0.0938  -0.0210  -0.0176  -0.0544   1.00    1.0
2015/05/14 09:21:55.000   55.373853545   10.401295815    63.4206   2   8   0.0578   0.0500   0.0936  -0.0208  -0.0174  -0.0542   2.00    1.1
2015/05/14 09:21:56.000   55.373853536   10.401295724    63.4190   2   8   0.0575   0.0498   0.0932  -0.0206  -0.0172  -0.0541   1.00    1.1
2015/05/14 09:21:57.000   55.373853506   10.401295726    63.4095   2   8   0.0573   0.0496   0.0929  -0.0205  -0.0169  -0.0539   1.00    1.2
2015/05/14 09:21:58.000   55.373853450   10.401295745    63.4046   2   8   0.0571   0.0494   0.0926  -0.0203  -0.0167  -0.0537   1.00    1.2
2015/05/14 09:21:59.000   55.373853390   10.401295837    63.3991   2   8   0.0569   0.0492   0.0923  -0.0201  -0.0165  -0.0536   1.00    1.3
2015/05/14 09:22:00.000   55.373853377   10.401295914    63.3781   2   8   0.0567   0.0490   0.0920  -0.0199  -0.0163  -0.0534   1.00    1.3
2015/05/14 09:22:01.000   55.373853314   10.401296041    63.3683   2   8   0.0565   0.0488   0.0918  -0.0198  -0.0161  -0.0533   1.00    1.4
2015/05/14 09:22:02.000   55.373853263   10.401296127    63.3575   2   8   0.0563   0.0486   0.0915  -0.0196  -0.0158  -0.0531   1.00    1.5
2015/05/14 09:22:03.000   55.373853214   10.401296211    63.3392   2   8   0.0561   0.0484   0.0912  -0.0194  -0.0156  -0.0530   1.00    1.5
2015/05/14 09:22:04.000   55.373853167   10.401296288    63.3301   2   8   0.0559   0.0482   0.0909  -0.0193  -0.0154  -0.0528   1.00    1.6
2015/05/14 09:22:05.000   55.373853139   10.401296364    63.3237   2   8   0.0557   0.0480   0.0906  -0.0191  -0.0152  -0.0527   1.00    1.7
2015/05/14 09:22:06.000   55.373853111   10.401296434    63.3098   2   8   0.0555   0.0478   0.0904  -0.0190  -0.0150  -0.0525   1.00    1.7
2015/05/14 09:22:07.000   55.373853072   10.401296467    63.3077   2   8   0.0553   0.0477   0.0901  -0.0188  -0.0148  -0.0524   1.00    1.8
2015/05/14 09:22:08.000   55.373853062   10.401296486    63.2917   2   8   0.0551   0.0475   0.0898  -0.0186  -0.0146  -0.0522   1.00    1.8
2015/05/14 09:22:09.000   55.373853037   10.401296625    63.2856   2   8   0.0549   0.0473   0.0896  -0.0185  -0.0143  -0.0521   1.00    1.9
2015/05/14 09:22:10.000   55.373853041   10.401296677    63.2832   2   8   0.0547   0.0471   0.0893  -0.0183  -0.0141  -0.0519   1.00    1.9
2015/05/14 09:22:11.000   55.373852964   10.401296815    63.2814   2   8   0.0545   0.0469   0.0890  -0.0181  -0.0139  -0.0518   1.00    1.9
2015/05/14 09:22:12.000   55.373852895   10.401296997    63.2810   2   8   0.0543   0.0468   0.0888  -0.0180  -0.0137  -0.0516   1.00    2.0
2015/05/14 09:22:13.000   55.373852820   10.401297059    63.2932   2   8   0.0541   0.0466   0.0885  -0.0178  -0.0135  -0.0515   1.00    2.0
2015/05/14 09:22:14.000   55.373852551   10.401297086    63.3246   2   8   0.0540   0.0464   0.0882  -0.0177  -0.0132  -0.0514   1.00    2.0
2015/05/14 09:22:15.000   55.373852602   10.401297358    63.3592   2   8   0.0539   0.0463   0.0881  -0.0177  -0.0127  -0.0514   1.00    2.1
2015/05/14 09:22:16.000   55.373852470   10.401297562    63.3644   2   8   0.0536   0.0461   0.0878  -0.0175  -0.0126  -0.0512   1.00    2.1
2015/05/14 09:22:17.000   55.373852426   10.401297841    63.3503   2   8   0.0534   0.0459   0.0875  -0.0173  -0.0125  -0.0510   1.00    2.2
2015/05/14 09:22:18.000   55.373852342   10.401297895    63.3557   2   8   0.0532   0.0458   0.0872  -0.0171  -0.0123  -0.0508   1.00    2.2
2015/05/14 09:22:19.000   55.373852201   10.401298065    63.3689   2   8   0.0530   0.0456   0.0870  -0.0170  -0.0121  -0.0507   1.00    2.3
2015/05/14 09:22:20.000   55.373852143   10.401298159    63.3617   2   8   0.0529   0.0455   0.0867  -0.0168  -0.0119  -0.0506   1.00    2.3
2015/05/14 09:22:21.000   55.373852019   10.401298194    63.3672   2   8   0.0527   0.0453   0.0865  -0.0167  -0.0117  -0.0504   1.00    2.4
2015/05/14 09:22:22.000   55.373851958   10.401298302    63.3764   2   8   0.0525   0.0451   0.0862  -0.0165  -0.0115  -0.0503   1.00    2.4
2015/05/14 09:22:23.000   55.373851926   10.401298285    63.3706   2   8   0.0523   0.0450   0.0860  -0.0164  -0.0113  -0.0502   1.00    2.5
2015/05/14 09:22:24.000   55.373851792   10.401297934    63.3840   2   8   0.0522   0.0448   0.0858  -0.0162  -0.0111  -0.0501   1.00    2.5
2015/05/14 09:22:25.000   55.373851645   10.401297866    63.3641   2   7   0.0522   0.0447   0.0858  -0.0159  -0.0106  -0.0496   1.00    1.2
2015/05/14 09:22:26.000   55.373851787   10.401297817    63.3375   2   8   0.0522   0.0445   0.0858  -0.0159  -0.0099  -0.0497   1.00    1.2
2015/05/14 09:22:27.000   55.373851712   10.401297772    63.3412   2   8   0.0518   0.0444   0.0853  -0.0157  -0.0101  -0.0496   1.00    1.2
2015/05/14 09:22:28.000   55.373851661   10.401297804    63.3394   2   8   0.0516   0.0442   0.0850  -0.0156  -0.0101  -0.0495   1.00    1.2
2015/05/14 09:22:29.000   55.373851647   10.401297831    63.3354   2   8   0.0514   0.0441   0.0848  -0.0155  -0.0099  -0.0494   1.00    1.2
2015/05/14 09:22:30.000   55.373851543   10.401297884    63.3471   2   8   0.0512   0.0439   0.0845  -0.0153  -0.0097  -0.0493   1.00    1.1
2015/05/14 09:22:31.000   55.373851518   10.401297995    63.3450   2   8   0.0510   0.0438   0.0843  -0.0152  -0.0095  -0.0492   1.00    1.1
2015/05/14 09:22:32.000   55.373851458   10.401297969    63.3522   2   8   0.0509   0.0436   0.0840  -0.0150  -0.0093  -0.0491   1.00    1.1
2015/05/14 09:22:33.000   55.373851388   10.401297946    63.3609   2   8   0.0507   0.0435   0.0838  -0.0149  -0.0091  -0.0490   1.00    1.1
2015/05/14 09:22:34.000   55.373851275   10.401298073    63.3666   2   8   0.0506   0.0434   0.0836  -0.0147  -0.0089  -0.0489   1.00    1.0
